{"type": "FeatureCollection", "crs": {"type": "name", "properties": {"name": "urn:ogc:def:crs:OGC:1.3:CRS84"}}, "features": [{"type": "Feature", "geometry": {"type": "Point", "coordinates": [141.355423, 43.1106]}, "properties": {"action": "救助出動", "address": "東区北41条東7丁目", "time": "2018-12-11T14:48:00+09:00"}}, {"type": "Feature", "geometry": {"type": "Point", "coordinates": [141.157349, 42.966698]}, "properties": {"action": "救助出動", "address": "南区定山渓無番地　中山峠方面", "time": "2018-12-11T12:14:00+09:00"}}, {"type": "Feature", "geometry": {"type": "Point", "coordinates": [141.329391, 43.069279]}, "properties": {"action": "救助出動", "address": "中央区北9条西16丁目", "time": "2018-12-11T10:05:00+09:00"}}, {"type": "Feature", "geometry": {"type": "Point", "coordinates": [141.409866, 43.071358]}, "properties": {"action": "警戒出動", "address": "白石区菊水元町6条2丁目", "time": "2018-12-11T20:08:00+09:00"}}, {"type": "Feature", "geometry": {"type": "Point", "coordinates": [141.374237, 43.097145]}, "properties": {"action": "警戒出動", "address": "東区北26条東17丁目", "time": "2018-12-11T19:53:00+09:00"}}, {"type": "Feature", "geometry": {"type": "Point", "coordinates": [141.431458, 43.035294]}, "properties": {"action": "警戒出動", "address": "白石区本通16丁目", "time": "2018-12-11T19:44:00+09:00"}}, {"type": "Feature", "geometry": {"type": "Point", "coordinates": [141.263947, 43.088139]}, "properties": {"action": "警戒出動", "address": "西区宮の沢3条4丁目", "time": "2018-12-11T14:44:00+09:00"}}, {"type": "Feature", "geometry": {"type": "Point", "coordinates": [141.344421, 43.0522]}, "properties": {"action": "警戒出動", "address": "中央区南6条西9丁目", "time": "2018-12-11T10:22:00+09:00"}}, {"type": "Feature", "geometry": {"type": "Point", "coordinates": [141.43924, 43.028267]}, "properties": {"action": "警戒出動", "address": "白石区南郷通20丁目", "time": "2018-12-11T09:38:00+09:00"}}, {"type": "Feature", "geometry": {"type": "Point", "coordinates": [141.334763, 43.106396]}, "properties": {"action": "警戒出動", "address": "北区北37条西8丁目", "time": "2018-12-11T05:59:00+09:00"}}, {"type": "Feature", "geometry": {"type": "Point", "coordinates": [141.333664, 43.035698]}, "properties": {"action": "警戒出動", "address": "中央区南17条西17丁目", "time": "2018-12-11T00:34:00+09:00"}}, {"type": "Feature", "geometry": {"type": "Point", "coordinates": [141.342316, 43.031403]}, "properties": {"action": "ガス漏れ出動", "address": "中央区南21条西12丁目", "time": "2018-12-11T20:11:00+09:00"}}]}