{"type": "FeatureCollection", "crs": {"type": "name", "properties": {"name": "urn:ogc:def:crs:OGC:1.3:CRS84"}}, "features": [{"type": "Feature", "geometry": {"type": "Point", "coordinates": [141.362305, 43.037395]}, "properties": {"action": "火災出動", "address": "豊平区中の島2条1丁目", "time": "2018-12-16T20:46:00+09:00"}}, {"type": "Feature", "geometry": {"type": "Point", "coordinates": [141.308472, 43.075912]}, "properties": {"action": "火災出動", "address": "西区二十四軒4条3丁目", "time": "2018-12-16T03:04:00+09:00"}}, {"type": "Feature", "geometry": {"type": "Point", "coordinates": [141.324615, 43.063755]}, "properties": {"action": "救助出動", "address": "中央区北5条西20丁目", "time": "2018-12-16T12:31:00+09:00"}}, {"type": "Feature", "geometry": {"type": "Point", "coordinates": [141.34137, 43.039139]}, "properties": {"action": "救助出動", "address": "中央区南15条西12丁目", "time": "2018-12-16T07:40:00+09:00"}}, {"type": "Feature", "geometry": {"type": "Point", "coordinates": [141.398132, 43.041672]}, "properties": {"action": "警戒出動", "address": "白石区栄通2丁目", "time": "2018-12-16T23:32:00+09:00"}}, {"type": "Feature", "geometry": {"type": "Point", "coordinates": [141.365707, 43.087917]}, "properties": {"action": "警戒出動", "address": "東区北20条東10丁目", "time": "2018-12-16T22:09:00+09:00"}}, {"type": "Feature", "geometry": {"type": "Point", "coordinates": [141.369171, 43.075054]}, "properties": {"action": "警戒出動", "address": "東区北9条東10丁目", "time": "2018-12-16T22:01:00+09:00"}}, {"type": "Feature", "geometry": {"type": "Point", "coordinates": [141.308197, 43.070679]}, "properties": {"action": "警戒出動", "address": "西区二十四軒3条6丁目", "time": "2018-12-16T19:34:00+09:00"}}, {"type": "Feature", "geometry": {"type": "Point", "coordinates": [141.233536, 43.134125]}, "properties": {"action": "警戒出動", "address": "手稲区曙5条3丁目", "time": "2018-12-16T19:33:00+09:00"}}, {"type": "Feature", "geometry": {"type": "Point", "coordinates": [141.233536, 43.134125]}, "properties": {"action": "警戒出動", "address": "手稲区曙5条3丁目", "time": "2018-12-16T16:29:00+09:00"}}, {"type": "Feature", "geometry": {"type": "Point", "coordinates": [141.352234, 43.069916]}, "properties": {"action": "警戒出動", "address": "北区北7条西2丁目", "time": "2018-12-16T12:54:00+09:00"}}, {"type": "Feature", "geometry": {"type": "Point", "coordinates": [141.25177, 43.113583]}, "properties": {"action": "警戒出動", "address": "手稲区富丘1条6丁目", "time": "2018-12-16T11:12:00+09:00"}}, {"type": "Feature", "geometry": {"type": "Point", "coordinates": [141.34288, 43.108295]}, "properties": {"action": "警戒出動", "address": "北区麻生町1丁目", "time": "2018-12-16T10:44:00+09:00"}}, {"type": "Feature", "geometry": {"type": "Point", "coordinates": [141.486237, 43.015404]}, "properties": {"action": "警戒出動", "address": "厚別区厚別町上野幌 付近", "time": "2018-12-16T08:14:00+09:00"}}, {"type": "Feature", "geometry": {"type": "Point", "coordinates": [141.416473, 43.039856]}, "properties": {"action": "警戒出動", "address": "白石区本郷通9丁目", "time": "2018-12-16T03:49:00+09:00"}}, {"type": "Feature", "geometry": {"type": "Point", "coordinates": [141.314117, 43.073116]}, "properties": {"action": "警戒出動", "address": "西区二十四軒2条3丁目", "time": "2018-12-16T03:19:00+09:00"}}, {"type": "Feature", "geometry": {"type": "Point", "coordinates": [141.481644, 43.045483]}, "properties": {"action": "警戒出動", "address": "厚別区厚別東3条3丁目", "time": "2018-12-16T00:07:00+09:00"}}, {"type": "Feature", "geometry": {"type": "Point", "coordinates": [141.487503, 43.030136]}, "properties": {"action": "救急隊支援出動", "address": "厚別区もみじ台西5丁目", "time": "2018-12-16T20:51:00+09:00"}}, {"type": "Feature", "geometry": {"type": "Point", "coordinates": [141.33728, 43.040592]}, "properties": {"action": "救急隊支援出動", "address": "中央区南14条西14丁目", "time": "2018-12-16T17:28:00+09:00"}}, {"type": "Feature", "geometry": {"type": "Point", "coordinates": [141.279602, 43.077995]}, "properties": {"action": "救急隊支援出動", "address": "西区西野2条5丁目", "time": "2018-12-16T12:00:00+09:00"}}, {"type": "Feature", "geometry": {"type": "Point", "coordinates": [141.245193, 43.10487]}, "properties": {"action": "救急隊支援出動", "address": "手稲区富丘5条4丁目", "time": "2018-12-16T11:15:00+09:00"}}, {"type": "Feature", "geometry": {"type": "Point", "coordinates": [141.254074, 43.102226]}, "properties": {"action": "救急隊支援出動", "address": "手稲区富丘2条2丁目", "time": "2018-12-16T11:04:00+09:00"}}, {"type": "Feature", "geometry": {"type": "Point", "coordinates": [141.360077, 43.058254]}, "properties": {"action": "救急隊支援出動", "address": "中央区南3条東2丁目", "time": "2018-12-16T07:58:00+09:00"}}, {"type": "Feature", "geometry": {"type": "Point", "coordinates": [141.350296, 43.081703]}, "properties": {"action": "救急隊支援出動", "address": "北区北17条西7丁目", "time": "2018-12-16T07:41:00+09:00"}}, {"type": "Feature", "geometry": {"type": "Point", "coordinates": [141.452927, 42.990208]}, "properties": {"action": "救急隊支援出動", "address": "清田区平岡1条6丁目", "time": "2018-12-16T07:23:00+09:00"}}, {"type": "Feature", "geometry": {"type": "Point", "coordinates": [141.439896, 43.005226]}, "properties": {"action": "航空隊支援出動", "address": "清田区清田1条2丁目", "time": "2018-12-16T13:23:00+09:00"}}]}