{"type": "FeatureCollection", "crs": {"type": "name", "properties": {"name": "urn:ogc:def:crs:OGC:1.3:CRS84"}}, "features": [{"type": "Feature", "geometry": {"type": "Point", "coordinates": [141.350296, 43.081703]}, "properties": {"action": "火災出動", "address": "北区北17条西7丁目", "time": "2018-12-03T10:02:00+09:00"}}, {"type": "Feature", "geometry": {"type": "Point", "coordinates": [141.266983, 43.050709]}, "properties": {"action": "車両火災出動", "address": "西区福井7丁目", "time": "2018-12-03T10:45:00+09:00"}}, {"type": "Feature", "geometry": {"type": "Point", "coordinates": [141.393524, 43.077419]}, "properties": {"action": "救助出動", "address": "東区本町2条7丁目", "time": "2018-12-03T23:11:00+09:00"}}, {"type": "Feature", "geometry": {"type": "Point", "coordinates": [141.365005, 43.075245]}, "properties": {"action": "救助出動", "address": "東区北10条東8丁目", "time": "2018-12-03T17:17:00+09:00"}}, {"type": "Feature", "geometry": {"type": "Point", "coordinates": [141.369873, 43.058556]}, "properties": {"action": "救助出動", "address": "白石区菊水2条1丁目", "time": "2018-12-03T11:40:00+09:00"}}, {"type": "Feature", "geometry": {"type": "Point", "coordinates": [141.335739, 43.053699]}, "properties": {"action": "救助出動", "address": "中央区南4条西14丁目", "time": "2018-12-03T02:42:00+09:00"}}, {"type": "Feature", "geometry": {"type": "Point", "coordinates": [141.423401, 43.031597]}, "properties": {"action": "救助出動", "address": "白石区栄通15丁目", "time": "2018-12-03T00:21:00+09:00"}}, {"type": "Feature", "geometry": {"type": "Point", "coordinates": [141.402649, 42.992359]}, "properties": {"action": "山岳救助出動", "address": "豊平区羊ケ丘 付近", "time": "2018-12-03T15:33:00+09:00"}}, {"type": "Feature", "geometry": {"type": "Point", "coordinates": [141.347656, 43.044205]}, "properties": {"action": "警戒出動", "address": "中央区南12条西8丁目", "time": "2018-12-03T22:55:00+09:00"}}, {"type": "Feature", "geometry": {"type": "Point", "coordinates": [141.308151, 43.069351]}, "properties": {"action": "警戒出動", "address": "西区二十四軒3条7丁目", "time": "2018-12-03T14:12:00+09:00"}}, {"type": "Feature", "geometry": {"type": "Point", "coordinates": [141.362534, 43.043137]}, "properties": {"action": "警戒出動", "address": "豊平区水車町7丁目", "time": "2018-12-03T08:24:00+09:00"}}, {"type": "Feature", "geometry": {"type": "Point", "coordinates": [141.426224, 43.102451]}, "properties": {"action": "救急隊支援出動", "address": "東区東苗穂12条4丁目", "time": "2018-12-03T12:05:00+09:00"}}, {"type": "Feature", "geometry": {"type": "Point", "coordinates": [141.360886, 43.075714]}, "properties": {"action": "救急隊支援出動", "address": "東区北11条東5丁目", "time": "2018-12-03T00:35:00+09:00"}}, {"type": "Feature", "geometry": {"type": "Point", "coordinates": [141.415298, 43.101463]}, "properties": {"action": "航空隊支援出動", "address": "東区東苗穂10条2丁目", "time": "2018-12-03T12:33:00+09:00"}}]}