{"type": "FeatureCollection", "crs": {"type": "name", "properties": {"name": "urn:ogc:def:crs:OGC:1.3:CRS84"}}, "features": [{"type": "Feature", "geometry": {"type": "Point", "coordinates": [141.367004, 43.053421]}, "properties": {"action": "火災出動", "address": "豊平区豊平4条2丁目", "time": "2018-12-28T20:50:00+09:00"}}, {"type": "Feature", "geometry": {"type": "Point", "coordinates": [141.243423, 43.130299]}, "properties": {"action": "火災出動", "address": "手稲区前田5条15丁目", "time": "2018-12-28T11:08:00+09:00"}}, {"type": "Feature", "geometry": {"type": "Point", "coordinates": [141.346313, 43.041481]}, "properties": {"action": "救助出動", "address": "中央区南14条西9丁目", "time": "2018-12-28T16:02:00+09:00"}}, {"type": "Feature", "geometry": {"type": "Point", "coordinates": [141.400421, 43.048569]}, "properties": {"action": "救助出動", "address": "白石区本郷通1丁目", "time": "2018-12-28T13:29:00+09:00"}}, {"type": "Feature", "geometry": {"type": "Point", "coordinates": [141.364273, 43.033752]}, "properties": {"action": "救助出動", "address": "豊平区平岸1条8丁目", "time": "2018-12-28T08:08:00+09:00"}}, {"type": "Feature", "geometry": {"type": "Point", "coordinates": [141.353943, 43.077408]}, "properties": {"action": "水難救助出動", "address": "東区北13条東1丁目", "time": "2018-12-28T16:43:00+09:00"}}, {"type": "Feature", "geometry": {"type": "Point", "coordinates": [141.350937, 43.055237]}, "properties": {"action": "警戒出動", "address": "中央区南4条西5丁目", "time": "2018-12-28T23:06:00+09:00"}}, {"type": "Feature", "geometry": {"type": "Point", "coordinates": [141.239807, 43.117764]}, "properties": {"action": "警戒出動", "address": "手稲区手稲本町3条3丁目", "time": "2018-12-28T19:12:00+09:00"}}, {"type": "Feature", "geometry": {"type": "Point", "coordinates": [141.249496, 43.124027]}, "properties": {"action": "警戒出動", "address": "手稲区前田4条11丁目", "time": "2018-12-28T11:27:00+09:00"}}, {"type": "Feature", "geometry": {"type": "Point", "coordinates": [141.374146, 43.045109]}, "properties": {"action": "警戒出動", "address": "豊平区豊平6条10丁目", "time": "2018-12-28T09:51:00+09:00"}}, {"type": "Feature", "geometry": {"type": "Point", "coordinates": [141.398209, 43.153637]}, "properties": {"action": "警戒出動", "address": "北区南あいの里5丁目", "time": "2018-12-28T09:09:00+09:00"}}, {"type": "Feature", "geometry": {"type": "Point", "coordinates": [141.389771, 43.05201]}, "properties": {"action": "警戒出動", "address": "白石区東札幌4条3丁目", "time": "2018-12-28T08:41:00+09:00"}}, {"type": "Feature", "geometry": {"type": "Point", "coordinates": [141.367752, 43.035324]}, "properties": {"action": "警戒出動", "address": "豊平区平岸2条7丁目", "time": "2018-12-28T07:49:00+09:00"}}, {"type": "Feature", "geometry": {"type": "Point", "coordinates": [141.4039, 43.050747]}, "properties": {"action": "警戒出動", "address": "白石区本通1丁目", "time": "2018-12-28T06:52:00+09:00"}}, {"type": "Feature", "geometry": {"type": "Point", "coordinates": [141.398071, 43.156963]}, "properties": {"action": "警戒出動", "address": "北区あいの里1条5丁目", "time": "2018-12-28T02:56:00+09:00"}}, {"type": "Feature", "geometry": {"type": "Point", "coordinates": [141.392517, 43.043941]}, "properties": {"action": "警戒出動", "address": "白石区東札幌1条6丁目", "time": "2018-12-28T00:26:00+09:00"}}, {"type": "Feature", "geometry": {"type": "Point", "coordinates": [141.499725, 43.043213]}, "properties": {"action": "救急隊支援出動", "address": "厚別区厚別町下野幌　 付近", "time": "2018-12-28T22:51:00+09:00"}}, {"type": "Feature", "geometry": {"type": "Point", "coordinates": [141.366974, 43.030354]}, "properties": {"action": "救急隊支援出動", "address": "豊平区平岸2条10丁目", "time": "2018-12-28T20:27:00+09:00"}}, {"type": "Feature", "geometry": {"type": "Point", "coordinates": [141.389709, 43.038723]}, "properties": {"action": "救急隊支援出動", "address": "豊平区美園4条7丁目", "time": "2018-12-28T19:11:00+09:00"}}, {"type": "Feature", "geometry": {"type": "Point", "coordinates": [141.364349, 43.002151]}, "properties": {"action": "救急隊支援出動", "address": "南区真駒内東町1丁目", "time": "2018-12-28T18:08:00+09:00"}}, {"type": "Feature", "geometry": {"type": "Point", "coordinates": [141.257523, 43.142448]}, "properties": {"action": "救急隊支援出動", "address": "手稲区手稲前田 付近", "time": "2018-12-28T17:13:00+09:00"}}, {"type": "Feature", "geometry": {"type": "Point", "coordinates": [141.300369, 43.11602]}, "properties": {"action": "救急隊支援出動", "address": "北区新川6条15丁目", "time": "2018-12-28T14:45:00+09:00"}}]}