{"type": "FeatureCollection", "crs": {"type": "name", "properties": {"name": "urn:ogc:def:crs:OGC:1.3:CRS84"}}, "features": [{"type": "Feature", "geometry": {"type": "Point", "coordinates": [141.321625, 43.12558]}, "properties": {"action": "救助出動", "address": "北区新琴似11条12丁目", "time": "2018-12-19T20:33:00+09:00"}}, {"type": "Feature", "geometry": {"type": "Point", "coordinates": [141.307785, 43.074909]}, "properties": {"action": "救助出動", "address": "西区二十四軒4条4丁目", "time": "2018-12-19T14:38:00+09:00"}}, {"type": "Feature", "geometry": {"type": "Point", "coordinates": [141.386459, 43.080269]}, "properties": {"action": "警戒出動", "address": "東区本町2条3丁目", "time": "2018-12-19T20:17:00+09:00"}}, {"type": "Feature", "geometry": {"type": "Point", "coordinates": [141.467148, 42.976215]}, "properties": {"action": "警戒出動", "address": "清田区美しが丘2条10丁目", "time": "2018-12-19T10:38:00+09:00"}}, {"type": "Feature", "geometry": {"type": "Point", "coordinates": [141.257523, 43.142448]}, "properties": {"action": "警戒出動", "address": "手稲区手稲前田 付近", "time": "2018-12-19T08:44:00+09:00"}}, {"type": "Feature", "geometry": {"type": "Point", "coordinates": [141.318542, 43.060623]}, "properties": {"action": "警戒出動", "address": "中央区北3条西25丁目", "time": "2018-12-19T07:29:00+09:00"}}, {"type": "Feature", "geometry": {"type": "Point", "coordinates": [141.456039, 43.031551]}, "properties": {"action": "警戒出動", "address": "厚別区厚別中央2条1丁目", "time": "2018-12-19T06:19:00+09:00"}}, {"type": "Feature", "geometry": {"type": "Point", "coordinates": [141.364334, 43.081116]}, "properties": {"action": "ガス漏れ出動", "address": "東区北15条東8丁目", "time": "2018-12-19T21:14:00+09:00"}}, {"type": "Feature", "geometry": {"type": "Point", "coordinates": [141.358521, 43.02454]}, "properties": {"action": "救急隊支援出動", "address": "豊平区中の島2条8丁目", "time": "2018-12-19T21:37:00+09:00"}}, {"type": "Feature", "geometry": {"type": "Point", "coordinates": [141.365372, 43.084805]}, "properties": {"action": "救急隊支援出動", "address": "東区北18条東9丁目", "time": "2018-12-19T14:00:00+09:00"}}, {"type": "Feature", "geometry": {"type": "Point", "coordinates": [141.444519, 42.993549]}, "properties": {"action": "救急隊支援出動", "address": "清田区真栄1条2丁目", "time": "2018-12-19T11:13:00+09:00"}}, {"type": "Feature", "geometry": {"type": "Point", "coordinates": [141.344574, 42.937363]}, "properties": {"action": "救急隊支援出動", "address": "南区常盤5条2丁目", "time": "2018-12-19T07:05:00+09:00"}}, {"type": "Feature", "geometry": {"type": "Point", "coordinates": [141.377716, 43.039894]}, "properties": {"action": "救急隊支援出動", "address": "豊平区美園8条1丁目", "time": "2018-12-19T06:19:00+09:00"}}, {"type": "Feature", "geometry": {"type": "Point", "coordinates": [141.439896, 43.005226]}, "properties": {"action": "航空隊支援出動", "address": "清田区清田1条2丁目", "time": "2018-12-19T11:17:00+09:00"}}]}