{"type": "FeatureCollection", "crs": {"type": "name", "properties": {"name": "urn:ogc:def:crs:OGC:1.3:CRS84"}}, "features": [{"type": "Feature", "geometry": {"type": "Point", "coordinates": [141.297272, 43.076847]}, "properties": {"action": "火災出動", "address": "西区琴似4条6丁目", "time": "2018-12-27T20:15:00+09:00"}}, {"type": "Feature", "geometry": {"type": "Point", "coordinates": [141.345016, 43.035416]}, "properties": {"action": "火災出動", "address": "中央区南18条西10丁目", "time": "2018-12-27T08:10:00+09:00"}}, {"type": "Feature", "geometry": {"type": "Point", "coordinates": [141.348618, 43.105652]}, "properties": {"action": "救助出動", "address": "東区北37条東2丁目", "time": "2018-12-27T18:19:00+09:00"}}, {"type": "Feature", "geometry": {"type": "Point", "coordinates": [141.480194, 43.061008]}, "properties": {"action": "救助出動", "address": "厚別区厚別北3条5丁目", "time": "2018-12-27T18:16:00+09:00"}}, {"type": "Feature", "geometry": {"type": "Point", "coordinates": [141.348892, 43.076656]}, "properties": {"action": "救助出動", "address": "北区北13条西3丁目", "time": "2018-12-27T13:41:00+09:00"}}, {"type": "Feature", "geometry": {"type": "Point", "coordinates": [141.366272, 43.076622]}, "properties": {"action": "救助出動", "address": "東区北11条東9丁目", "time": "2018-12-27T13:22:00+09:00"}}, {"type": "Feature", "geometry": {"type": "Point", "coordinates": [141.360382, 43.084366]}, "properties": {"action": "警戒出動", "address": "東区北18条東6丁目", "time": "2018-12-27T20:57:00+09:00"}}, {"type": "Feature", "geometry": {"type": "Point", "coordinates": [141.240204, 43.12661]}, "properties": {"action": "警戒出動", "address": "手稲区曙2条1丁目", "time": "2018-12-27T20:27:00+09:00"}}, {"type": "Feature", "geometry": {"type": "Point", "coordinates": [141.387283, 43.023125]}, "properties": {"action": "警戒出動", "address": "豊平区西岡2条1丁目", "time": "2018-12-27T17:37:00+09:00"}}, {"type": "Feature", "geometry": {"type": "Point", "coordinates": [141.375534, 43.066952]}, "properties": {"action": "警戒出動", "address": "中央区北2条東12丁目", "time": "2018-12-27T14:10:00+09:00"}}, {"type": "Feature", "geometry": {"type": "Point", "coordinates": [141.436722, 43.09816]}, "properties": {"action": "警戒出動", "address": "東区東雁来12条4丁目", "time": "2018-12-27T13:33:00+09:00"}}, {"type": "Feature", "geometry": {"type": "Point", "coordinates": [141.367538, 43.033932]}, "properties": {"action": "警戒出動", "address": "豊平区平岸2条8丁目", "time": "2018-12-27T07:40:00+09:00"}}, {"type": "Feature", "geometry": {"type": "Point", "coordinates": [141.377747, 43.037815]}, "properties": {"action": "ガス漏れ出動", "address": "豊平区美園9条2丁目", "time": "2018-12-27T00:38:00+09:00"}}, {"type": "Feature", "geometry": {"type": "Point", "coordinates": [141.418121, 43.039295]}, "properties": {"action": "救急隊支援出動", "address": "白石区本郷通10丁目", "time": "2018-12-27T21:35:00+09:00"}}, {"type": "Feature", "geometry": {"type": "Point", "coordinates": [141.313782, 43.061024]}, "properties": {"action": "救急隊支援出動", "address": "中央区北4条西28丁目", "time": "2018-12-27T21:16:00+09:00"}}, {"type": "Feature", "geometry": {"type": "Point", "coordinates": [141.319046, 43.064201]}, "properties": {"action": "救急隊支援出動", "address": "中央区北6条西24丁目", "time": "2018-12-27T20:03:00+09:00"}}, {"type": "Feature", "geometry": {"type": "Point", "coordinates": [141.440125, 42.994781]}, "properties": {"action": "救急隊支援出動", "address": "清田区真栄2条1丁目", "time": "2018-12-27T19:24:00+09:00"}}, {"type": "Feature", "geometry": {"type": "Point", "coordinates": [141.31691, 43.133923]}, "properties": {"action": "救急隊支援出動", "address": "北区屯田5条11丁目", "time": "2018-12-27T18:04:00+09:00"}}, {"type": "Feature", "geometry": {"type": "Point", "coordinates": [141.395935, 43.100872]}, "properties": {"action": "救急隊支援出動", "address": "東区北36条東29丁目", "time": "2018-12-27T17:40:00+09:00"}}, {"type": "Feature", "geometry": {"type": "Point", "coordinates": [141.432571, 43.137402]}, "properties": {"action": "救急隊支援出動", "address": "東区中沼町 付近", "time": "2018-12-27T17:21:00+09:00"}}, {"type": "Feature", "geometry": {"type": "Point", "coordinates": [141.341003, 43.089001]}, "properties": {"action": "救急隊支援出動", "address": "北区北23条西6丁目", "time": "2018-12-27T12:43:00+09:00"}}, {"type": "Feature", "geometry": {"type": "Point", "coordinates": [141.348785, 43.035877]}, "properties": {"action": "救急隊支援出動", "address": "中央区南18条西8丁目", "time": "2018-12-27T11:51:00+09:00"}}]}