{"type": "FeatureCollection", "crs": {"type": "name", "properties": {"name": "urn:ogc:def:crs:OGC:1.3:CRS84"}}, "features": [{"type": "Feature", "geometry": {"type": "Point", "coordinates": [141.413986, 43.041321]}, "properties": {"action": "火災出動", "address": "白石区本郷通8丁目", "time": "2018-05-06T16:22:00+09:00"}}, {"type": "Feature", "geometry": {"type": "Point", "coordinates": [141.379288, 43.056698]}, "properties": {"action": "火災出動", "address": "白石区菊水6条3丁目", "time": "2018-05-06T08:46:00+09:00"}}, {"type": "Feature", "geometry": {"type": "Point", "coordinates": [141.460007, 42.976498]}, "properties": {"action": "車両火災出動", "address": "清田区美しが丘4条7丁目", "time": "2018-05-06T18:05:00+09:00"}}, {"type": "Feature", "geometry": {"type": "Point", "coordinates": [141.347778, 43.131401]}, "properties": {"action": "車両火災出動", "address": "北区太平5条1丁目", "time": "2018-05-06T05:01:00+09:00"}}, {"type": "Feature", "geometry": {"type": "Point", "coordinates": [141.473953, 43.023293]}, "properties": {"action": "救助出動", "address": "厚別区厚別南5丁目", "time": "2018-05-06T20:05:00+09:00"}}, {"type": "Feature", "geometry": {"type": "Point", "coordinates": [141.339813, 43.052849]}, "properties": {"action": "救助出動", "address": "中央区南5条西12丁目", "time": "2018-05-06T09:06:00+09:00"}}, {"type": "Feature", "geometry": {"type": "Point", "coordinates": [141.364563, 43.15155]}, "properties": {"action": "警戒出動", "address": "北区篠路7条6丁目", "time": "2018-05-06T22:47:00+09:00"}}, {"type": "Feature", "geometry": {"type": "Point", "coordinates": [141.437531, 43.052608]}, "properties": {"action": "警戒出動", "address": "白石区北郷4条12丁目", "time": "2018-05-06T19:38:00+09:00"}}, {"type": "Feature", "geometry": {"type": "Point", "coordinates": [141.42099, 43.051872]}, "properties": {"action": "警戒出動", "address": "白石区北郷1条7丁目", "time": "2018-05-06T15:37:00+09:00"}}, {"type": "Feature", "geometry": {"type": "Point", "coordinates": [141.322784, 43.095016]}, "properties": {"action": "警戒出動", "address": "北区北26条西17丁目", "time": "2018-05-06T12:38:00+09:00"}}, {"type": "Feature", "geometry": {"type": "Point", "coordinates": [141.217529, 43.127445]}, "properties": {"action": "警戒出動", "address": "手稲区稲穂2条6丁目", "time": "2018-05-06T11:52:00+09:00"}}, {"type": "Feature", "geometry": {"type": "Point", "coordinates": [141.361526, 43.058399]}, "properties": {"action": "警戒出動", "address": "中央区南3条東3丁目", "time": "2018-05-06T08:08:00+09:00"}}, {"type": "Feature", "geometry": {"type": "Point", "coordinates": [141.375778, 43.090733]}, "properties": {"action": "警戒出動", "address": "東区北21条東17丁目", "time": "2018-05-06T00:55:00+09:00"}}, {"type": "Feature", "geometry": {"type": "Point", "coordinates": [141.353424, 43.03455]}, "properties": {"action": "救急隊支援出動", "address": "中央区南19条西5丁目", "time": "2018-05-06T23:09:00+09:00"}}, {"type": "Feature", "geometry": {"type": "Point", "coordinates": [141.276031, 43.06675]}, "properties": {"action": "救急隊支援出動", "address": "西区西野6条2丁目", "time": "2018-05-06T21:01:00+09:00"}}, {"type": "Feature", "geometry": {"type": "Point", "coordinates": [141.384109, 43.038155]}, "properties": {"action": "救急隊支援出動", "address": "豊平区美園7条5丁目", "time": "2018-05-06T18:34:00+09:00"}}, {"type": "Feature", "geometry": {"type": "Point", "coordinates": [141.252975, 43.083939]}, "properties": {"action": "救急隊支援出動", "address": "西区宮の沢 付近", "time": "2018-05-06T13:58:00+09:00"}}, {"type": "Feature", "geometry": {"type": "Point", "coordinates": [141.35405, 43.055759]}, "properties": {"action": "救急隊支援出動", "address": "中央区南4条西3丁目", "time": "2018-05-06T11:11:00+09:00"}}, {"type": "Feature", "geometry": {"type": "Point", "coordinates": [141.38678, 43.083916]}, "properties": {"action": "救急隊支援出動", "address": "東区伏古1条2丁目", "time": "2018-05-06T11:08:00+09:00"}}, {"type": "Feature", "geometry": {"type": "Point", "coordinates": [141.359619, 43.015068]}, "properties": {"action": "救急隊支援出動", "address": "南区澄川1条3丁目", "time": "2018-05-06T07:25:00+09:00"}}, {"type": "Feature", "geometry": {"type": "Point", "coordinates": [141.380264, 42.996513]}, "properties": {"action": "航空隊支援出動", "address": "豊平区西岡4条12丁目", "time": "2018-05-06T14:10:00+09:00"}}]}