{"type": "FeatureCollection", "crs": {"type": "name", "properties": {"name": "urn:ogc:def:crs:OGC:1.3:CRS84"}}, "features": [{"type": "Feature", "geometry": {"type": "Point", "coordinates": [141.290405, 42.966904]}, "properties": {"action": "警戒出動", "address": "南区藤野1条8丁目", "time": "2018-05-24T13:29:00+09:00"}}, {"type": "Feature", "geometry": {"type": "Point", "coordinates": [141.287796, 43.09729]}, "properties": {"action": "救急隊支援出動", "address": "西区発寒11条6丁目", "time": "2018-05-24T20:46:00+09:00"}}, {"type": "Feature", "geometry": {"type": "Point", "coordinates": [141.343246, 43.125198]}, "properties": {"action": "救急隊支援出動", "address": "北区屯田3条1丁目", "time": "2018-05-24T20:12:00+09:00"}}, {"type": "Feature", "geometry": {"type": "Point", "coordinates": [141.278595, 42.959984]}, "properties": {"action": "救急隊支援出動", "address": "南区藤野3条11丁目", "time": "2018-05-24T06:26:00+09:00"}}, {"type": "Feature", "geometry": {"type": "Point", "coordinates": [141.456223, 42.992607]}, "properties": {"action": "航空隊支援出動", "address": "清田区平岡2条6丁目", "time": "2018-05-24T12:08:00+09:00"}}]}