{"type": "FeatureCollection", "crs": {"type": "name", "properties": {"name": "urn:ogc:def:crs:OGC:1.3:CRS84"}}, "features": [{"type": "Feature", "geometry": {"type": "Point", "coordinates": [141.419067, 43.046715]}, "properties": {"action": "火災出動", "address": "白石区平和通8丁目", "time": "2018-05-10T13:42:00+09:00"}}, {"type": "Feature", "geometry": {"type": "Point", "coordinates": [141.346313, 43.041481]}, "properties": {"action": "救助出動", "address": "中央区南14条西9丁目", "time": "2018-05-10T17:38:00+09:00"}}, {"type": "Feature", "geometry": {"type": "Point", "coordinates": [141.33345, 43.129368]}, "properties": {"action": "救助出動", "address": "北区屯田4条5丁目", "time": "2018-05-10T11:59:00+09:00"}}, {"type": "Feature", "geometry": {"type": "Point", "coordinates": [141.375153, 43.035473]}, "properties": {"action": "警戒出動", "address": "豊平区平岸4条7丁目", "time": "2018-05-10T18:47:00+09:00"}}, {"type": "Feature", "geometry": {"type": "Point", "coordinates": [141.463577, 42.988224]}, "properties": {"action": "警戒出動", "address": "清田区里塚2条3丁目", "time": "2018-05-10T18:08:00+09:00"}}, {"type": "Feature", "geometry": {"type": "Point", "coordinates": [141.474701, 42.996819]}, "properties": {"action": "警戒出動", "address": "清田区里塚緑ｹ丘5丁目", "time": "2018-05-10T17:05:00+09:00"}}, {"type": "Feature", "geometry": {"type": "Point", "coordinates": [141.300339, 43.108147]}, "properties": {"action": "警戒出動", "address": "北区新川2条13丁目", "time": "2018-05-10T16:56:00+09:00"}}, {"type": "Feature", "geometry": {"type": "Point", "coordinates": [141.35144, 43.041519]}, "properties": {"action": "警戒出動", "address": "中央区南14条西6丁目", "time": "2018-05-10T14:13:00+09:00"}}, {"type": "Feature", "geometry": {"type": "Point", "coordinates": [141.355042, 43.155888]}, "properties": {"action": "警戒出動", "address": "北区篠路9条2丁目", "time": "2018-05-10T10:27:00+09:00"}}, {"type": "Feature", "geometry": {"type": "Point", "coordinates": [141.279404, 43.097431]}, "properties": {"action": "警戒出動", "address": "西区発寒9条12丁目", "time": "2018-05-10T07:13:00+09:00"}}, {"type": "Feature", "geometry": {"type": "Point", "coordinates": [141.352737, 43.12405]}, "properties": {"action": "警戒出動", "address": "東区北51条東7丁目", "time": "2018-05-10T06:54:00+09:00"}}, {"type": "Feature", "geometry": {"type": "Point", "coordinates": [141.229019, 43.134384]}, "properties": {"action": "救急隊支援出動", "address": "手稲区曙5条4丁目", "time": "2018-05-10T16:13:00+09:00"}}, {"type": "Feature", "geometry": {"type": "Point", "coordinates": [141.406921, 43.158485]}, "properties": {"action": "救急隊支援出動", "address": "北区あいの里2条7丁目", "time": "2018-05-10T13:30:00+09:00"}}, {"type": "Feature", "geometry": {"type": "Point", "coordinates": [141.443771, 42.998066]}, "properties": {"action": "救急隊支援出動", "address": "清田区平岡 付近", "time": "2018-05-10T13:00:00+09:00"}}, {"type": "Feature", "geometry": {"type": "Point", "coordinates": [141.315079, 43.085625]}, "properties": {"action": "救急隊支援出動", "address": "西区八軒5条東1丁目", "time": "2018-05-10T08:52:00+09:00"}}, {"type": "Feature", "geometry": {"type": "Point", "coordinates": [141.340942, 43.113808]}, "properties": {"action": "救急隊支援出動", "address": "北区麻生町7丁目", "time": "2018-05-10T08:37:00+09:00"}}, {"type": "Feature", "geometry": {"type": "Point", "coordinates": [141.406921, 43.158485]}, "properties": {"action": "航空隊支援出動", "address": "北区あいの里2条7丁目", "time": "2018-05-10T13:31:00+09:00"}}, {"type": "Feature", "geometry": {"type": "Point", "coordinates": [141.380264, 42.996513]}, "properties": {"action": "航空隊支援出動", "address": "豊平区西岡4条12丁目", "time": "2018-05-10T10:15:00+09:00"}}]}