{"type": "FeatureCollection", "crs": {"type": "name", "properties": {"name": "urn:ogc:def:crs:OGC:1.3:CRS84"}}, "features": [{"type": "Feature", "geometry": {"type": "Point", "coordinates": [141.286713, 43.081959]}, "properties": {"action": "火災出動", "address": "西区西町北10丁目", "time": "2018-10-26T14:21:00+09:00"}}, {"type": "Feature", "geometry": {"type": "Point", "coordinates": [141.414825, 43.045292]}, "properties": {"action": "車両火災出動", "address": "白石区本通7丁目", "time": "2018-10-26T17:34:00+09:00"}}, {"type": "Feature", "geometry": {"type": "Point", "coordinates": [141.496994, 43.026096]}, "properties": {"action": "救助出動", "address": "厚別区もみじ台南4丁目", "time": "2018-10-26T14:16:00+09:00"}}, {"type": "Feature", "geometry": {"type": "Point", "coordinates": [141.239746, 43.124207]}, "properties": {"action": "救助出動", "address": "手稲区曙1条1丁目", "time": "2018-10-26T12:31:00+09:00"}}, {"type": "Feature", "geometry": {"type": "Point", "coordinates": [141.386459, 43.080269]}, "properties": {"action": "救助出動", "address": "東区本町2条3丁目", "time": "2018-10-26T00:36:00+09:00"}}, {"type": "Feature", "geometry": {"type": "Point", "coordinates": [141.33226, 43.053349]}, "properties": {"action": "警戒出動", "address": "中央区南4条西16丁目", "time": "2018-10-26T19:27:00+09:00"}}, {"type": "Feature", "geometry": {"type": "Point", "coordinates": [141.371185, 43.012299]}, "properties": {"action": "警戒出動", "address": "南区澄川5条4丁目", "time": "2018-10-26T18:46:00+09:00"}}, {"type": "Feature", "geometry": {"type": "Point", "coordinates": [141.361542, 43.057301]}, "properties": {"action": "警戒出動", "address": "中央区南4条東3丁目", "time": "2018-10-26T13:28:00+09:00"}}, {"type": "Feature", "geometry": {"type": "Point", "coordinates": [141.337189, 43.042118]}, "properties": {"action": "警戒出動", "address": "中央区南13条西14丁目", "time": "2018-10-26T09:28:00+09:00"}}, {"type": "Feature", "geometry": {"type": "Point", "coordinates": [141.264786, 43.069294]}, "properties": {"action": "救急隊支援出動", "address": "西区西野7条7丁目", "time": "2018-10-26T18:51:00+09:00"}}, {"type": "Feature", "geometry": {"type": "Point", "coordinates": [141.357681, 43.019909]}, "properties": {"action": "救急隊支援出動", "address": "豊平区中の島2条12丁目", "time": "2018-10-26T14:21:00+09:00"}}, {"type": "Feature", "geometry": {"type": "Point", "coordinates": [141.370804, 43.148224]}, "properties": {"action": "救急隊支援出動", "address": "北区篠路5条9丁目", "time": "2018-10-26T14:17:00+09:00"}}, {"type": "Feature", "geometry": {"type": "Point", "coordinates": [141.347443, 43.015743]}, "properties": {"action": "救急隊支援出動", "address": "南区南32条西10丁目", "time": "2018-10-26T11:34:00+09:00"}}, {"type": "Feature", "geometry": {"type": "Point", "coordinates": [141.359543, 43.05455]}, "properties": {"action": "救急隊支援出動", "address": "中央区南6条東1丁目", "time": "2018-10-26T09:52:00+09:00"}}, {"type": "Feature", "geometry": {"type": "Point", "coordinates": [141.314972, 42.960327]}, "properties": {"action": "救急隊支援出動", "address": "南区石山2条9丁目", "time": "2018-10-26T09:40:00+09:00"}}, {"type": "Feature", "geometry": {"type": "Point", "coordinates": [141.405289, 43.038567]}, "properties": {"action": "救急隊支援出動", "address": "白石区栄通6丁目", "time": "2018-10-26T08:27:00+09:00"}}, {"type": "Feature", "geometry": {"type": "Point", "coordinates": [141.371017, 43.14592]}, "properties": {"action": "航空隊支援出動", "address": "北区篠路4条9丁目", "time": "2018-10-26T14:21:00+09:00"}}, {"type": "Feature", "geometry": {"type": "Point", "coordinates": [141.333557, 42.968487]}, "properties": {"action": "航空隊支援出動", "address": "南区石山1条3丁目", "time": "2018-10-26T13:04:00+09:00"}}, {"type": "Feature", "geometry": {"type": "Point", "coordinates": [141.333557, 42.968487]}, "properties": {"action": "航空隊支援出動", "address": "南区石山1条3丁目", "time": "2018-10-26T09:42:00+09:00"}}, {"type": "Feature", "geometry": {"type": "Point", "coordinates": [141.423721, 43.019806]}, "properties": {"action": "航空隊支援出動", "address": "豊平区月寒東3条18丁目", "time": "2018-10-26T09:19:00+09:00"}}]}