{"type": "FeatureCollection", "crs": {"type": "name", "properties": {"name": "urn:ogc:def:crs:OGC:1.3:CRS84"}}, "features": [{"type": "Feature", "geometry": {"type": "Point", "coordinates": [141.275604, 43.080154]}, "properties": {"action": "火災出動", "address": "西区西野2条7丁目", "time": "2018-10-31T19:40:00+09:00"}}, {"type": "Feature", "geometry": {"type": "Point", "coordinates": [141.302338, 42.962849]}, "properties": {"action": "車両火災出動", "address": "南区藤野2条4丁目", "time": "2018-10-31T19:46:00+09:00"}}, {"type": "Feature", "geometry": {"type": "Point", "coordinates": [141.392944, 43.094666]}, "properties": {"action": "救助出動", "address": "東区伏古9条2丁目", "time": "2018-10-31T17:30:00+09:00"}}, {"type": "Feature", "geometry": {"type": "Point", "coordinates": [141.33992, 43.087341]}, "properties": {"action": "警戒出動", "address": "北区北22条西7丁目", "time": "2018-10-31T15:02:00+09:00"}}, {"type": "Feature", "geometry": {"type": "Point", "coordinates": [141.368988, 43.162685]}, "properties": {"action": "警戒出動", "address": "北区篠路町篠路 付近", "time": "2018-10-31T12:16:00+09:00"}}, {"type": "Feature", "geometry": {"type": "Point", "coordinates": [141.3703, 43.05389]}, "properties": {"action": "警戒出動", "address": "豊平区豊平2条3丁目", "time": "2018-10-31T09:09:00+09:00"}}, {"type": "Feature", "geometry": {"type": "Point", "coordinates": [141.43924, 43.028267]}, "properties": {"action": "警戒出動", "address": "白石区南郷通20丁目", "time": "2018-10-31T08:08:00+09:00"}}, {"type": "Feature", "geometry": {"type": "Point", "coordinates": [141.467957, 43.036476]}, "properties": {"action": "警戒出動", "address": "厚別区厚別中央2条4丁目", "time": "2018-10-31T07:33:00+09:00"}}, {"type": "Feature", "geometry": {"type": "Point", "coordinates": [141.34967, 43.073128]}, "properties": {"action": "警戒出動", "address": "北区北10条西3丁目", "time": "2018-10-31T05:11:00+09:00"}}, {"type": "Feature", "geometry": {"type": "Point", "coordinates": [141.421982, 43.040577]}, "properties": {"action": "警戒出動", "address": "白石区本通11丁目", "time": "2018-10-31T00:42:00+09:00"}}, {"type": "Feature", "geometry": {"type": "Point", "coordinates": [141.309265, 43.071377]}, "properties": {"action": "警戒出動", "address": "西区二十四軒3条5丁目", "time": "2018-10-31T00:32:00+09:00"}}, {"type": "Feature", "geometry": {"type": "Point", "coordinates": [141.335068, 43.126202]}, "properties": {"action": "救急隊支援出動", "address": "北区屯田3条4丁目", "time": "2018-10-31T23:49:00+09:00"}}, {"type": "Feature", "geometry": {"type": "Point", "coordinates": [141.347397, 43.100018]}, "properties": {"action": "救急隊支援出動", "address": "東区北32条東1丁目", "time": "2018-10-31T18:20:00+09:00"}}, {"type": "Feature", "geometry": {"type": "Point", "coordinates": [141.323654, 43.043736]}, "properties": {"action": "救急隊支援出動", "address": "中央区南10条西22丁目", "time": "2018-10-31T17:55:00+09:00"}}, {"type": "Feature", "geometry": {"type": "Point", "coordinates": [141.361923, 43.11544]}, "properties": {"action": "救急隊支援出動", "address": "東区北44条東13丁目", "time": "2018-10-31T11:35:00+09:00"}}, {"type": "Feature", "geometry": {"type": "Point", "coordinates": [141.487213, 43.047039]}, "properties": {"action": "航空隊支援出動", "address": "厚別区厚別東3条5丁目", "time": "2018-10-31T10:05:00+09:00"}}]}