{"type": "FeatureCollection", "crs": {"type": "name", "properties": {"name": "urn:ogc:def:crs:OGC:1.3:CRS84"}}, "features": [{"type": "Feature", "geometry": {"type": "Point", "coordinates": [141.450211, 43.060905]}, "properties": {"action": "火災出動", "address": "厚別区厚別西 付近", "time": "2018-10-04T11:42:00+09:00"}}, {"type": "Feature", "geometry": {"type": "Point", "coordinates": [141.405975, 43.054249]}, "properties": {"action": "火災出動", "address": "白石区平和通1丁目", "time": "2018-10-04T07:26:00+09:00"}}, {"type": "Feature", "geometry": {"type": "Point", "coordinates": [141.316696, 43.056042]}, "properties": {"action": "車両火災出動", "address": "中央区大通西27丁目", "time": "2018-10-04T14:19:00+09:00"}}, {"type": "Feature", "geometry": {"type": "Point", "coordinates": [141.383621, 43.043411]}, "properties": {"action": "救助出動", "address": "豊平区美園3条2丁目", "time": "2018-10-04T19:34:00+09:00"}}, {"type": "Feature", "geometry": {"type": "Point", "coordinates": [141.374527, 43.038269]}, "properties": {"action": "救助出動", "address": "豊平区平岸4条4丁目", "time": "2018-10-04T13:19:00+09:00"}}, {"type": "Feature", "geometry": {"type": "Point", "coordinates": [141.492188, 43.034004]}, "properties": {"action": "救助出動", "address": "厚別区もみじ台北6丁目", "time": "2018-10-04T12:25:00+09:00"}}, {"type": "Feature", "geometry": {"type": "Point", "coordinates": [141.321518, 43.094917]}, "properties": {"action": "救助出動", "address": "北区新川2条1丁目", "time": "2018-10-04T09:54:00+09:00"}}, {"type": "Feature", "geometry": {"type": "Point", "coordinates": [141.294373, 43.077633]}, "properties": {"action": "水難救助出動", "address": "西区西町北1丁目", "time": "2018-10-04T06:08:00+09:00"}}, {"type": "Feature", "geometry": {"type": "Point", "coordinates": [141.29184, 43.105366]}, "properties": {"action": "警戒出動", "address": "西区発寒15条4丁目", "time": "2018-10-04T11:32:00+09:00"}}, {"type": "Feature", "geometry": {"type": "Point", "coordinates": [141.430038, 43.050343]}, "properties": {"action": "警戒出動", "address": "白石区北郷2条10丁目", "time": "2018-10-04T04:59:00+09:00"}}, {"type": "Feature", "geometry": {"type": "Point", "coordinates": [141.379715, 43.095367]}, "properties": {"action": "警戒出動", "address": "東区北24条東19丁目", "time": "2018-10-04T01:59:00+09:00"}}, {"type": "Feature", "geometry": {"type": "Point", "coordinates": [141.323273, 43.13604]}, "properties": {"action": "航空隊支援出動", "address": "北区屯田6条9丁目", "time": "2018-10-04T16:29:00+09:00"}}, {"type": "Feature", "geometry": {"type": "Point", "coordinates": [141.456223, 42.992607]}, "properties": {"action": "航空隊支援出動", "address": "清田区平岡2条6丁目", "time": "2018-10-04T14:09:00+09:00"}}]}