{"type": "FeatureCollection", "crs": {"type": "name", "properties": {"name": "urn:ogc:def:crs:OGC:1.3:CRS84"}}, "features": [{"type": "Feature", "geometry": {"type": "Point", "coordinates": [141.34288, 43.108295]}, "properties": {"action": "車両火災出動", "address": "北区麻生町1丁目", "time": "2018-10-25T17:34:00+09:00"}}, {"type": "Feature", "geometry": {"type": "Point", "coordinates": [141.351013, 43.08596]}, "properties": {"action": "警戒出動", "address": "東区北20条東1丁目", "time": "2018-10-25T18:08:00+09:00"}}, {"type": "Feature", "geometry": {"type": "Point", "coordinates": [141.442795, 42.989708]}, "properties": {"action": "警戒出動", "address": "清田区真栄3条2丁目", "time": "2018-10-25T17:35:00+09:00"}}, {"type": "Feature", "geometry": {"type": "Point", "coordinates": [141.411682, 43.160851]}, "properties": {"action": "警戒出動", "address": "北区あいの里2条8丁目", "time": "2018-10-25T13:59:00+09:00"}}, {"type": "Feature", "geometry": {"type": "Point", "coordinates": [141.315353, 43.083286]}, "properties": {"action": "警戒出動", "address": "西区八軒3条東2丁目", "time": "2018-10-25T09:13:00+09:00"}}, {"type": "Feature", "geometry": {"type": "Point", "coordinates": [141.423645, 43.071392]}, "properties": {"action": "警戒出動", "address": "白石区米里2条4丁目", "time": "2018-10-25T04:23:00+09:00"}}, {"type": "Feature", "geometry": {"type": "Point", "coordinates": [141.354752, 43.053349]}, "properties": {"action": "救急隊支援出動", "address": "中央区南6条西3丁目", "time": "2018-10-25T19:18:00+09:00"}}, {"type": "Feature", "geometry": {"type": "Point", "coordinates": [141.270981, 43.069904]}, "properties": {"action": "救急隊支援出動", "address": "西区西野6条5丁目", "time": "2018-10-25T17:24:00+09:00"}}, {"type": "Feature", "geometry": {"type": "Point", "coordinates": [141.353668, 42.99641]}, "properties": {"action": "救急隊支援出動", "address": "南区真駒内上町3丁目", "time": "2018-10-25T14:22:00+09:00"}}, {"type": "Feature", "geometry": {"type": "Point", "coordinates": [141.384048, 43.027229]}, "properties": {"action": "救急隊支援出動", "address": "豊平区平岸8条12丁目", "time": "2018-10-25T13:57:00+09:00"}}, {"type": "Feature", "geometry": {"type": "Point", "coordinates": [141.207733, 43.132484]}, "properties": {"action": "救急隊支援出動", "address": "手稲区星置1条4丁目", "time": "2018-10-25T11:55:00+09:00"}}, {"type": "Feature", "geometry": {"type": "Point", "coordinates": [141.21843, 43.13578]}, "properties": {"action": "航空隊支援出動", "address": "手稲区星置2条1丁目", "time": "2018-10-25T11:59:00+09:00"}}]}