{"type": "FeatureCollection", "crs": {"type": "name", "properties": {"name": "urn:ogc:def:crs:OGC:1.3:CRS84"}}, "features": [{"type": "Feature", "geometry": {"type": "Point", "coordinates": [141.37854, 43.100101]}, "properties": {"action": "火災出動", "address": "東区北28条東19丁目", "time": "2018-10-05T09:10:00+09:00"}}, {"type": "Feature", "geometry": {"type": "Point", "coordinates": [141.34761, 43.056015]}, "properties": {"action": "救助出動", "address": "中央区南3条西7丁目", "time": "2018-10-05T22:22:00+09:00"}}, {"type": "Feature", "geometry": {"type": "Point", "coordinates": [141.332397, 43.063679]}, "properties": {"action": "救助出動", "address": "中央区北4条西15丁目", "time": "2018-10-05T22:17:00+09:00"}}, {"type": "Feature", "geometry": {"type": "Point", "coordinates": [141.372635, 43.093277]}, "properties": {"action": "救助出動", "address": "東区北23条東16丁目", "time": "2018-10-05T15:13:00+09:00"}}, {"type": "Feature", "geometry": {"type": "Point", "coordinates": [141.293747, 42.95565]}, "properties": {"action": "救助出動", "address": "南区藤野5条6丁目", "time": "2018-10-05T12:39:00+09:00"}}, {"type": "Feature", "geometry": {"type": "Point", "coordinates": [141.347443, 43.015743]}, "properties": {"action": "警戒出動", "address": "南区南32条西10丁目", "time": "2018-10-05T19:55:00+09:00"}}, {"type": "Feature", "geometry": {"type": "Point", "coordinates": [141.398209, 43.153637]}, "properties": {"action": "警戒出動", "address": "北区南あいの里5丁目", "time": "2018-10-05T18:05:00+09:00"}}, {"type": "Feature", "geometry": {"type": "Point", "coordinates": [141.370544, 43.102497]}, "properties": {"action": "警戒出動", "address": "東区北32条東16丁目", "time": "2018-10-05T16:47:00+09:00"}}, {"type": "Feature", "geometry": {"type": "Point", "coordinates": [141.355026, 43.058411]}, "properties": {"action": "警戒出動", "address": "中央区南2条西2丁目", "time": "2018-10-05T14:26:00+09:00"}}, {"type": "Feature", "geometry": {"type": "Point", "coordinates": [141.261978, 43.074409]}, "properties": {"action": "警戒出動", "address": "西区西野6条10丁目", "time": "2018-10-05T13:49:00+09:00"}}, {"type": "Feature", "geometry": {"type": "Point", "coordinates": [141.365891, 43.112186]}, "properties": {"action": "警戒出動", "address": "東区北41条東15丁目", "time": "2018-10-05T11:34:00+09:00"}}, {"type": "Feature", "geometry": {"type": "Point", "coordinates": [141.334259, 43.107758]}, "properties": {"action": "警戒出動", "address": "北区北38条西8丁目", "time": "2018-10-05T09:51:00+09:00"}}, {"type": "Feature", "geometry": {"type": "Point", "coordinates": [141.241226, 43.110893]}, "properties": {"action": "警戒出動", "address": "手稲区富丘5条7丁目", "time": "2018-10-05T09:34:00+09:00"}}, {"type": "Feature", "geometry": {"type": "Point", "coordinates": [141.399948, 43.034904]}, "properties": {"action": "警戒出動", "address": "豊平区月寒東2条5丁目", "time": "2018-10-05T07:48:00+09:00"}}, {"type": "Feature", "geometry": {"type": "Point", "coordinates": [141.321472, 43.079109]}, "properties": {"action": "警戒出動", "address": "西区八軒3条東5丁目", "time": "2018-10-05T07:04:00+09:00"}}, {"type": "Feature", "geometry": {"type": "Point", "coordinates": [141.352707, 43.074749]}, "properties": {"action": "警戒出動", "address": "北区北11条西1丁目", "time": "2018-10-05T06:20:00+09:00"}}, {"type": "Feature", "geometry": {"type": "Point", "coordinates": [141.354385, 43.054474]}, "properties": {"action": "救急隊支援出動", "address": "中央区南5条西3丁目", "time": "2018-10-05T23:18:00+09:00"}}, {"type": "Feature", "geometry": {"type": "Point", "coordinates": [141.368378, 43.016277]}, "properties": {"action": "救急隊支援出動", "address": "南区澄川4条2丁目", "time": "2018-10-05T19:47:00+09:00"}}, {"type": "Feature", "geometry": {"type": "Point", "coordinates": [141.379318, 43.078899]}, "properties": {"action": "救急隊支援出動", "address": "東区北12条東17丁目", "time": "2018-10-05T18:41:00+09:00"}}, {"type": "Feature", "geometry": {"type": "Point", "coordinates": [141.384048, 43.027229]}, "properties": {"action": "救急隊支援出動", "address": "豊平区平岸8条12丁目", "time": "2018-10-05T17:48:00+09:00"}}, {"type": "Feature", "geometry": {"type": "Point", "coordinates": [141.330093, 43.000805]}, "properties": {"action": "救急隊支援出動", "address": "南区川沿1条3丁目", "time": "2018-10-05T09:50:00+09:00"}}, {"type": "Feature", "geometry": {"type": "Point", "coordinates": [141.353958, 43.084667]}, "properties": {"action": "救急隊支援出動", "address": "東区北19条東2丁目", "time": "2018-10-05T09:23:00+09:00"}}, {"type": "Feature", "geometry": {"type": "Point", "coordinates": [141.308151, 43.069351]}, "properties": {"action": "救急隊支援出動", "address": "西区二十四軒3条7丁目", "time": "2018-10-05T07:01:00+09:00"}}]}