{"type": "FeatureCollection", "crs": {"type": "name", "properties": {"name": "urn:ogc:def:crs:OGC:1.3:CRS84"}}, "features": [{"type": "Feature", "geometry": {"type": "Point", "coordinates": [141.363144, 43.1339]}, "properties": {"action": "火災出動", "address": "北区百合が原7丁目", "time": "2018-10-24T04:26:00+09:00"}}, {"type": "Feature", "geometry": {"type": "Point", "coordinates": [141.243683, 43.116928]}, "properties": {"action": "救助出動", "address": "手稲区手稲本町2条2丁目", "time": "2018-10-24T13:46:00+09:00"}}, {"type": "Feature", "geometry": {"type": "Point", "coordinates": [141.390381, 43.049511]}, "properties": {"action": "救助出動", "address": "白石区東札幌3条4丁目", "time": "2018-10-24T11:09:00+09:00"}}, {"type": "Feature", "geometry": {"type": "Point", "coordinates": [141.259644, 43.132416]}, "properties": {"action": "救助出動", "address": "手稲区前田9条11丁目", "time": "2018-10-24T08:10:00+09:00"}}, {"type": "Feature", "geometry": {"type": "Point", "coordinates": [141.4478, 42.986252]}, "properties": {"action": "警戒出動", "address": "清田区美しが丘3条2丁目", "time": "2018-10-24T22:20:00+09:00"}}, {"type": "Feature", "geometry": {"type": "Point", "coordinates": [141.466568, 43.043236]}, "properties": {"action": "警戒出動", "address": "厚別区厚別中央4条4丁目", "time": "2018-10-24T17:05:00+09:00"}}, {"type": "Feature", "geometry": {"type": "Point", "coordinates": [141.221146, 43.143658]}, "properties": {"action": "救急隊支援出動", "address": "手稲区手稲山口 付近", "time": "2018-10-24T20:43:00+09:00"}}, {"type": "Feature", "geometry": {"type": "Point", "coordinates": [141.320221, 42.964279]}, "properties": {"action": "救急隊支援出動", "address": "南区石山1条7丁目", "time": "2018-10-24T19:51:00+09:00"}}, {"type": "Feature", "geometry": {"type": "Point", "coordinates": [141.371735, 43.036057]}, "properties": {"action": "救急隊支援出動", "address": "豊平区平岸3条6丁目", "time": "2018-10-24T07:44:00+09:00"}}, {"type": "Feature", "geometry": {"type": "Point", "coordinates": [141.474258, 43.014866]}, "properties": {"action": "航空隊支援出動", "address": "厚別区上野幌2条4丁目", "time": "2018-10-24T09:46:00+09:00"}}]}