{"type": "FeatureCollection", "crs": {"type": "name", "properties": {"name": "urn:ogc:def:crs:OGC:1.3:CRS84"}}, "features": [{"type": "Feature", "geometry": {"type": "Point", "coordinates": [141.351593, 43.02343]}, "properties": {"action": "火災出動", "address": "中央区南27条西7丁目", "time": "2019-06-01T16:45:00+09:00"}}, {"type": "Feature", "geometry": {"type": "Point", "coordinates": [141.459702, 43.083694]}, "properties": {"action": "火災出動", "address": "白石区東米里　２０５７", "time": "2019-06-01T15:31:00+09:00"}}, {"type": "Feature", "geometry": {"type": "Point", "coordinates": [141.316467, 43.10194]}, "properties": {"action": "火災出動", "address": "北区新川3条5丁目", "time": "2019-06-01T11:29:00+09:00"}}, {"type": "Feature", "geometry": {"type": "Point", "coordinates": [141.336823, 43.134354]}, "properties": {"action": "車両火災出動", "address": "北区屯田6条4丁目", "time": "2019-06-01T16:57:00+09:00"}}, {"type": "Feature", "geometry": {"type": "Point", "coordinates": [141.339645, 43.066814]}, "properties": {"action": "救助出動", "address": "中央区北6条西10丁目", "time": "2019-06-01T22:15:00+09:00"}}, {"type": "Feature", "geometry": {"type": "Point", "coordinates": [141.357101, 43.046074]}, "properties": {"action": "救助出動", "address": "中央区南11条西1丁目", "time": "2019-06-01T19:30:00+09:00"}}, {"type": "Feature", "geometry": {"type": "Point", "coordinates": [141.367538, 43.033932]}, "properties": {"action": "救助出動", "address": "豊平区平岸2条8丁目", "time": "2019-06-01T11:16:00+09:00"}}, {"type": "Feature", "geometry": {"type": "Point", "coordinates": [141.447784, 43.045387]}, "properties": {"action": "救助出動", "address": "白石区川下1条6丁目", "time": "2019-06-01T05:10:00+09:00"}}, {"type": "Feature", "geometry": {"type": "Point", "coordinates": [141.160461, 42.965374]}, "properties": {"action": "山岳救助出動", "address": "南区定山渓温泉西4丁目", "time": "2019-06-01T14:38:00+09:00"}}, {"type": "Feature", "geometry": {"type": "Point", "coordinates": [141.485916, 43.043743]}, "properties": {"action": "警戒出動", "address": "厚別区厚別東2条4丁目", "time": "2019-06-01T23:13:00+09:00"}}, {"type": "Feature", "geometry": {"type": "Point", "coordinates": [141.474258, 42.989052]}, "properties": {"action": "警戒出動", "address": "清田区里塚緑ｹ丘11丁目", "time": "2019-06-01T23:10:00+09:00"}}, {"type": "Feature", "geometry": {"type": "Point", "coordinates": [141.335419, 43.109589]}, "properties": {"action": "警戒出動", "address": "北区北40条西6丁目", "time": "2019-06-01T20:34:00+09:00"}}, {"type": "Feature", "geometry": {"type": "Point", "coordinates": [141.39064, 43.099651]}, "properties": {"action": "警戒出動", "address": "東区北34条東28丁目", "time": "2019-06-01T16:38:00+09:00"}}, {"type": "Feature", "geometry": {"type": "Point", "coordinates": [141.327667, 43.051067]}, "properties": {"action": "警戒出動", "address": "中央区南6条西20丁目", "time": "2019-06-01T13:05:00+09:00"}}, {"type": "Feature", "geometry": {"type": "Point", "coordinates": [141.353546, 43.048553]}, "properties": {"action": "警戒出動", "address": "中央区南9条西4丁目", "time": "2019-06-01T12:10:00+09:00"}}, {"type": "Feature", "geometry": {"type": "Point", "coordinates": [141.4039, 43.050747]}, "properties": {"action": "警戒出動", "address": "白石区本通1丁目", "time": "2019-06-01T09:01:00+09:00"}}, {"type": "Feature", "geometry": {"type": "Point", "coordinates": [141.382507, 43.031788]}, "properties": {"action": "警戒出動", "address": "豊平区美園12条7丁目", "time": "2019-06-01T05:11:00+09:00"}}, {"type": "Feature", "geometry": {"type": "Point", "coordinates": [141.345093, 43.111965]}, "properties": {"action": "警戒出動", "address": "東区北43条東1丁目", "time": "2019-06-01T02:45:00+09:00"}}, {"type": "Feature", "geometry": {"type": "Point", "coordinates": [141.480453, 43.043686]}, "properties": {"action": "救急隊支援出動", "address": "厚別区厚別東3条2丁目", "time": "2019-06-01T21:17:00+09:00"}}, {"type": "Feature", "geometry": {"type": "Point", "coordinates": [141.369583, 43.02721]}, "properties": {"action": "救急隊支援出動", "address": "豊平区平岸3条13丁目", "time": "2019-06-01T14:43:00+09:00"}}, {"type": "Feature", "geometry": {"type": "Point", "coordinates": [141.32608, 42.964729]}, "properties": {"action": "救急隊支援出動", "address": "南区石山1条5丁目", "time": "2019-06-01T12:43:00+09:00"}}, {"type": "Feature", "geometry": {"type": "Point", "coordinates": [141.330338, 43.112206]}, "properties": {"action": "救急隊支援出動", "address": "北区新琴似7条3丁目", "time": "2019-06-01T11:18:00+09:00"}}, {"type": "Feature", "geometry": {"type": "Point", "coordinates": [141.350418, 43.00288]}, "properties": {"action": "救急隊支援出動", "address": "南区真駒内曙町1丁目", "time": "2019-06-01T10:01:00+09:00"}}, {"type": "Feature", "geometry": {"type": "Point", "coordinates": [141.412933, 43.129757]}, "properties": {"action": "航空隊支援出動", "address": "東区中沼西3条1丁目", "time": "2019-06-01T17:22:00+09:00"}}]}