{"type": "FeatureCollection", "crs": {"type": "name", "properties": {"name": "urn:ogc:def:crs:OGC:1.3:CRS84"}}, "features": [{"type": "Feature", "geometry": {"type": "Point", "coordinates": [141.305939, 43.1231]}, "properties": {"action": "火災出動", "address": "北区新琴似6条16丁目", "time": "2018-06-11T17:39:00+09:00"}}, {"type": "Feature", "geometry": {"type": "Point", "coordinates": [141.301819, 43.079346]}, "properties": {"action": "救助出動", "address": "西区琴似3条3丁目", "time": "2018-06-11T23:34:00+09:00"}}, {"type": "Feature", "geometry": {"type": "Point", "coordinates": [141.354813, 43.015961]}, "properties": {"action": "水難救助出動", "address": "豊平区中の島1条14丁目", "time": "2018-06-11T08:56:00+09:00"}}, {"type": "Feature", "geometry": {"type": "Point", "coordinates": [141.383057, 43.048058]}, "properties": {"action": "警戒出動", "address": "白石区東札幌1条3丁目", "time": "2018-06-11T21:22:00+09:00"}}, {"type": "Feature", "geometry": {"type": "Point", "coordinates": [141.296387, 42.963337]}, "properties": {"action": "警戒出動", "address": "南区藤野2条6丁目", "time": "2018-06-11T19:37:00+09:00"}}, {"type": "Feature", "geometry": {"type": "Point", "coordinates": [141.460388, 43.046261]}, "properties": {"action": "警戒出動", "address": "厚別区厚別西2条2丁目", "time": "2018-06-11T17:59:00+09:00"}}, {"type": "Feature", "geometry": {"type": "Point", "coordinates": [141.431732, 43.027885]}, "properties": {"action": "救急隊支援出動", "address": "白石区栄通18丁目", "time": "2018-06-11T19:18:00+09:00"}}, {"type": "Feature", "geometry": {"type": "Point", "coordinates": [141.337936, 43.09441]}, "properties": {"action": "救急隊支援出動", "address": "北区北28条西7丁目", "time": "2018-06-11T18:35:00+09:00"}}, {"type": "Feature", "geometry": {"type": "Point", "coordinates": [141.206192, 43.131317]}, "properties": {"action": "救急隊支援出動", "address": "手稲区稲穂1条8丁目", "time": "2018-06-11T18:20:00+09:00"}}, {"type": "Feature", "geometry": {"type": "Point", "coordinates": [141.333817, 43.096397]}, "properties": {"action": "救急隊支援出動", "address": "北区北30条西9丁目", "time": "2018-06-11T17:10:00+09:00"}}, {"type": "Feature", "geometry": {"type": "Point", "coordinates": [141.377975, 43.089382]}, "properties": {"action": "救急隊支援出動", "address": "東区北20条東18丁目", "time": "2018-06-11T13:04:00+09:00"}}, {"type": "Feature", "geometry": {"type": "Point", "coordinates": [141.310715, 43.086647]}, "properties": {"action": "救急隊支援出動", "address": "西区八軒4条西2丁目", "time": "2018-06-11T12:30:00+09:00"}}, {"type": "Feature", "geometry": {"type": "Point", "coordinates": [141.379227, 43.014145]}, "properties": {"action": "救急隊支援出動", "address": "豊平区西岡1条6丁目", "time": "2018-06-11T11:41:00+09:00"}}, {"type": "Feature", "geometry": {"type": "Point", "coordinates": [141.326218, 43.043762]}, "properties": {"action": "救急隊支援出動", "address": "中央区南11条西21丁目", "time": "2018-06-11T10:47:00+09:00"}}, {"type": "Feature", "geometry": {"type": "Point", "coordinates": [141.378418, 43.020603]}, "properties": {"action": "救急隊支援出動", "address": "豊平区平岸6条17丁目", "time": "2018-06-11T08:59:00+09:00"}}, {"type": "Feature", "geometry": {"type": "Point", "coordinates": [141.463501, 43.042435]}, "properties": {"action": "救急隊支援出動", "address": "厚別区厚別中央4条3丁目", "time": "2018-06-11T08:33:00+09:00"}}]}