{"type": "FeatureCollection", "crs": {"type": "name", "properties": {"name": "urn:ogc:def:crs:OGC:1.3:CRS84"}}, "features": [{"type": "Feature", "geometry": {"type": "Point", "coordinates": [141.271484, 43.085953]}, "properties": {"action": "火災出動", "address": "西区宮の沢2条1丁目", "time": "2018-01-24T04:52:00+09:00"}}, {"type": "Feature", "geometry": {"type": "Point", "coordinates": [141.365952, 43.036587]}, "properties": {"action": "救助出動", "address": "豊平区平岸1条6丁目", "time": "2018-01-24T21:16:00+09:00"}}, {"type": "Feature", "geometry": {"type": "Point", "coordinates": [141.348389, 43.065556]}, "properties": {"action": "救助出動", "address": "中央区北4条西5丁目", "time": "2018-01-24T15:49:00+09:00"}}, {"type": "Feature", "geometry": {"type": "Point", "coordinates": [141.419373, 43.035851]}, "properties": {"action": "救助出動", "address": "白石区南郷通12丁目", "time": "2018-01-24T12:33:00+09:00"}}, {"type": "Feature", "geometry": {"type": "Point", "coordinates": [141.443497, 43.015549]}, "properties": {"action": "救助出動", "address": "清田区北野5条4丁目", "time": "2018-01-24T12:13:00+09:00"}}, {"type": "Feature", "geometry": {"type": "Point", "coordinates": [141.361969, 43.056137]}, "properties": {"action": "救助出動", "address": "中央区南5条東3丁目", "time": "2018-01-24T12:09:00+09:00"}}, {"type": "Feature", "geometry": {"type": "Point", "coordinates": [141.308472, 43.079727]}, "properties": {"action": "救助出動", "address": "西区琴似1条1丁目", "time": "2018-01-24T04:01:00+09:00"}}, {"type": "Feature", "geometry": {"type": "Point", "coordinates": [141.321182, 43.13903]}, "properties": {"action": "警戒出動", "address": "北区屯田7条10丁目", "time": "2018-01-24T19:10:00+09:00"}}, {"type": "Feature", "geometry": {"type": "Point", "coordinates": [141.299698, 43.074333]}, "properties": {"action": "警戒出動", "address": "西区琴似2条7丁目", "time": "2018-01-24T18:46:00+09:00"}}, {"type": "Feature", "geometry": {"type": "Point", "coordinates": [141.315384, 43.063522]}, "properties": {"action": "警戒出動", "address": "中央区北6条西26丁目", "time": "2018-01-24T18:28:00+09:00"}}, {"type": "Feature", "geometry": {"type": "Point", "coordinates": [141.385178, 43.067768]}, "properties": {"action": "警戒出動", "address": "中央区北1条東18丁目", "time": "2018-01-24T09:28:00+09:00"}}, {"type": "Feature", "geometry": {"type": "Point", "coordinates": [141.343079, 43.008236]}, "properties": {"action": "警戒出動", "address": "南区南37条西11丁目", "time": "2018-01-24T09:04:00+09:00"}}, {"type": "Feature", "geometry": {"type": "Point", "coordinates": [141.41127, 43.046909]}, "properties": {"action": "警戒出動", "address": "白石区本通5丁目", "time": "2018-01-24T04:41:00+09:00"}}, {"type": "Feature", "geometry": {"type": "Point", "coordinates": [141.343246, 43.049332]}, "properties": {"action": "警戒出動", "address": "中央区南8条西10丁目", "time": "2018-01-24T02:37:00+09:00"}}, {"type": "Feature", "geometry": {"type": "Point", "coordinates": [141.329483, 42.949112]}, "properties": {"action": "救急隊支援出動", "address": "南区石山 付近", "time": "2018-01-24T20:04:00+09:00"}}, {"type": "Feature", "geometry": {"type": "Point", "coordinates": [141.394409, 43.037315]}, "properties": {"action": "救急隊支援出動", "address": "豊平区月寒東1条2丁目", "time": "2018-01-24T16:21:00+09:00"}}, {"type": "Feature", "geometry": {"type": "Point", "coordinates": [141.421951, 43.036968]}, "properties": {"action": "救急隊支援出動", "address": "白石区本郷通13丁目", "time": "2018-01-24T15:18:00+09:00"}}, {"type": "Feature", "geometry": {"type": "Point", "coordinates": [141.390457, 43.015514]}, "properties": {"action": "救急隊支援出動", "address": "豊平区西岡4条4丁目", "time": "2018-01-24T15:15:00+09:00"}}, {"type": "Feature", "geometry": {"type": "Point", "coordinates": [141.367828, 42.993382]}, "properties": {"action": "救急隊支援出動", "address": "南区澄川5条13丁目", "time": "2018-01-24T14:37:00+09:00"}}, {"type": "Feature", "geometry": {"type": "Point", "coordinates": [141.395599, 43.035839]}, "properties": {"action": "救急隊支援出動", "address": "豊平区月寒東1条3丁目", "time": "2018-01-24T00:33:00+09:00"}}, {"type": "Feature", "geometry": {"type": "Point", "coordinates": [141.306381, 42.960247]}, "properties": {"action": "航空隊支援出動", "address": "南区藤野3条3丁目", "time": "2018-01-24T12:52:00+09:00"}}, {"type": "Feature", "geometry": {"type": "Point", "coordinates": [141.306381, 42.960247]}, "properties": {"action": "航空隊支援出動", "address": "南区藤野3条3丁目", "time": "2018-01-24T11:42:00+09:00"}}]}