{"type": "FeatureCollection", "crs": {"type": "name", "properties": {"name": "urn:ogc:def:crs:OGC:1.3:CRS84"}}, "features": [{"type": "Feature", "geometry": {"type": "Point", "coordinates": [141.344528, 43.055515]}, "properties": {"action": "火災出動", "address": "中央区南3条西9丁目", "time": "2018-01-10T18:06:00+09:00"}}, {"type": "Feature", "geometry": {"type": "Point", "coordinates": [141.314758, 43.09951]}, "properties": {"action": "火災出動", "address": "北区新川2条5丁目", "time": "2018-01-10T10:56:00+09:00"}}, {"type": "Feature", "geometry": {"type": "Point", "coordinates": [141.432129, 42.985027]}, "properties": {"action": "火災出動", "address": "清田区清田8条3丁目", "time": "2018-01-10T09:18:00+09:00"}}, {"type": "Feature", "geometry": {"type": "Point", "coordinates": [141.440125, 42.994781]}, "properties": {"action": "救助出動", "address": "清田区真栄2条1丁目", "time": "2018-01-10T21:40:00+09:00"}}, {"type": "Feature", "geometry": {"type": "Point", "coordinates": [141.304672, 43.040237]}, "properties": {"action": "救助出動", "address": "中央区円山西町4丁目", "time": "2018-01-10T17:44:00+09:00"}}, {"type": "Feature", "geometry": {"type": "Point", "coordinates": [141.328339, 43.061897]}, "properties": {"action": "救助出動", "address": "中央区北3条西18丁目", "time": "2018-01-10T14:50:00+09:00"}}, {"type": "Feature", "geometry": {"type": "Point", "coordinates": [141.34967, 42.996372]}, "properties": {"action": "救助出動", "address": "南区真駒内上町1丁目", "time": "2018-01-10T12:59:00+09:00"}}, {"type": "Feature", "geometry": {"type": "Point", "coordinates": [141.315033, 43.074265]}, "properties": {"action": "救助出動", "address": "西区二十四軒2条2丁目", "time": "2018-01-10T11:58:00+09:00"}}, {"type": "Feature", "geometry": {"type": "Point", "coordinates": [141.34845, 43.107231]}, "properties": {"action": "救助出動", "address": "東区北39条東2丁目", "time": "2018-01-10T10:09:00+09:00"}}, {"type": "Feature", "geometry": {"type": "Point", "coordinates": [141.299194, 43.058357]}, "properties": {"action": "警戒出動", "address": "中央区宮の森3条11丁目", "time": "2018-01-10T23:38:00+09:00"}}, {"type": "Feature", "geometry": {"type": "Point", "coordinates": [141.360352, 43.039116]}, "properties": {"action": "警戒出動", "address": "豊平区中の島1条1丁目", "time": "2018-01-10T20:24:00+09:00"}}, {"type": "Feature", "geometry": {"type": "Point", "coordinates": [141.456772, 42.984203]}, "properties": {"action": "警戒出動", "address": "清田区美しが丘1条5丁目", "time": "2018-01-10T19:18:00+09:00"}}, {"type": "Feature", "geometry": {"type": "Point", "coordinates": [141.347733, 43.086895]}, "properties": {"action": "救急隊支援出動", "address": "北区北21条西2丁目", "time": "2018-01-10T23:29:00+09:00"}}, {"type": "Feature", "geometry": {"type": "Point", "coordinates": [141.295425, 43.083069]}, "properties": {"action": "救急隊支援出動", "address": "西区発寒3条3丁目", "time": "2018-01-10T18:57:00+09:00"}}, {"type": "Feature", "geometry": {"type": "Point", "coordinates": [141.386337, 43.004246]}, "properties": {"action": "救急隊支援出動", "address": "豊平区西岡4条9丁目", "time": "2018-01-10T18:28:00+09:00"}}, {"type": "Feature", "geometry": {"type": "Point", "coordinates": [141.309113, 43.119995]}, "properties": {"action": "救急隊支援出動", "address": "北区新琴似5条14丁目", "time": "2018-01-10T18:28:00+09:00"}}, {"type": "Feature", "geometry": {"type": "Point", "coordinates": [141.44252, 43.027203]}, "properties": {"action": "救急隊支援出動", "address": "白石区南郷通21丁目", "time": "2018-01-10T14:05:00+09:00"}}, {"type": "Feature", "geometry": {"type": "Point", "coordinates": [141.42868, 43.065742]}, "properties": {"action": "救急隊支援出動", "address": "白石区北郷8条9丁目", "time": "2018-01-10T13:02:00+09:00"}}, {"type": "Feature", "geometry": {"type": "Point", "coordinates": [141.350403, 43.143967]}, "properties": {"action": "救急隊支援出動", "address": "北区篠路2条1丁目", "time": "2018-01-10T12:18:00+09:00"}}, {"type": "Feature", "geometry": {"type": "Point", "coordinates": [141.364395, 43.111977]}, "properties": {"action": "救急隊支援出動", "address": "東区北41条東14丁目", "time": "2018-01-10T09:04:00+09:00"}}, {"type": "Feature", "geometry": {"type": "Point", "coordinates": [141.439896, 43.005226]}, "properties": {"action": "航空隊支援出動", "address": "清田区清田1条2丁目", "time": "2018-01-10T14:27:00+09:00"}}, {"type": "Feature", "geometry": {"type": "Point", "coordinates": [141.455078, 43.03817]}, "properties": {"action": "航空隊支援出動", "address": "白石区流通ｾﾝﾀｰ7丁目", "time": "2018-01-10T14:21:00+09:00"}}, {"type": "Feature", "geometry": {"type": "Point", "coordinates": [141.35025, 43.13419]}, "properties": {"action": "航空隊支援出動", "address": "北区太平8条2丁目", "time": "2018-01-10T12:22:00+09:00"}}]}