{"type": "FeatureCollection", "crs": {"type": "name", "properties": {"name": "urn:ogc:def:crs:OGC:1.3:CRS84"}}, "features": [{"type": "Feature", "geometry": {"type": "Point", "coordinates": [141.338409, 43.046169]}, "properties": {"action": "火災出動", "address": "中央区南10条西13丁目", "time": "2018-01-17T17:55:00+09:00"}}, {"type": "Feature", "geometry": {"type": "Point", "coordinates": [141.274216, 43.107582]}, "properties": {"action": "救助出動", "address": "手稲区新発寒3条1丁目", "time": "2018-01-17T20:02:00+09:00"}}, {"type": "Feature", "geometry": {"type": "Point", "coordinates": [141.347931, 43.085423]}, "properties": {"action": "救助出動", "address": "北区北20条西2丁目", "time": "2018-01-17T14:17:00+09:00"}}, {"type": "Feature", "geometry": {"type": "Point", "coordinates": [141.455811, 43.021332]}, "properties": {"action": "救助出動", "address": "厚別区大谷地西6丁目", "time": "2018-01-17T14:02:00+09:00"}}, {"type": "Feature", "geometry": {"type": "Point", "coordinates": [141.391846, 43.04591]}, "properties": {"action": "救助出動", "address": "白石区東札幌2条5丁目", "time": "2018-01-17T13:24:00+09:00"}}, {"type": "Feature", "geometry": {"type": "Point", "coordinates": [141.286942, 42.963581]}, "properties": {"action": "救助出動", "address": "南区藤野2条9丁目", "time": "2018-01-17T08:09:00+09:00"}}, {"type": "Feature", "geometry": {"type": "Point", "coordinates": [141.36113, 43.034538]}, "properties": {"action": "警戒出動", "address": "豊平区中の島2条3丁目", "time": "2018-01-17T17:27:00+09:00"}}, {"type": "Feature", "geometry": {"type": "Point", "coordinates": [141.343948, 43.043903]}, "properties": {"action": "警戒出動", "address": "中央区南12条西10丁目", "time": "2018-01-17T11:38:00+09:00"}}, {"type": "Feature", "geometry": {"type": "Point", "coordinates": [141.338867, 42.969452]}, "properties": {"action": "警戒出動", "address": "南区石山2条2丁目", "time": "2018-01-17T08:46:00+09:00"}}, {"type": "Feature", "geometry": {"type": "Point", "coordinates": [141.362686, 43.082024]}, "properties": {"action": "警戒出動", "address": "東区北16条東7丁目", "time": "2018-01-17T06:52:00+09:00"}}, {"type": "Feature", "geometry": {"type": "Point", "coordinates": [141.368378, 43.016277]}, "properties": {"action": "警戒出動", "address": "南区澄川4条2丁目", "time": "2018-01-17T00:54:00+09:00"}}, {"type": "Feature", "geometry": {"type": "Point", "coordinates": [141.422562, 43.06105]}, "properties": {"action": "救急隊支援出動", "address": "白石区北郷5条5丁目", "time": "2018-01-17T21:51:00+09:00"}}, {"type": "Feature", "geometry": {"type": "Point", "coordinates": [141.275101, 42.956631]}, "properties": {"action": "救急隊支援出動", "address": "南区簾舞5条1丁目", "time": "2018-01-17T20:01:00+09:00"}}, {"type": "Feature", "geometry": {"type": "Point", "coordinates": [141.303436, 43.07531]}, "properties": {"action": "救急隊支援出動", "address": "西区琴似1条5丁目", "time": "2018-01-17T17:32:00+09:00"}}, {"type": "Feature", "geometry": {"type": "Point", "coordinates": [141.289185, 42.961205]}, "properties": {"action": "救急隊支援出動", "address": "南区藤野3条8丁目", "time": "2018-01-17T15:18:00+09:00"}}, {"type": "Feature", "geometry": {"type": "Point", "coordinates": [141.359116, 43.03767]}, "properties": {"action": "救急隊支援出動", "address": "豊平区中の島1条2丁目", "time": "2018-01-17T14:48:00+09:00"}}, {"type": "Feature", "geometry": {"type": "Point", "coordinates": [141.349564, 43.074257]}, "properties": {"action": "救急隊支援出動", "address": "北区北11条西3丁目", "time": "2018-01-17T13:48:00+09:00"}}, {"type": "Feature", "geometry": {"type": "Point", "coordinates": [141.337845, 43.000973]}, "properties": {"action": "救急隊支援出動", "address": "南区川沿1条1丁目", "time": "2018-01-17T10:08:00+09:00"}}, {"type": "Feature", "geometry": {"type": "Point", "coordinates": [141.422821, 42.993073]}, "properties": {"action": "救急隊支援出動", "address": "清田区清田7条1丁目", "time": "2018-01-17T09:59:00+09:00"}}, {"type": "Feature", "geometry": {"type": "Point", "coordinates": [141.372452, 42.998161]}, "properties": {"action": "救急隊支援出動", "address": "南区澄川6条11丁目", "time": "2018-01-17T09:58:00+09:00"}}, {"type": "Feature", "geometry": {"type": "Point", "coordinates": [141.295013, 43.092319]}, "properties": {"action": "救急隊支援出動", "address": "西区発寒11条3丁目", "time": "2018-01-17T09:18:00+09:00"}}, {"type": "Feature", "geometry": {"type": "Point", "coordinates": [141.439896, 43.005226]}, "properties": {"action": "航空隊支援出動", "address": "清田区清田1条2丁目", "time": "2018-01-17T10:04:00+09:00"}}]}