{"type": "FeatureCollection", "crs": {"type": "name", "properties": {"name": "urn:ogc:def:crs:OGC:1.3:CRS84"}}, "features": [{"type": "Feature", "geometry": {"type": "Point", "coordinates": [141.34552, 43.089676]}, "properties": {"action": "火災出動", "address": "北区北23条西3丁目", "time": "2019-08-01T02:33:00+09:00"}}, {"type": "Feature", "geometry": {"type": "Point", "coordinates": [141.362534, 43.141972]}, "properties": {"action": "車両火災出動", "address": "北区篠路2条6丁目", "time": "2019-08-01T09:19:00+09:00"}}, {"type": "Feature", "geometry": {"type": "Point", "coordinates": [141.368607, 43.103428]}, "properties": {"action": "救助出動", "address": "東区北33条東15丁目", "time": "2019-08-01T19:12:00+09:00"}}, {"type": "Feature", "geometry": {"type": "Point", "coordinates": [141.41008, 43.068527]}, "properties": {"action": "救助出動", "address": "白石区菊水元町6条3丁目", "time": "2019-08-01T16:23:00+09:00"}}, {"type": "Feature", "geometry": {"type": "Point", "coordinates": [141.355087, 43.021603]}, "properties": {"action": "救助出動", "address": "豊平区中の島1条10丁目", "time": "2019-08-01T15:22:00+09:00"}}, {"type": "Feature", "geometry": {"type": "Point", "coordinates": [141.35321, 43.136398]}, "properties": {"action": "救助出動", "address": "北区太平10条3丁目", "time": "2019-08-01T12:02:00+09:00"}}, {"type": "Feature", "geometry": {"type": "Point", "coordinates": [141.220718, 43.126335]}, "properties": {"action": "救助出動", "address": "手稲区稲穂2条5丁目", "time": "2019-08-01T11:03:00+09:00"}}, {"type": "Feature", "geometry": {"type": "Point", "coordinates": [141.351974, 43.111469]}, "properties": {"action": "救助出動", "address": "東区北42条東5丁目", "time": "2019-08-01T08:26:00+09:00"}}, {"type": "Feature", "geometry": {"type": "Point", "coordinates": [141.364502, 43.139309]}, "properties": {"action": "救助出動", "address": "北区篠路1条7丁目", "time": "2019-08-01T07:04:00+09:00"}}, {"type": "Feature", "geometry": {"type": "Point", "coordinates": [141.309372, 43.066528]}, "properties": {"action": "救助出動", "address": "中央区宮の森3条1丁目", "time": "2019-08-01T06:28:00+09:00"}}, {"type": "Feature", "geometry": {"type": "Point", "coordinates": [141.384018, 43.043583]}, "properties": {"action": "救助出動", "address": "豊平区美園3条2丁目", "time": "2019-08-01T00:29:00+09:00"}}, {"type": "Feature", "geometry": {"type": "Point", "coordinates": [141.217422, 43.050007]}, "properties": {"action": "水難救助出動", "address": "西区平和 付近", "time": "2019-08-01T08:25:00+09:00"}}, {"type": "Feature", "geometry": {"type": "Point", "coordinates": [141.217422, 43.050007]}, "properties": {"action": "山岳救助出動", "address": "西区平和 付近", "time": "2019-08-01T08:45:00+09:00"}}, {"type": "Feature", "geometry": {"type": "Point", "coordinates": [141.428146, 43.032246]}, "properties": {"action": "警戒出動", "address": "白石区南郷通16丁目", "time": "2019-08-01T20:56:00+09:00"}}, {"type": "Feature", "geometry": {"type": "Point", "coordinates": [141.282181, 43.093517]}, "properties": {"action": "警戒出動", "address": "西区発寒8条10丁目", "time": "2019-08-01T19:37:00+09:00"}}, {"type": "Feature", "geometry": {"type": "Point", "coordinates": [141.428146, 43.032246]}, "properties": {"action": "警戒出動", "address": "白石区南郷通16丁目", "time": "2019-08-01T17:23:00+09:00"}}, {"type": "Feature", "geometry": {"type": "Point", "coordinates": [141.380081, 43.069908]}, "properties": {"action": "警戒出動", "address": "東区北4条東16丁目", "time": "2019-08-01T09:32:00+09:00"}}, {"type": "Feature", "geometry": {"type": "Point", "coordinates": [141.335999, 43.037556]}, "properties": {"action": "警戒出動", "address": "中央区南16条西15丁目", "time": "2019-08-01T09:17:00+09:00"}}, {"type": "Feature", "geometry": {"type": "Point", "coordinates": [141.410461, 43.043365]}, "properties": {"action": "警戒出動", "address": "白石区本郷通6丁目", "time": "2019-08-01T06:22:00+09:00"}}, {"type": "Feature", "geometry": {"type": "Point", "coordinates": [141.359055, 43.06068]}, "properties": {"action": "警戒出動", "address": "中央区南1条東2丁目", "time": "2019-08-01T06:16:00+09:00"}}, {"type": "Feature", "geometry": {"type": "Point", "coordinates": [141.349014, 43.046665]}, "properties": {"action": "警戒出動", "address": "中央区南10条西7丁目", "time": "2019-08-01T04:15:00+09:00"}}, {"type": "Feature", "geometry": {"type": "Point", "coordinates": [141.339523, 43.037838]}, "properties": {"action": "警戒出動", "address": "中央区南16条西13丁目", "time": "2019-08-01T01:11:00+09:00"}}, {"type": "Feature", "geometry": {"type": "Point", "coordinates": [141.408447, 43.044479]}, "properties": {"action": "ガス漏れ出動", "address": "白石区本郷通5丁目", "time": "2019-08-01T16:44:00+09:00"}}, {"type": "Feature", "geometry": {"type": "Point", "coordinates": [141.354385, 43.054573]}, "properties": {"action": "救急隊支援出動", "address": "中央区南5条西3丁目", "time": "2019-08-01T22:38:00+09:00"}}, {"type": "Feature", "geometry": {"type": "Point", "coordinates": [141.352844, 43.054348]}, "properties": {"action": "救急隊支援出動", "address": "中央区南5条西4丁目", "time": "2019-08-01T22:15:00+09:00"}}, {"type": "Feature", "geometry": {"type": "Point", "coordinates": [141.354385, 43.054573]}, "properties": {"action": "救急隊支援出動", "address": "中央区南5条西3丁目", "time": "2019-08-01T20:53:00+09:00"}}, {"type": "Feature", "geometry": {"type": "Point", "coordinates": [141.19873, 43.134193]}, "properties": {"action": "救急隊支援出動", "address": "手稲区星置1条7丁目", "time": "2019-08-01T18:52:00+09:00"}}, {"type": "Feature", "geometry": {"type": "Point", "coordinates": [141.389481, 43.000263]}, "properties": {"action": "救急隊支援出動", "address": "豊平区福住3条11丁目", "time": "2019-08-01T16:36:00+09:00"}}, {"type": "Feature", "geometry": {"type": "Point", "coordinates": [141.384308, 43.027451]}, "properties": {"action": "救急隊支援出動", "address": "豊平区平岸8条12丁目", "time": "2019-08-01T14:30:00+09:00"}}, {"type": "Feature", "geometry": {"type": "Point", "coordinates": [141.372543, 43.046944]}, "properties": {"action": "救急隊支援出動", "address": "豊平区豊平6条8丁目", "time": "2019-08-01T13:10:00+09:00"}}, {"type": "Feature", "geometry": {"type": "Point", "coordinates": [141.343948, 43.089458]}, "properties": {"action": "救急隊支援出動", "address": "北区北23条西4丁目", "time": "2019-08-01T11:37:00+09:00"}}, {"type": "Feature", "geometry": {"type": "Point", "coordinates": [141.383102, 43.023479]}, "properties": {"action": "救急隊支援出動", "address": "豊平区平岸7条14丁目", "time": "2019-08-01T08:03:00+09:00"}}, {"type": "Feature", "geometry": {"type": "Point", "coordinates": [141.431046, 43.063335]}, "properties": {"action": "救急隊支援出動", "address": "白石区北郷7条10丁目", "time": "2019-08-01T04:44:00+09:00"}}, {"type": "Feature", "geometry": {"type": "Point", "coordinates": [141.413101, 43.046169]}, "properties": {"action": "救急隊支援出動", "address": "白石区本通6丁目", "time": "2019-08-01T00:47:00+09:00"}}]}