{"type": "FeatureCollection", "crs": {"type": "name", "properties": {"name": "urn:ogc:def:crs:OGC:1.3:CRS84"}}, "features": [{"type": "Feature", "geometry": {"type": "Point", "coordinates": [141.412704, 43.0387]}, "properties": {"action": "火災出動", "address": "白石区南郷通8丁目", "time": "2018-07-01T18:33:00+09:00"}}, {"type": "Feature", "geometry": {"type": "Point", "coordinates": [141.352524, 43.055485]}, "properties": {"action": "火災出動", "address": "中央区南4条西4丁目", "time": "2018-07-01T01:43:00+09:00"}}, {"type": "Feature", "geometry": {"type": "Point", "coordinates": [141.367538, 43.033932]}, "properties": {"action": "車両火災出動", "address": "豊平区平岸2条8丁目", "time": "2018-07-01T19:46:00+09:00"}}, {"type": "Feature", "geometry": {"type": "Point", "coordinates": [141.391891, 43.038864]}, "properties": {"action": "車両火災出動", "address": "豊平区美園3条8丁目", "time": "2018-07-01T10:47:00+09:00"}}, {"type": "Feature", "geometry": {"type": "Point", "coordinates": [141.369904, 43.105057]}, "properties": {"action": "車両火災出動", "address": "東区北34条東16丁目", "time": "2018-07-01T07:53:00+09:00"}}, {"type": "Feature", "geometry": {"type": "Point", "coordinates": [141.461197, 42.984318]}, "properties": {"action": "救助出動", "address": "清田区里塚1条4丁目", "time": "2018-07-01T11:11:00+09:00"}}, {"type": "Feature", "geometry": {"type": "Point", "coordinates": [141.288483, 43.068222]}, "properties": {"action": "救助出動", "address": "西区山の手5条9丁目", "time": "2018-07-01T10:30:00+09:00"}}, {"type": "Feature", "geometry": {"type": "Point", "coordinates": [141.301819, 43.079346]}, "properties": {"action": "救助出動", "address": "西区琴似3条3丁目", "time": "2018-07-01T07:22:00+09:00"}}, {"type": "Feature", "geometry": {"type": "Point", "coordinates": [141.352905, 43.054379]}, "properties": {"action": "救助出動", "address": "中央区南5条西4丁目", "time": "2018-07-01T01:32:00+09:00"}}, {"type": "Feature", "geometry": {"type": "Point", "coordinates": [141.35231, 43.056671]}, "properties": {"action": "警戒出動", "address": "中央区南3条西4丁目", "time": "2018-07-01T23:00:00+09:00"}}, {"type": "Feature", "geometry": {"type": "Point", "coordinates": [141.349045, 43.093922]}, "properties": {"action": "警戒出動", "address": "東区北26条東1丁目", "time": "2018-07-01T21:59:00+09:00"}}, {"type": "Feature", "geometry": {"type": "Point", "coordinates": [141.350739, 43.056423]}, "properties": {"action": "警戒出動", "address": "中央区南3条西5丁目", "time": "2018-07-01T21:20:00+09:00"}}, {"type": "Feature", "geometry": {"type": "Point", "coordinates": [141.366058, 43.13633]}, "properties": {"action": "警戒出動", "address": "北区百合が原9丁目", "time": "2018-07-01T20:31:00+09:00"}}, {"type": "Feature", "geometry": {"type": "Point", "coordinates": [141.34201, 43.102303]}, "properties": {"action": "警戒出動", "address": "北区北35条西3丁目", "time": "2018-07-01T19:36:00+09:00"}}, {"type": "Feature", "geometry": {"type": "Point", "coordinates": [141.342026, 43.103733]}, "properties": {"action": "警戒出動", "address": "北区北36条西3丁目", "time": "2018-07-01T19:06:00+09:00"}}, {"type": "Feature", "geometry": {"type": "Point", "coordinates": [141.456894, 43.028522]}, "properties": {"action": "警戒出動", "address": "厚別区大谷地東4丁目", "time": "2018-07-01T18:15:00+09:00"}}, {"type": "Feature", "geometry": {"type": "Point", "coordinates": [141.407547, 43.048866]}, "properties": {"action": "警戒出動", "address": "白石区本通3丁目", "time": "2018-07-01T16:49:00+09:00"}}, {"type": "Feature", "geometry": {"type": "Point", "coordinates": [141.323349, 43.058407]}, "properties": {"action": "警戒出動", "address": "中央区北1条西22丁目", "time": "2018-07-01T16:44:00+09:00"}}, {"type": "Feature", "geometry": {"type": "Point", "coordinates": [141.359787, 43.099983]}, "properties": {"action": "警戒出動", "address": "東区北31条東8丁目", "time": "2018-07-01T16:02:00+09:00"}}, {"type": "Feature", "geometry": {"type": "Point", "coordinates": [141.329514, 43.004574]}, "properties": {"action": "警戒出動", "address": "南区北ノ沢 付近", "time": "2018-07-01T15:43:00+09:00"}}, {"type": "Feature", "geometry": {"type": "Point", "coordinates": [141.419266, 43.016846]}, "properties": {"action": "警戒出動", "address": "豊平区月寒東2条18丁目", "time": "2018-07-01T13:50:00+09:00"}}, {"type": "Feature", "geometry": {"type": "Point", "coordinates": [141.314117, 43.073116]}, "properties": {"action": "警戒出動", "address": "西区二十四軒2条3丁目", "time": "2018-07-01T13:12:00+09:00"}}, {"type": "Feature", "geometry": {"type": "Point", "coordinates": [141.275497, 43.114254]}, "properties": {"action": "警戒出動", "address": "手稲区新発寒5条3丁目", "time": "2018-07-01T11:47:00+09:00"}}, {"type": "Feature", "geometry": {"type": "Point", "coordinates": [141.392731, 43.084435]}, "properties": {"action": "警戒出動", "address": "東区伏古3条4丁目", "time": "2018-07-01T11:42:00+09:00"}}, {"type": "Feature", "geometry": {"type": "Point", "coordinates": [141.436478, 43.032623]}, "properties": {"action": "警戒出動", "address": "白石区本通18丁目", "time": "2018-07-01T11:06:00+09:00"}}, {"type": "Feature", "geometry": {"type": "Point", "coordinates": [141.359116, 43.03767]}, "properties": {"action": "警戒出動", "address": "豊平区中の島1条2丁目", "time": "2018-07-01T09:31:00+09:00"}}, {"type": "Feature", "geometry": {"type": "Point", "coordinates": [141.455078, 43.03817]}, "properties": {"action": "警戒出動", "address": "白石区流通ｾﾝﾀｰ7丁目", "time": "2018-07-01T07:45:00+09:00"}}, {"type": "Feature", "geometry": {"type": "Point", "coordinates": [141.435303, 43.021778]}, "properties": {"action": "警戒出動", "address": "清田区北野6条2丁目", "time": "2018-07-01T05:45:00+09:00"}}, {"type": "Feature", "geometry": {"type": "Point", "coordinates": [141.240295, 43.119839]}, "properties": {"action": "警戒出動", "address": "手稲区手稲本町2条4丁目", "time": "2018-07-01T05:11:00+09:00"}}, {"type": "Feature", "geometry": {"type": "Point", "coordinates": [141.356339, 43.05397]}, "properties": {"action": "警戒出動", "address": "中央区南6条西2丁目", "time": "2018-07-01T02:27:00+09:00"}}, {"type": "Feature", "geometry": {"type": "Point", "coordinates": [141.39032, 43.085346]}, "properties": {"action": "救急隊支援出動", "address": "東区伏古3条3丁目", "time": "2018-07-01T18:43:00+09:00"}}, {"type": "Feature", "geometry": {"type": "Point", "coordinates": [141.283676, 43.090134]}, "properties": {"action": "救急隊支援出動", "address": "西区発寒7条8丁目", "time": "2018-07-01T16:20:00+09:00"}}, {"type": "Feature", "geometry": {"type": "Point", "coordinates": [141.400406, 43.086662]}, "properties": {"action": "救急隊支援出動", "address": "東区東苗穂3条1丁目", "time": "2018-07-01T10:00:00+09:00"}}, {"type": "Feature", "geometry": {"type": "Point", "coordinates": [141.365631, 43.101707]}, "properties": {"action": "救急隊支援出動", "address": "東区北32条東13丁目", "time": "2018-07-01T02:45:00+09:00"}}]}