{"type": "FeatureCollection", "crs": {"type": "name", "properties": {"name": "urn:ogc:def:crs:OGC:1.3:CRS84"}}, "features": [{"type": "Feature", "geometry": {"type": "Point", "coordinates": [141.343628, 42.982849]}, "properties": {"action": "救助出動", "address": "南区真駒内柏丘12丁目", "time": "2018-07-15T21:20:00+09:00"}}, {"type": "Feature", "geometry": {"type": "Point", "coordinates": [141.387909, 43.039555]}, "properties": {"action": "救助出動", "address": "豊平区美園4条6丁目", "time": "2018-07-15T20:39:00+09:00"}}, {"type": "Feature", "geometry": {"type": "Point", "coordinates": [141.369461, 43.093071]}, "properties": {"action": "救助出動", "address": "東区北23条東14丁目", "time": "2018-07-15T19:20:00+09:00"}}, {"type": "Feature", "geometry": {"type": "Point", "coordinates": [141.363968, 43.15012]}, "properties": {"action": "救助出動", "address": "北区篠路6条6丁目", "time": "2018-07-15T11:14:00+09:00"}}, {"type": "Feature", "geometry": {"type": "Point", "coordinates": [141.369461, 43.093071]}, "properties": {"action": "救助出動", "address": "東区北23条東14丁目", "time": "2018-07-15T08:20:00+09:00"}}, {"type": "Feature", "geometry": {"type": "Point", "coordinates": [141.355988, 43.05455]}, "properties": {"action": "警戒出動", "address": "中央区南5条西2丁目", "time": "2018-07-15T19:54:00+09:00"}}, {"type": "Feature", "geometry": {"type": "Point", "coordinates": [141.361465, 43.036041]}, "properties": {"action": "警戒出動", "address": "豊平区中の島2条2丁目", "time": "2018-07-15T19:33:00+09:00"}}, {"type": "Feature", "geometry": {"type": "Point", "coordinates": [141.432693, 43.040386]}, "properties": {"action": "警戒出動", "address": "白石区平和通15丁目", "time": "2018-07-15T18:58:00+09:00"}}, {"type": "Feature", "geometry": {"type": "Point", "coordinates": [141.367615, 43.074459]}, "properties": {"action": "警戒出動", "address": "東区北9条東9丁目", "time": "2018-07-15T17:55:00+09:00"}}, {"type": "Feature", "geometry": {"type": "Point", "coordinates": [141.336731, 43.099567]}, "properties": {"action": "警戒出動", "address": "北区北33条西7丁目", "time": "2018-07-15T13:24:00+09:00"}}, {"type": "Feature", "geometry": {"type": "Point", "coordinates": [141.415085, 43.073166]}, "properties": {"action": "警戒出動", "address": "白石区菊水元町9条2丁目", "time": "2018-07-15T13:04:00+09:00"}}, {"type": "Feature", "geometry": {"type": "Point", "coordinates": [141.268372, 43.110786]}, "properties": {"action": "警戒出動", "address": "手稲区新発寒3条4丁目", "time": "2018-07-15T12:47:00+09:00"}}, {"type": "Feature", "geometry": {"type": "Point", "coordinates": [141.366669, 43.083752]}, "properties": {"action": "警戒出動", "address": "東区北17条東10丁目", "time": "2018-07-15T12:40:00+09:00"}}, {"type": "Feature", "geometry": {"type": "Point", "coordinates": [141.351593, 43.118969]}, "properties": {"action": "警戒出動", "address": "東区北48条東6丁目", "time": "2018-07-15T12:39:00+09:00"}}, {"type": "Feature", "geometry": {"type": "Point", "coordinates": [141.497253, 43.029686]}, "properties": {"action": "警戒出動", "address": "厚別区もみじ台東4丁目", "time": "2018-07-15T11:19:00+09:00"}}, {"type": "Feature", "geometry": {"type": "Point", "coordinates": [141.268204, 43.059406]}, "properties": {"action": "警戒出動", "address": "西区福井2丁目", "time": "2018-07-15T05:42:00+09:00"}}, {"type": "Feature", "geometry": {"type": "Point", "coordinates": [141.364655, 43.012615]}, "properties": {"action": "ガス漏れ出動", "address": "南区澄川3条4丁目", "time": "2018-07-15T04:39:00+09:00"}}, {"type": "Feature", "geometry": {"type": "Point", "coordinates": [141.27095, 43.072979]}, "properties": {"action": "救急隊支援出動", "address": "西区西野5条6丁目", "time": "2018-07-15T21:04:00+09:00"}}, {"type": "Feature", "geometry": {"type": "Point", "coordinates": [141.238861, 43.145142]}, "properties": {"action": "救急隊支援出動", "address": "手稲区曙10条1丁目", "time": "2018-07-15T14:12:00+09:00"}}, {"type": "Feature", "geometry": {"type": "Point", "coordinates": [141.319489, 43.078972]}, "properties": {"action": "救急隊支援出動", "address": "西区八軒2条東5丁目", "time": "2018-07-15T12:32:00+09:00"}}]}