{"type": "FeatureCollection", "crs": {"type": "name", "properties": {"name": "urn:ogc:def:crs:OGC:1.3:CRS84"}}, "features": [{"type": "Feature", "geometry": {"type": "Point", "coordinates": [141.352341, 43.102936]}, "properties": {"action": "火災出動", "address": "東区北34条東4丁目", "time": "2018-07-27T14:28:00+09:00"}}, {"type": "Feature", "geometry": {"type": "Point", "coordinates": [141.350464, 43.088734]}, "properties": {"action": "車両火災出動", "address": "東区北22条東1丁目", "time": "2018-07-27T19:28:00+09:00"}}, {"type": "Feature", "geometry": {"type": "Point", "coordinates": [141.480606, 43.020187]}, "properties": {"action": "救助出動", "address": "厚別区厚別南7丁目", "time": "2018-07-27T17:57:00+09:00"}}, {"type": "Feature", "geometry": {"type": "Point", "coordinates": [141.344971, 43.020042]}, "properties": {"action": "救助出動", "address": "中央区南29条西11丁目", "time": "2018-07-27T17:28:00+09:00"}}, {"type": "Feature", "geometry": {"type": "Point", "coordinates": [141.472137, 43.033001]}, "properties": {"action": "救助出動", "address": "厚別区青葉町1丁目", "time": "2018-07-27T14:06:00+09:00"}}, {"type": "Feature", "geometry": {"type": "Point", "coordinates": [141.407303, 43.04052]}, "properties": {"action": "救助出動", "address": "白石区南郷通6丁目", "time": "2018-07-27T11:29:00+09:00"}}, {"type": "Feature", "geometry": {"type": "Point", "coordinates": [141.246323, 43.056625]}, "properties": {"action": "警戒出動", "address": "西区平和2条10丁目", "time": "2018-07-27T20:35:00+09:00"}}, {"type": "Feature", "geometry": {"type": "Point", "coordinates": [141.367828, 42.993382]}, "properties": {"action": "警戒出動", "address": "南区澄川5条13丁目", "time": "2018-07-27T15:56:00+09:00"}}, {"type": "Feature", "geometry": {"type": "Point", "coordinates": [141.34288, 43.108295]}, "properties": {"action": "警戒出動", "address": "北区麻生町1丁目", "time": "2018-07-27T15:16:00+09:00"}}, {"type": "Feature", "geometry": {"type": "Point", "coordinates": [141.305634, 43.073524]}, "properties": {"action": "警戒出動", "address": "西区二十四軒4条5丁目", "time": "2018-07-27T14:57:00+09:00"}}, {"type": "Feature", "geometry": {"type": "Point", "coordinates": [141.301819, 43.079346]}, "properties": {"action": "警戒出動", "address": "西区琴似3条3丁目", "time": "2018-07-27T14:13:00+09:00"}}, {"type": "Feature", "geometry": {"type": "Point", "coordinates": [141.3311, 43.035297]}, "properties": {"action": "警戒出動", "address": "中央区南17条西18丁目", "time": "2018-07-27T13:55:00+09:00"}}, {"type": "Feature", "geometry": {"type": "Point", "coordinates": [141.383057, 43.048058]}, "properties": {"action": "警戒出動", "address": "白石区東札幌1条3丁目", "time": "2018-07-27T13:45:00+09:00"}}, {"type": "Feature", "geometry": {"type": "Point", "coordinates": [141.273071, 43.083878]}, "properties": {"action": "警戒出動", "address": "西区西野1条9丁目", "time": "2018-07-27T12:45:00+09:00"}}, {"type": "Feature", "geometry": {"type": "Point", "coordinates": [141.394699, 43.028156]}, "properties": {"action": "警戒出動", "address": "豊平区月寒西1条8丁目", "time": "2018-07-27T12:16:00+09:00"}}, {"type": "Feature", "geometry": {"type": "Point", "coordinates": [141.362106, 43.121784]}, "properties": {"action": "警戒出動", "address": "東区北49条東14丁目", "time": "2018-07-27T11:00:00+09:00"}}, {"type": "Feature", "geometry": {"type": "Point", "coordinates": [141.358521, 43.170364]}, "properties": {"action": "警戒出動", "address": "北区東茨戸4条1丁目", "time": "2018-07-27T10:29:00+09:00"}}, {"type": "Feature", "geometry": {"type": "Point", "coordinates": [141.347443, 43.015743]}, "properties": {"action": "警戒出動", "address": "南区南32条西10丁目", "time": "2018-07-27T09:20:00+09:00"}}, {"type": "Feature", "geometry": {"type": "Point", "coordinates": [141.433624, 43.058552]}, "properties": {"action": "警戒出動", "address": "白石区川北2条1丁目", "time": "2018-07-27T07:04:00+09:00"}}, {"type": "Feature", "geometry": {"type": "Point", "coordinates": [141.270889, 43.056278]}, "properties": {"action": "救急隊支援出動", "address": "西区福井3丁目", "time": "2018-07-27T23:20:00+09:00"}}, {"type": "Feature", "geometry": {"type": "Point", "coordinates": [141.41481, 43.125942]}, "properties": {"action": "救急隊支援出動", "address": "東区中沼西1条1丁目", "time": "2018-07-27T22:00:00+09:00"}}, {"type": "Feature", "geometry": {"type": "Point", "coordinates": [141.357239, 43.153915]}, "properties": {"action": "救急隊支援出動", "address": "北区篠路8条3丁目", "time": "2018-07-27T21:09:00+09:00"}}, {"type": "Feature", "geometry": {"type": "Point", "coordinates": [141.357773, 43.049603]}, "properties": {"action": "救急隊支援出動", "address": "中央区南9条西1丁目", "time": "2018-07-27T20:44:00+09:00"}}, {"type": "Feature", "geometry": {"type": "Point", "coordinates": [141.348267, 43.059887]}, "properties": {"action": "救急隊支援出動", "address": "中央区大通西6丁目", "time": "2018-07-27T20:22:00+09:00"}}, {"type": "Feature", "geometry": {"type": "Point", "coordinates": [141.357773, 43.049603]}, "properties": {"action": "救急隊支援出動", "address": "中央区南9条西1丁目", "time": "2018-07-27T19:22:00+09:00"}}, {"type": "Feature", "geometry": {"type": "Point", "coordinates": [141.354202, 43.044552]}, "properties": {"action": "救急隊支援出動", "address": "中央区中島公園 付近", "time": "2018-07-27T19:21:00+09:00"}}, {"type": "Feature", "geometry": {"type": "Point", "coordinates": [141.325409, 43.067413]}, "properties": {"action": "救急隊支援出動", "address": "中央区北8条西19丁目", "time": "2018-07-27T18:21:00+09:00"}}, {"type": "Feature", "geometry": {"type": "Point", "coordinates": [141.333603, 43.106907]}, "properties": {"action": "救急隊支援出動", "address": "北区北37条西9丁目", "time": "2018-07-27T17:23:00+09:00"}}, {"type": "Feature", "geometry": {"type": "Point", "coordinates": [141.440918, 43.00024]}, "properties": {"action": "救急隊支援出動", "address": "清田区清田1条4丁目", "time": "2018-07-27T16:59:00+09:00"}}, {"type": "Feature", "geometry": {"type": "Point", "coordinates": [141.329483, 42.949112]}, "properties": {"action": "救急隊支援出動", "address": "南区石山 付近", "time": "2018-07-27T13:02:00+09:00"}}, {"type": "Feature", "geometry": {"type": "Point", "coordinates": [141.371017, 43.14592]}, "properties": {"action": "航空隊支援出動", "address": "北区篠路4条9丁目", "time": "2018-07-27T16:20:00+09:00"}}, {"type": "Feature", "geometry": {"type": "Point", "coordinates": [141.348648, 42.948299]}, "properties": {"action": "航空隊支援出動", "address": "南区常盤2条2丁目", "time": "2018-07-27T15:43:00+09:00"}}]}