{"type": "FeatureCollection", "crs": {"type": "name", "properties": {"name": "urn:ogc:def:crs:OGC:1.3:CRS84"}}, "features": [{"type": "Feature", "geometry": {"type": "Point", "coordinates": [141.398941, 43.026466]}, "properties": {"action": "火災出動", "address": "豊平区月寒中央通10丁目", "time": "2018-07-22T19:44:00+09:00"}}, {"type": "Feature", "geometry": {"type": "Point", "coordinates": [141.46933, 43.017296]}, "properties": {"action": "車両火災出動", "address": "厚別区上野幌2条2丁目", "time": "2018-07-22T11:09:00+09:00"}}, {"type": "Feature", "geometry": {"type": "Point", "coordinates": [141.41481, 43.125942]}, "properties": {"action": "救助出動", "address": "東区中沼西1条1丁目", "time": "2018-07-22T05:29:00+09:00"}}, {"type": "Feature", "geometry": {"type": "Point", "coordinates": [141.414398, 43.165569]}, "properties": {"action": "救助出動", "address": "北区あいの里3条9丁目", "time": "2018-07-22T00:35:00+09:00"}}, {"type": "Feature", "geometry": {"type": "Point", "coordinates": [141.471588, 43.01305]}, "properties": {"action": "救助出動", "address": "厚別区上野幌3条3丁目", "time": "2018-07-22T00:23:00+09:00"}}, {"type": "Feature", "geometry": {"type": "Point", "coordinates": [141.377625, 43.059795]}, "properties": {"action": "警戒出動", "address": "白石区菊水6条2丁目", "time": "2018-07-22T23:25:00+09:00"}}, {"type": "Feature", "geometry": {"type": "Point", "coordinates": [141.360077, 43.058254]}, "properties": {"action": "警戒出動", "address": "中央区南3条東2丁目", "time": "2018-07-22T23:19:00+09:00"}}, {"type": "Feature", "geometry": {"type": "Point", "coordinates": [141.363297, 43.066635]}, "properties": {"action": "警戒出動", "address": "中央区北3条東5丁目", "time": "2018-07-22T23:17:00+09:00"}}, {"type": "Feature", "geometry": {"type": "Point", "coordinates": [141.361084, 43.062206]}, "properties": {"action": "警戒出動", "address": "中央区大通東3丁目", "time": "2018-07-22T23:14:00+09:00"}}, {"type": "Feature", "geometry": {"type": "Point", "coordinates": [141.389648, 43.04034]}, "properties": {"action": "警戒出動", "address": "豊平区美園3条6丁目", "time": "2018-07-22T22:43:00+09:00"}}, {"type": "Feature", "geometry": {"type": "Point", "coordinates": [141.366226, 43.026028]}, "properties": {"action": "警戒出動", "address": "豊平区平岸2条14丁目", "time": "2018-07-22T20:41:00+09:00"}}, {"type": "Feature", "geometry": {"type": "Point", "coordinates": [141.299744, 43.101604]}, "properties": {"action": "警戒出動", "address": "西区発寒15条1丁目", "time": "2018-07-22T20:29:00+09:00"}}, {"type": "Feature", "geometry": {"type": "Point", "coordinates": [141.377563, 43.093674]}, "properties": {"action": "警戒出動", "address": "東区北23条東18丁目", "time": "2018-07-22T17:28:00+09:00"}}, {"type": "Feature", "geometry": {"type": "Point", "coordinates": [141.237503, 42.952312]}, "properties": {"action": "警戒出動", "address": "南区豊滝1丁目", "time": "2018-07-22T10:26:00+09:00"}}, {"type": "Feature", "geometry": {"type": "Point", "coordinates": [141.290924, 43.083275]}, "properties": {"action": "警戒出動", "address": "西区発寒3条5丁目", "time": "2018-07-22T10:17:00+09:00"}}, {"type": "Feature", "geometry": {"type": "Point", "coordinates": [141.290924, 43.083275]}, "properties": {"action": "警戒出動", "address": "西区発寒3条5丁目", "time": "2018-07-22T09:26:00+09:00"}}, {"type": "Feature", "geometry": {"type": "Point", "coordinates": [141.356094, 43.149567]}, "properties": {"action": "警戒出動", "address": "北区篠路5条3丁目", "time": "2018-07-22T08:54:00+09:00"}}, {"type": "Feature", "geometry": {"type": "Point", "coordinates": [141.438293, 43.100662]}, "properties": {"action": "警戒出動", "address": "東区東雁来13条4丁目", "time": "2018-07-22T06:33:00+09:00"}}, {"type": "Feature", "geometry": {"type": "Point", "coordinates": [141.389618, 43.012421]}, "properties": {"action": "救急隊支援出動", "address": "豊平区西岡4条6丁目", "time": "2018-07-22T22:45:00+09:00"}}, {"type": "Feature", "geometry": {"type": "Point", "coordinates": [141.278534, 43.082924]}, "properties": {"action": "救急隊支援出動", "address": "西区西町南16丁目", "time": "2018-07-22T19:09:00+09:00"}}, {"type": "Feature", "geometry": {"type": "Point", "coordinates": [141.366959, 43.077847]}, "properties": {"action": "救急隊支援出動", "address": "東区北12条東9丁目", "time": "2018-07-22T09:36:00+09:00"}}, {"type": "Feature", "geometry": {"type": "Point", "coordinates": [141.452103, 42.999889]}, "properties": {"action": "救急隊支援出動", "address": "清田区平岡3条3丁目", "time": "2018-07-22T07:40:00+09:00"}}, {"type": "Feature", "geometry": {"type": "Point", "coordinates": [141.293304, 43.0784]}, "properties": {"action": "救急隊支援出動", "address": "西区西町北2丁目", "time": "2018-07-22T00:04:00+09:00"}}]}