{"type": "FeatureCollection", "crs": {"type": "name", "properties": {"name": "urn:ogc:def:crs:OGC:1.3:CRS84"}}, "features": [{"type": "Feature", "geometry": {"type": "Point", "coordinates": [141.282639, 43.095802]}, "properties": {"action": "救助出動", "address": "西区発寒9条11丁目", "time": "2018-03-11T18:11:00+09:00"}}, {"type": "Feature", "geometry": {"type": "Point", "coordinates": [141.381195, 43.057453]}, "properties": {"action": "救助出動", "address": "白石区菊水7条3丁目", "time": "2018-03-11T16:18:00+09:00"}}, {"type": "Feature", "geometry": {"type": "Point", "coordinates": [141.474258, 42.989052]}, "properties": {"action": "救助出動", "address": "清田区里塚緑ｹ丘11丁目", "time": "2018-03-11T01:52:00+09:00"}}, {"type": "Feature", "geometry": {"type": "Point", "coordinates": [141.290848, 43.07312]}, "properties": {"action": "水難救助出動", "address": "西区山の手6条4丁目", "time": "2018-03-11T12:45:00+09:00"}}, {"type": "Feature", "geometry": {"type": "Point", "coordinates": [141.157349, 42.966698]}, "properties": {"action": "山岳救助出動", "address": "南区定山渓無番地", "time": "2018-03-11T11:16:00+09:00"}}, {"type": "Feature", "geometry": {"type": "Point", "coordinates": [141.33168, 43.107391]}, "properties": {"action": "警戒出動", "address": "北区新琴似5条1丁目", "time": "2018-03-11T20:58:00+09:00"}}, {"type": "Feature", "geometry": {"type": "Point", "coordinates": [141.384277, 43.073654]}, "properties": {"action": "警戒出動", "address": "東区苗穂町3丁目", "time": "2018-03-11T20:34:00+09:00"}}, {"type": "Feature", "geometry": {"type": "Point", "coordinates": [141.315613, 43.096264]}, "properties": {"action": "警戒出動", "address": "北区新川1条4丁目", "time": "2018-03-11T19:33:00+09:00"}}, {"type": "Feature", "geometry": {"type": "Point", "coordinates": [141.348038, 43.053852]}, "properties": {"action": "警戒出動", "address": "中央区南5条西7丁目", "time": "2018-03-11T18:35:00+09:00"}}, {"type": "Feature", "geometry": {"type": "Point", "coordinates": [141.433853, 43.033978]}, "properties": {"action": "警戒出動", "address": "白石区本通17丁目", "time": "2018-03-11T18:31:00+09:00"}}, {"type": "Feature", "geometry": {"type": "Point", "coordinates": [141.34967, 43.073128]}, "properties": {"action": "警戒出動", "address": "北区北10条西3丁目", "time": "2018-03-11T16:50:00+09:00"}}, {"type": "Feature", "geometry": {"type": "Point", "coordinates": [141.417389, 43.033875]}, "properties": {"action": "警戒出動", "address": "白石区栄通12丁目", "time": "2018-03-11T14:36:00+09:00"}}, {"type": "Feature", "geometry": {"type": "Point", "coordinates": [141.291962, 43.092056]}, "properties": {"action": "警戒出動", "address": "西区発寒10条4丁目", "time": "2018-03-11T12:07:00+09:00"}}, {"type": "Feature", "geometry": {"type": "Point", "coordinates": [141.363327, 43.072521]}, "properties": {"action": "警戒出動", "address": "東区北8条東6丁目", "time": "2018-03-11T08:42:00+09:00"}}, {"type": "Feature", "geometry": {"type": "Point", "coordinates": [141.418198, 43.036293]}, "properties": {"action": "ガス漏れ出動", "address": "白石区南郷通11丁目", "time": "2018-03-11T20:13:00+09:00"}}, {"type": "Feature", "geometry": {"type": "Point", "coordinates": [141.439438, 42.98341]}, "properties": {"action": "救急隊支援出動", "address": "清田区真栄5条2丁目", "time": "2018-03-11T17:45:00+09:00"}}, {"type": "Feature", "geometry": {"type": "Point", "coordinates": [141.398392, 43.053108]}, "properties": {"action": "救急隊支援出動", "address": "白石区中央1条5丁目", "time": "2018-03-11T14:30:00+09:00"}}, {"type": "Feature", "geometry": {"type": "Point", "coordinates": [141.202515, 43.126732]}, "properties": {"action": "救急隊支援出動", "address": "手稲区金山2条3丁目", "time": "2018-03-11T14:28:00+09:00"}}, {"type": "Feature", "geometry": {"type": "Point", "coordinates": [141.40155, 43.159084]}, "properties": {"action": "救急隊支援出動", "address": "北区あいの里2条6丁目", "time": "2018-03-11T11:34:00+09:00"}}, {"type": "Feature", "geometry": {"type": "Point", "coordinates": [141.268829, 43.088631]}, "properties": {"action": "救急隊支援出動", "address": "西区宮の沢2条3丁目", "time": "2018-03-11T10:31:00+09:00"}}, {"type": "Feature", "geometry": {"type": "Point", "coordinates": [141.374039, 43.027985]}, "properties": {"action": "救急隊支援出動", "address": "豊平区平岸4条12丁目", "time": "2018-03-11T10:29:00+09:00"}}, {"type": "Feature", "geometry": {"type": "Point", "coordinates": [141.364731, 43.010494]}, "properties": {"action": "救急隊支援出動", "address": "南区澄川3条5丁目", "time": "2018-03-11T09:19:00+09:00"}}, {"type": "Feature", "geometry": {"type": "Point", "coordinates": [141.344147, 42.987892]}, "properties": {"action": "救急隊支援出動", "address": "南区真駒内柏丘5丁目", "time": "2018-03-11T08:58:00+09:00"}}, {"type": "Feature", "geometry": {"type": "Point", "coordinates": [141.353867, 43.050583]}, "properties": {"action": "救急隊支援出動", "address": "中央区南8条西4丁目", "time": "2018-03-11T01:18:00+09:00"}}, {"type": "Feature", "geometry": {"type": "Point", "coordinates": [141.397751, 43.146748]}, "properties": {"action": "航空隊支援出動", "address": "北区篠路町拓北 付近", "time": "2018-03-11T11:41:00+09:00"}}]}