{"type": "FeatureCollection", "crs": {"type": "name", "properties": {"name": "urn:ogc:def:crs:OGC:1.3:CRS84"}}, "features": [{"type": "Feature", "geometry": {"type": "Point", "coordinates": [141.376343, 43.059143]}, "properties": {"action": "火災出動", "address": "白石区菊水5条2丁目", "time": "2018-03-02T16:01:00+09:00"}}, {"type": "Feature", "geometry": {"type": "Point", "coordinates": [141.400925, 43.032463]}, "properties": {"action": "車両火災出動", "address": "豊平区月寒東2条7丁目", "time": "2018-03-02T18:35:00+09:00"}}, {"type": "Feature", "geometry": {"type": "Point", "coordinates": [141.348282, 43.147583]}, "properties": {"action": "救助出動", "address": "北区西茨戸1条1丁目", "time": "2018-03-02T20:21:00+09:00"}}, {"type": "Feature", "geometry": {"type": "Point", "coordinates": [141.355469, 42.943344]}, "properties": {"action": "救助出動", "address": "南区真駒内 付近", "time": "2018-03-02T14:04:00+09:00"}}, {"type": "Feature", "geometry": {"type": "Point", "coordinates": [141.433823, 43.029774]}, "properties": {"action": "救助出動", "address": "白石区南郷通18丁目", "time": "2018-03-02T11:36:00+09:00"}}, {"type": "Feature", "geometry": {"type": "Point", "coordinates": [141.342545, 43.089245]}, "properties": {"action": "救助出動", "address": "北区北23条西5丁目", "time": "2018-03-02T11:19:00+09:00"}}, {"type": "Feature", "geometry": {"type": "Point", "coordinates": [141.367798, 43.056225]}, "properties": {"action": "救助出動", "address": "豊平区豊平1条1丁目", "time": "2018-03-02T10:51:00+09:00"}}, {"type": "Feature", "geometry": {"type": "Point", "coordinates": [141.419662, 43.054741]}, "properties": {"action": "救助出動", "address": "白石区北郷2条6丁目", "time": "2018-03-02T08:50:00+09:00"}}, {"type": "Feature", "geometry": {"type": "Point", "coordinates": [141.317612, 43.068119]}, "properties": {"action": "警戒出動", "address": "中央区北9条西24丁目", "time": "2018-03-02T20:54:00+09:00"}}, {"type": "Feature", "geometry": {"type": "Point", "coordinates": [141.34227, 43.096073]}, "properties": {"action": "警戒出動", "address": "北区北29条西4丁目", "time": "2018-03-02T20:28:00+09:00"}}, {"type": "Feature", "geometry": {"type": "Point", "coordinates": [141.374344, 43.08902]}, "properties": {"action": "警戒出動", "address": "東区北20条東16丁目", "time": "2018-03-02T18:11:00+09:00"}}, {"type": "Feature", "geometry": {"type": "Point", "coordinates": [141.37648, 43.086433]}, "properties": {"action": "警戒出動", "address": "東区北18条東17丁目", "time": "2018-03-02T17:50:00+09:00"}}, {"type": "Feature", "geometry": {"type": "Point", "coordinates": [141.438904, 43.025509]}, "properties": {"action": "警戒出動", "address": "白石区栄通20丁目", "time": "2018-03-02T14:10:00+09:00"}}, {"type": "Feature", "geometry": {"type": "Point", "coordinates": [141.341537, 43.11224]}, "properties": {"action": "警戒出動", "address": "北区麻生町6丁目", "time": "2018-03-02T12:25:00+09:00"}}, {"type": "Feature", "geometry": {"type": "Point", "coordinates": [141.250488, 43.132324]}, "properties": {"action": "警戒出動", "address": "手稲区前田7条14丁目", "time": "2018-03-02T10:00:00+09:00"}}, {"type": "Feature", "geometry": {"type": "Point", "coordinates": [141.342224, 43.033928]}, "properties": {"action": "警戒出動", "address": "中央区南19条西12丁目", "time": "2018-03-02T09:17:00+09:00"}}, {"type": "Feature", "geometry": {"type": "Point", "coordinates": [141.263474, 43.118549]}, "properties": {"action": "警戒出動", "address": "手稲区前田5条5丁目", "time": "2018-03-02T06:10:00+09:00"}}, {"type": "Feature", "geometry": {"type": "Point", "coordinates": [141.353546, 43.048553]}, "properties": {"action": "警戒出動", "address": "中央区南9条西4丁目", "time": "2018-03-02T04:39:00+09:00"}}, {"type": "Feature", "geometry": {"type": "Point", "coordinates": [141.302948, 42.982479]}, "properties": {"action": "警戒出動", "address": "南区南沢 付近", "time": "2018-03-02T02:12:00+09:00"}}, {"type": "Feature", "geometry": {"type": "Point", "coordinates": [141.355988, 43.05455]}, "properties": {"action": "警戒出動", "address": "中央区南5条西2丁目", "time": "2018-03-02T00:03:00+09:00"}}, {"type": "Feature", "geometry": {"type": "Point", "coordinates": [141.370987, 43.033669]}, "properties": {"action": "ガス漏れ出動", "address": "豊平区平岸3条8丁目", "time": "2018-03-02T22:05:00+09:00"}}, {"type": "Feature", "geometry": {"type": "Point", "coordinates": [141.259644, 43.105186]}, "properties": {"action": "ガス漏れ出動", "address": "手稲区西宮の沢2条4丁目", "time": "2018-03-02T02:43:00+09:00"}}, {"type": "Feature", "geometry": {"type": "Point", "coordinates": [141.284515, 43.094311]}, "properties": {"action": "ガス漏れ出動", "address": "西区発寒9条10丁目", "time": "2018-03-02T00:56:00+09:00"}}, {"type": "Feature", "geometry": {"type": "Point", "coordinates": [141.314926, 43.123032]}, "properties": {"action": "救急隊支援出動", "address": "北区新琴似8条13丁目", "time": "2018-03-02T15:36:00+09:00"}}, {"type": "Feature", "geometry": {"type": "Point", "coordinates": [141.343887, 43.057735]}, "properties": {"action": "救急隊支援出動", "address": "中央区南1条西9丁目", "time": "2018-03-02T11:02:00+09:00"}}, {"type": "Feature", "geometry": {"type": "Point", "coordinates": [141.325836, 43.041687]}, "properties": {"action": "救急隊支援出動", "address": "中央区南12条西22丁目", "time": "2018-03-02T08:08:00+09:00"}}, {"type": "Feature", "geometry": {"type": "Point", "coordinates": [141.339661, 43.051979]}, "properties": {"action": "救急隊支援出動", "address": "中央区南6条西12丁目", "time": "2018-03-02T08:03:00+09:00"}}]}