{"type": "FeatureCollection", "crs": {"type": "name", "properties": {"name": "urn:ogc:def:crs:OGC:1.3:CRS84"}}, "features": [{"type": "Feature", "geometry": {"type": "Point", "coordinates": [141.345825, 43.094589]}, "properties": {"action": "火災出動", "address": "北区北27条西2丁目", "time": "2018-03-03T21:22:00+09:00"}}, {"type": "Feature", "geometry": {"type": "Point", "coordinates": [141.402405, 43.055054]}, "properties": {"action": "火災出動", "address": "白石区中央2条6丁目", "time": "2018-03-03T12:17:00+09:00"}}, {"type": "Feature", "geometry": {"type": "Point", "coordinates": [141.352539, 43.080658]}, "properties": {"action": "救助出動", "address": "東区北16条東1丁目", "time": "2018-03-03T19:32:00+09:00"}}, {"type": "Feature", "geometry": {"type": "Point", "coordinates": [141.276352, 42.962841]}, "properties": {"action": "救助出動", "address": "南区藤野2条12丁目", "time": "2018-03-03T16:40:00+09:00"}}, {"type": "Feature", "geometry": {"type": "Point", "coordinates": [141.391083, 43.06702]}, "properties": {"action": "救助出動", "address": "白石区菊水上町4条1丁目", "time": "2018-03-03T15:15:00+09:00"}}, {"type": "Feature", "geometry": {"type": "Point", "coordinates": [141.284988, 42.957123]}, "properties": {"action": "救助出動", "address": "南区藤野5条9丁目", "time": "2018-03-03T14:24:00+09:00"}}, {"type": "Feature", "geometry": {"type": "Point", "coordinates": [141.315521, 43.093712]}, "properties": {"action": "救助出動", "address": "西区八軒10条西3丁目", "time": "2018-03-03T13:24:00+09:00"}}, {"type": "Feature", "geometry": {"type": "Point", "coordinates": [141.399963, 43.117615]}, "properties": {"action": "救助出動", "address": "東区丘珠町 付近", "time": "2018-03-03T07:35:00+09:00"}}, {"type": "Feature", "geometry": {"type": "Point", "coordinates": [141.330872, 43.072952]}, "properties": {"action": "警戒出動", "address": "中央区北12条西15丁目", "time": "2018-03-03T23:43:00+09:00"}}, {"type": "Feature", "geometry": {"type": "Point", "coordinates": [141.374954, 43.056213]}, "properties": {"action": "警戒出動", "address": "白石区菊水3条3丁目", "time": "2018-03-03T22:51:00+09:00"}}, {"type": "Feature", "geometry": {"type": "Point", "coordinates": [141.337936, 43.09441]}, "properties": {"action": "警戒出動", "address": "北区北28条西7丁目", "time": "2018-03-03T22:48:00+09:00"}}, {"type": "Feature", "geometry": {"type": "Point", "coordinates": [141.366577, 43.067142]}, "properties": {"action": "警戒出動", "address": "中央区北3条東7丁目", "time": "2018-03-03T18:20:00+09:00"}}, {"type": "Feature", "geometry": {"type": "Point", "coordinates": [141.288971, 43.095825]}, "properties": {"action": "警戒出動", "address": "西区発寒11条5丁目", "time": "2018-03-03T16:24:00+09:00"}}, {"type": "Feature", "geometry": {"type": "Point", "coordinates": [141.335403, 43.107124]}, "properties": {"action": "警戒出動", "address": "北区北38条西7丁目", "time": "2018-03-03T13:15:00+09:00"}}, {"type": "Feature", "geometry": {"type": "Point", "coordinates": [141.407837, 43.161522]}, "properties": {"action": "警戒出動", "address": "北区あいの里3条7丁目", "time": "2018-03-03T10:33:00+09:00"}}, {"type": "Feature", "geometry": {"type": "Point", "coordinates": [141.358017, 43.145401]}, "properties": {"action": "警戒出動", "address": "北区篠路3条4丁目", "time": "2018-03-03T10:06:00+09:00"}}, {"type": "Feature", "geometry": {"type": "Point", "coordinates": [141.316696, 43.1152]}, "properties": {"action": "警戒出動", "address": "北区新琴似5条10丁目", "time": "2018-03-03T06:50:00+09:00"}}, {"type": "Feature", "geometry": {"type": "Point", "coordinates": [141.353546, 43.048553]}, "properties": {"action": "警戒出動", "address": "中央区南9条西4丁目", "time": "2018-03-03T05:32:00+09:00"}}, {"type": "Feature", "geometry": {"type": "Point", "coordinates": [141.350037, 43.051384]}, "properties": {"action": "警戒出動", "address": "中央区南7条西6丁目", "time": "2018-03-03T03:40:00+09:00"}}, {"type": "Feature", "geometry": {"type": "Point", "coordinates": [141.369003, 43.057194]}, "properties": {"action": "警戒出動", "address": "白石区菊水1条1丁目", "time": "2018-03-03T01:03:00+09:00"}}, {"type": "Feature", "geometry": {"type": "Point", "coordinates": [141.371124, 43.008842]}, "properties": {"action": "救急隊支援出動", "address": "南区澄川5条6丁目", "time": "2018-03-03T23:47:00+09:00"}}, {"type": "Feature", "geometry": {"type": "Point", "coordinates": [141.394089, 43.095989]}, "properties": {"action": "救急隊支援出動", "address": "東区伏古10条2丁目", "time": "2018-03-03T22:26:00+09:00"}}, {"type": "Feature", "geometry": {"type": "Point", "coordinates": [141.366104, 43.052505]}, "properties": {"action": "救急隊支援出動", "address": "豊平区豊平5条2丁目", "time": "2018-03-03T22:11:00+09:00"}}, {"type": "Feature", "geometry": {"type": "Point", "coordinates": [141.309372, 43.123356]}, "properties": {"action": "救急隊支援出動", "address": "北区新琴似7条15丁目", "time": "2018-03-03T21:08:00+09:00"}}, {"type": "Feature", "geometry": {"type": "Point", "coordinates": [141.378021, 43.001148]}, "properties": {"action": "救急隊支援出動", "address": "豊平区西岡2条11丁目", "time": "2018-03-03T19:40:00+09:00"}}, {"type": "Feature", "geometry": {"type": "Point", "coordinates": [141.429474, 42.993538]}, "properties": {"action": "救急隊支援出動", "address": "清田区清田6条2丁目", "time": "2018-03-03T18:43:00+09:00"}}, {"type": "Feature", "geometry": {"type": "Point", "coordinates": [141.27269, 43.068062]}, "properties": {"action": "救急隊支援出動", "address": "西区西野6条3丁目", "time": "2018-03-03T18:06:00+09:00"}}, {"type": "Feature", "geometry": {"type": "Point", "coordinates": [141.425323, 43.0135]}, "properties": {"action": "救急隊支援出動", "address": "豊平区月寒東2条20丁目", "time": "2018-03-03T17:30:00+09:00"}}, {"type": "Feature", "geometry": {"type": "Point", "coordinates": [141.314972, 42.960327]}, "properties": {"action": "救急隊支援出動", "address": "南区石山2条9丁目", "time": "2018-03-03T16:36:00+09:00"}}, {"type": "Feature", "geometry": {"type": "Point", "coordinates": [141.489258, 43.033688]}, "properties": {"action": "救急隊支援出動", "address": "厚別区もみじ台西4丁目", "time": "2018-03-03T14:58:00+09:00"}}, {"type": "Feature", "geometry": {"type": "Point", "coordinates": [141.341888, 42.974037]}, "properties": {"action": "救急隊支援出動", "address": "南区石山1条2丁目", "time": "2018-03-03T14:14:00+09:00"}}, {"type": "Feature", "geometry": {"type": "Point", "coordinates": [141.36792, 43.076889]}, "properties": {"action": "救急隊支援出動", "address": "東区北11条東10丁目", "time": "2018-03-03T13:20:00+09:00"}}, {"type": "Feature", "geometry": {"type": "Point", "coordinates": [141.391296, 43.091145]}, "properties": {"action": "救急隊支援出動", "address": "東区伏古7条2丁目", "time": "2018-03-03T12:58:00+09:00"}}, {"type": "Feature", "geometry": {"type": "Point", "coordinates": [141.335754, 43.129108]}, "properties": {"action": "救急隊支援出動", "address": "北区屯田4条4丁目", "time": "2018-03-03T12:28:00+09:00"}}, {"type": "Feature", "geometry": {"type": "Point", "coordinates": [141.444519, 42.993549]}, "properties": {"action": "救急隊支援出動", "address": "清田区真栄1条2丁目", "time": "2018-03-03T10:44:00+09:00"}}, {"type": "Feature", "geometry": {"type": "Point", "coordinates": [141.246323, 43.056625]}, "properties": {"action": "救急隊支援出動", "address": "西区平和2条10丁目", "time": "2018-03-03T10:22:00+09:00"}}, {"type": "Feature", "geometry": {"type": "Point", "coordinates": [141.38768, 42.999218]}, "properties": {"action": "救急隊支援出動", "address": "豊平区福住3条12丁目", "time": "2018-03-03T09:54:00+09:00"}}, {"type": "Feature", "geometry": {"type": "Point", "coordinates": [141.423065, 43.015079]}, "properties": {"action": "救急隊支援出動", "address": "豊平区月寒東2条19丁目", "time": "2018-03-03T09:26:00+09:00"}}, {"type": "Feature", "geometry": {"type": "Point", "coordinates": [141.306381, 42.960247]}, "properties": {"action": "航空隊支援出動", "address": "南区藤野3条3丁目", "time": "2018-03-03T16:41:00+09:00"}}]}