{"type": "FeatureCollection", "crs": {"type": "name", "properties": {"name": "urn:ogc:def:crs:OGC:1.3:CRS84"}}, "features": [{"type": "Feature", "geometry": {"type": "Point", "coordinates": [141.342834, 43.025631]}, "properties": {"action": "火災出動", "address": "中央区南25条西12丁目", "time": "2017-10-31T21:23:00+09:00"}}, {"type": "Feature", "geometry": {"type": "Point", "coordinates": [141.396622, 43.04475]}, "properties": {"action": "火災出動", "address": "白石区南郷通1丁目", "time": "2017-10-31T02:23:00+09:00"}}, {"type": "Feature", "geometry": {"type": "Point", "coordinates": [141.349014, 43.069443]}, "properties": {"action": "救助出動", "address": "北区北7条西4丁目", "time": "2017-10-31T21:18:00+09:00"}}, {"type": "Feature", "geometry": {"type": "Point", "coordinates": [141.340378, 43.090538]}, "properties": {"action": "救助出動", "address": "北区北24条西6丁目", "time": "2017-10-31T15:39:00+09:00"}}, {"type": "Feature", "geometry": {"type": "Point", "coordinates": [141.355042, 43.071812]}, "properties": {"action": "救助出動", "address": "東区北8条東1丁目", "time": "2017-10-31T13:47:00+09:00"}}, {"type": "Feature", "geometry": {"type": "Point", "coordinates": [141.353271, 43.051853]}, "properties": {"action": "救助出動", "address": "中央区南7条西4丁目", "time": "2017-10-31T11:41:00+09:00"}}, {"type": "Feature", "geometry": {"type": "Point", "coordinates": [141.355804, 43.05566]}, "properties": {"action": "救助出動", "address": "中央区南4条西2丁目", "time": "2017-10-31T02:00:00+09:00"}}, {"type": "Feature", "geometry": {"type": "Point", "coordinates": [141.344543, 43.027046]}, "properties": {"action": "警戒出動", "address": "中央区南24条西11丁目", "time": "2017-10-31T21:50:00+09:00"}}, {"type": "Feature", "geometry": {"type": "Point", "coordinates": [141.321213, 43.0373]}, "properties": {"action": "警戒出動", "address": "中央区旭ｹ丘5丁目", "time": "2017-10-31T14:15:00+09:00"}}, {"type": "Feature", "geometry": {"type": "Point", "coordinates": [141.338776, 43.058495]}, "properties": {"action": "警戒出動", "address": "中央区大通西12丁目", "time": "2017-10-31T12:21:00+09:00"}}, {"type": "Feature", "geometry": {"type": "Point", "coordinates": [141.357773, 43.049603]}, "properties": {"action": "警戒出動", "address": "中央区南9条西1丁目", "time": "2017-10-31T12:05:00+09:00"}}, {"type": "Feature", "geometry": {"type": "Point", "coordinates": [141.416916, 42.948112]}, "properties": {"action": "警戒出動", "address": "清田区有明 付近", "time": "2017-10-31T07:28:00+09:00"}}, {"type": "Feature", "geometry": {"type": "Point", "coordinates": [141.425323, 43.03883]}, "properties": {"action": "ガス漏れ出動", "address": "白石区本通13丁目", "time": "2017-10-31T15:55:00+09:00"}}, {"type": "Feature", "geometry": {"type": "Point", "coordinates": [141.345688, 43.070126]}, "properties": {"action": "ガス漏れ出動", "address": "北区北8条西6丁目", "time": "2017-10-31T04:19:00+09:00"}}, {"type": "Feature", "geometry": {"type": "Point", "coordinates": [141.456375, 42.977528]}, "properties": {"action": "救急隊支援出動", "address": "清田区美しが丘4条6丁目", "time": "2017-10-31T20:49:00+09:00"}}, {"type": "Feature", "geometry": {"type": "Point", "coordinates": [141.392731, 43.084435]}, "properties": {"action": "救急隊支援出動", "address": "東区伏古3条4丁目", "time": "2017-10-31T20:29:00+09:00"}}, {"type": "Feature", "geometry": {"type": "Point", "coordinates": [141.343948, 43.043903]}, "properties": {"action": "救急隊支援出動", "address": "中央区南12条西10丁目", "time": "2017-10-31T17:21:00+09:00"}}, {"type": "Feature", "geometry": {"type": "Point", "coordinates": [141.262924, 43.089817]}, "properties": {"action": "救急隊支援出動", "address": "西区宮の沢3条5丁目", "time": "2017-10-31T17:10:00+09:00"}}, {"type": "Feature", "geometry": {"type": "Point", "coordinates": [141.438599, 42.975315]}, "properties": {"action": "救急隊支援出動", "address": "清田区真栄 付近", "time": "2017-10-31T15:13:00+09:00"}}, {"type": "Feature", "geometry": {"type": "Point", "coordinates": [141.464645, 43.03315]}, "properties": {"action": "救急隊支援出動", "address": "厚別区厚別中央1条3丁目", "time": "2017-10-31T14:03:00+09:00"}}, {"type": "Feature", "geometry": {"type": "Point", "coordinates": [141.340454, 43.136658]}, "properties": {"action": "救急隊支援出動", "address": "北区屯田7条3丁目", "time": "2017-10-31T09:32:00+09:00"}}]}