{"type": "FeatureCollection", "crs": {"type": "name", "properties": {"name": "urn:ogc:def:crs:OGC:1.3:CRS84"}}, "features": [{"type": "Feature", "geometry": {"type": "Point", "coordinates": [141.346313, 43.054672]}, "properties": {"action": "火災出動", "address": "中央区南4条西8丁目", "time": "2019-01-21T11:18:00+09:00"}}, {"type": "Feature", "geometry": {"type": "Point", "coordinates": [141.402893, 43.014091]}, "properties": {"action": "火災出動", "address": "豊平区福住3条4丁目", "time": "2019-01-21T10:49:00+09:00"}}, {"type": "Feature", "geometry": {"type": "Point", "coordinates": [141.339111, 43.064907]}, "properties": {"action": "車両火災出動", "address": "中央区北4条西11丁目", "time": "2019-01-21T23:30:00+09:00"}}, {"type": "Feature", "geometry": {"type": "Point", "coordinates": [141.381561, 43.017715]}, "properties": {"action": "救助出動", "address": "豊平区西岡1条4丁目", "time": "2019-01-21T22:28:00+09:00"}}, {"type": "Feature", "geometry": {"type": "Point", "coordinates": [141.394882, 43.045612]}, "properties": {"action": "救助出動", "address": "白石区東札幌2条6丁目", "time": "2019-01-21T17:56:00+09:00"}}, {"type": "Feature", "geometry": {"type": "Point", "coordinates": [141.377625, 43.059795]}, "properties": {"action": "救助出動", "address": "白石区菊水6条2丁目", "time": "2019-01-21T17:29:00+09:00"}}, {"type": "Feature", "geometry": {"type": "Point", "coordinates": [141.230057, 43.120686]}, "properties": {"action": "救助出動", "address": "手稲区稲穂3条2丁目", "time": "2019-01-21T15:41:00+09:00"}}, {"type": "Feature", "geometry": {"type": "Point", "coordinates": [141.419266, 43.04232]}, "properties": {"action": "救助出動", "address": "白石区本通9丁目", "time": "2019-01-21T14:33:00+09:00"}}, {"type": "Feature", "geometry": {"type": "Point", "coordinates": [141.476685, 43.033802]}, "properties": {"action": "救助出動", "address": "厚別区青葉町3丁目", "time": "2019-01-21T13:21:00+09:00"}}, {"type": "Feature", "geometry": {"type": "Point", "coordinates": [141.426758, 43.097301]}, "properties": {"action": "救助出動", "address": "東区東雁来10条2丁目", "time": "2019-01-21T11:41:00+09:00"}}, {"type": "Feature", "geometry": {"type": "Point", "coordinates": [141.297195, 43.099945]}, "properties": {"action": "救助出動", "address": "西区発寒14条2丁目", "time": "2019-01-21T09:19:00+09:00"}}, {"type": "Feature", "geometry": {"type": "Point", "coordinates": [141.419373, 43.035851]}, "properties": {"action": "救助出動", "address": "白石区南郷通12丁目", "time": "2019-01-21T00:02:00+09:00"}}, {"type": "Feature", "geometry": {"type": "Point", "coordinates": [141.279877, 43.089687]}, "properties": {"action": "警戒出動", "address": "西区発寒6条9丁目", "time": "2019-01-21T12:43:00+09:00"}}, {"type": "Feature", "geometry": {"type": "Point", "coordinates": [141.467148, 42.976215]}, "properties": {"action": "警戒出動", "address": "清田区美しが丘2条10丁目", "time": "2019-01-21T10:26:00+09:00"}}, {"type": "Feature", "geometry": {"type": "Point", "coordinates": [141.341537, 43.11224]}, "properties": {"action": "ガス漏れ出動", "address": "北区麻生町6丁目", "time": "2019-01-21T22:00:00+09:00"}}, {"type": "Feature", "geometry": {"type": "Point", "coordinates": [141.271286, 42.96283]}, "properties": {"action": "ガス漏れ出動", "address": "南区簾舞2条1丁目", "time": "2019-01-21T18:41:00+09:00"}}, {"type": "Feature", "geometry": {"type": "Point", "coordinates": [141.3806, 43.101486]}, "properties": {"action": "救急隊支援出動", "address": "東区北30条東20丁目", "time": "2019-01-21T19:17:00+09:00"}}, {"type": "Feature", "geometry": {"type": "Point", "coordinates": [141.366562, 43.044987]}, "properties": {"action": "救急隊支援出動", "address": "豊平区旭町5丁目", "time": "2019-01-21T12:29:00+09:00"}}, {"type": "Feature", "geometry": {"type": "Point", "coordinates": [141.381439, 43.078018]}, "properties": {"action": "救急隊支援出動", "address": "東区北8条東19丁目", "time": "2019-01-21T10:54:00+09:00"}}, {"type": "Feature", "geometry": {"type": "Point", "coordinates": [141.342545, 43.023396]}, "properties": {"action": "救急隊支援出動", "address": "中央区南27条西13丁目", "time": "2019-01-21T10:23:00+09:00"}}, {"type": "Feature", "geometry": {"type": "Point", "coordinates": [141.353241, 43.136425]}, "properties": {"action": "救急隊支援出動", "address": "北区太平10条3丁目", "time": "2019-01-21T09:06:00+09:00"}}, {"type": "Feature", "geometry": {"type": "Point", "coordinates": [141.314606, 42.986404]}, "properties": {"action": "救急隊支援出動", "address": "南区南沢4条3丁目", "time": "2019-01-21T08:04:00+09:00"}}, {"type": "Feature", "geometry": {"type": "Point", "coordinates": [141.264786, 43.069294]}, "properties": {"action": "救急隊支援出動", "address": "西区西野7条7丁目", "time": "2019-01-21T06:06:00+09:00"}}, {"type": "Feature", "geometry": {"type": "Point", "coordinates": [141.347, 43.01236]}, "properties": {"action": "救急隊支援出動", "address": "南区南34条西10丁目", "time": "2019-01-21T05:25:00+09:00"}}]}