{"type": "FeatureCollection", "crs": {"type": "name", "properties": {"name": "urn:ogc:def:crs:OGC:1.3:CRS84"}}, "features": [{"type": "Feature", "geometry": {"type": "Point", "coordinates": [141.429626, 43.008102]}, "properties": {"action": "火災出動", "address": "清田区北野1条2丁目", "time": "2019-01-13T08:41:00+09:00"}}, {"type": "Feature", "geometry": {"type": "Point", "coordinates": [141.374146, 43.045109]}, "properties": {"action": "火災出動", "address": "豊平区豊平6条10丁目", "time": "2019-01-13T05:50:00+09:00"}}, {"type": "Feature", "geometry": {"type": "Point", "coordinates": [141.395294, 43.032024]}, "properties": {"action": "救助出動", "address": "豊平区月寒中央通6丁目", "time": "2019-01-13T22:46:00+09:00"}}, {"type": "Feature", "geometry": {"type": "Point", "coordinates": [141.366959, 43.077847]}, "properties": {"action": "救助出動", "address": "東区北12条東9丁目", "time": "2019-01-13T17:20:00+09:00"}}, {"type": "Feature", "geometry": {"type": "Point", "coordinates": [141.417938, 43.060608]}, "properties": {"action": "救助出動", "address": "白石区北郷4条4丁目", "time": "2019-01-13T15:20:00+09:00"}}, {"type": "Feature", "geometry": {"type": "Point", "coordinates": [141.355759, 43.070496]}, "properties": {"action": "警戒出動", "address": "東区北7条東1丁目", "time": "2019-01-13T21:31:00+09:00"}}, {"type": "Feature", "geometry": {"type": "Point", "coordinates": [141.309937, 43.076813]}, "properties": {"action": "警戒出動", "address": "西区二十四軒4条2丁目", "time": "2019-01-13T21:05:00+09:00"}}, {"type": "Feature", "geometry": {"type": "Point", "coordinates": [141.497467, 43.024048]}, "properties": {"action": "警戒出動", "address": "厚別区もみじ台南5丁目", "time": "2019-01-13T20:22:00+09:00"}}, {"type": "Feature", "geometry": {"type": "Point", "coordinates": [141.309937, 43.076813]}, "properties": {"action": "警戒出動", "address": "西区二十四軒4条2丁目", "time": "2019-01-13T18:50:00+09:00"}}, {"type": "Feature", "geometry": {"type": "Point", "coordinates": [141.335205, 43.008854]}, "properties": {"action": "警戒出動", "address": "南区藻岩下4丁目", "time": "2019-01-13T11:49:00+09:00"}}, {"type": "Feature", "geometry": {"type": "Point", "coordinates": [141.306213, 43.063595]}, "properties": {"action": "警戒出動", "address": "中央区宮の森3条5丁目", "time": "2019-01-13T11:42:00+09:00"}}, {"type": "Feature", "geometry": {"type": "Point", "coordinates": [141.398239, 43.031616]}, "properties": {"action": "警戒出動", "address": "豊平区月寒東1条7丁目", "time": "2019-01-13T08:59:00+09:00"}}, {"type": "Feature", "geometry": {"type": "Point", "coordinates": [141.337845, 43.000973]}, "properties": {"action": "警戒出動", "address": "南区川沿1条1丁目", "time": "2019-01-13T04:54:00+09:00"}}, {"type": "Feature", "geometry": {"type": "Point", "coordinates": [141.393478, 43.031757]}, "properties": {"action": "警戒出動", "address": "豊平区月寒西1条6丁目", "time": "2019-01-13T04:19:00+09:00"}}, {"type": "Feature", "geometry": {"type": "Point", "coordinates": [141.441589, 42.987415]}, "properties": {"action": "警戒出動", "address": "清田区真栄4条2丁目", "time": "2019-01-13T04:17:00+09:00"}}, {"type": "Feature", "geometry": {"type": "Point", "coordinates": [141.359116, 43.03767]}, "properties": {"action": "警戒出動", "address": "豊平区中の島1条2丁目", "time": "2019-01-13T01:25:00+09:00"}}, {"type": "Feature", "geometry": {"type": "Point", "coordinates": [141.378403, 43.047756]}, "properties": {"action": "救急隊支援出動", "address": "豊平区豊平3条10丁目", "time": "2019-01-13T14:28:00+09:00"}}, {"type": "Feature", "geometry": {"type": "Point", "coordinates": [141.258759, 43.066265]}, "properties": {"action": "救急隊支援出動", "address": "西区西野9条8丁目", "time": "2019-01-13T13:31:00+09:00"}}, {"type": "Feature", "geometry": {"type": "Point", "coordinates": [141.218597, 43.129192]}, "properties": {"action": "救急隊支援出動", "address": "手稲区稲穂1条6丁目", "time": "2019-01-13T13:10:00+09:00"}}, {"type": "Feature", "geometry": {"type": "Point", "coordinates": [141.326569, 43.127502]}, "properties": {"action": "救急隊支援出動", "address": "北区屯田3条7丁目", "time": "2019-01-13T12:43:00+09:00"}}, {"type": "Feature", "geometry": {"type": "Point", "coordinates": [141.318192, 43.088989]}, "properties": {"action": "救急隊支援出動", "address": "西区八軒8条東1丁目", "time": "2019-01-13T10:45:00+09:00"}}, {"type": "Feature", "geometry": {"type": "Point", "coordinates": [141.492188, 43.034004]}, "properties": {"action": "救急隊支援出動", "address": "厚別区もみじ台北6丁目", "time": "2019-01-13T10:08:00+09:00"}}, {"type": "Feature", "geometry": {"type": "Point", "coordinates": [141.334595, 42.983829]}, "properties": {"action": "救急隊支援出動", "address": "南区川沿10条2丁目", "time": "2019-01-13T08:33:00+09:00"}}, {"type": "Feature", "geometry": {"type": "Point", "coordinates": [141.350479, 43.146225]}, "properties": {"action": "救急隊支援出動", "address": "北区篠路3条1丁目", "time": "2019-01-13T08:17:00+09:00"}}, {"type": "Feature", "geometry": {"type": "Point", "coordinates": [141.21843, 43.13578]}, "properties": {"action": "航空隊支援出動", "address": "手稲区星置2条1丁目", "time": "2019-01-13T13:13:00+09:00"}}, {"type": "Feature", "geometry": {"type": "Point", "coordinates": [141.487213, 43.047039]}, "properties": {"action": "航空隊支援出動", "address": "厚別区厚別東3条5丁目", "time": "2019-01-13T10:11:00+09:00"}}]}