{"type": "FeatureCollection", "crs": {"type": "name", "properties": {"name": "urn:ogc:def:crs:OGC:1.3:CRS84"}}, "features": [{"type": "Feature", "geometry": {"type": "Point", "coordinates": [141.354889, 43.021618]}, "properties": {"action": "火災出動", "address": "豊平区中の島1条10丁目", "time": "2019-01-05T23:38:00+09:00"}}, {"type": "Feature", "geometry": {"type": "Point", "coordinates": [141.344986, 43.049473]}, "properties": {"action": "火災出動", "address": "中央区南8条西9丁目", "time": "2019-01-05T23:18:00+09:00"}}, {"type": "Feature", "geometry": {"type": "Point", "coordinates": [141.391953, 43.053474]}, "properties": {"action": "火災出動", "address": "白石区東札幌6条3丁目", "time": "2019-01-05T13:03:00+09:00"}}, {"type": "Feature", "geometry": {"type": "Point", "coordinates": [141.366669, 43.091038]}, "properties": {"action": "救助出動", "address": "東区北22条東12丁目", "time": "2019-01-05T20:56:00+09:00"}}, {"type": "Feature", "geometry": {"type": "Point", "coordinates": [141.309113, 43.119995]}, "properties": {"action": "救助出動", "address": "北区新琴似5条14丁目", "time": "2019-01-05T20:23:00+09:00"}}, {"type": "Feature", "geometry": {"type": "Point", "coordinates": [141.380417, 43.034782]}, "properties": {"action": "救助出動", "address": "豊平区美園11条5丁目", "time": "2019-01-05T19:30:00+09:00"}}, {"type": "Feature", "geometry": {"type": "Point", "coordinates": [141.341904, 43.097202]}, "properties": {"action": "救助出動", "address": "北区北30条西4丁目", "time": "2019-01-05T18:32:00+09:00"}}, {"type": "Feature", "geometry": {"type": "Point", "coordinates": [141.376709, 43.038994]}, "properties": {"action": "救助出動", "address": "豊平区美園9条1丁目", "time": "2019-01-05T15:47:00+09:00"}}, {"type": "Feature", "geometry": {"type": "Point", "coordinates": [141.339142, 43.110981]}, "properties": {"action": "救助出動", "address": "北区麻生町4丁目", "time": "2019-01-05T13:12:00+09:00"}}, {"type": "Feature", "geometry": {"type": "Point", "coordinates": [141.37323, 43.0443]}, "properties": {"action": "警戒出動", "address": "豊平区豊平7条10丁目", "time": "2019-01-05T21:42:00+09:00"}}, {"type": "Feature", "geometry": {"type": "Point", "coordinates": [141.431396, 43.02013]}, "properties": {"action": "警戒出動", "address": "清田区北野5条1丁目", "time": "2019-01-05T20:56:00+09:00"}}, {"type": "Feature", "geometry": {"type": "Point", "coordinates": [141.437302, 43.014782]}, "properties": {"action": "警戒出動", "address": "清田区北野4条3丁目", "time": "2019-01-05T19:06:00+09:00"}}, {"type": "Feature", "geometry": {"type": "Point", "coordinates": [141.375534, 43.066952]}, "properties": {"action": "警戒出動", "address": "中央区北2条東12丁目", "time": "2019-01-05T16:26:00+09:00"}}, {"type": "Feature", "geometry": {"type": "Point", "coordinates": [141.366669, 43.083752]}, "properties": {"action": "警戒出動", "address": "東区北17条東10丁目", "time": "2019-01-05T16:19:00+09:00"}}, {"type": "Feature", "geometry": {"type": "Point", "coordinates": [141.343536, 43.091133]}, "properties": {"action": "警戒出動", "address": "北区北24条西4丁目", "time": "2019-01-05T16:01:00+09:00"}}, {"type": "Feature", "geometry": {"type": "Point", "coordinates": [141.421021, 43.037479]}, "properties": {"action": "警戒出動", "address": "白石区本郷通12丁目", "time": "2019-01-05T15:37:00+09:00"}}, {"type": "Feature", "geometry": {"type": "Point", "coordinates": [141.355331, 43.057011]}, "properties": {"action": "警戒出動", "address": "中央区南3条西2丁目", "time": "2019-01-05T13:13:00+09:00"}}, {"type": "Feature", "geometry": {"type": "Point", "coordinates": [141.377533, 43.030647]}, "properties": {"action": "警戒出動", "address": "豊平区平岸5条10丁目", "time": "2019-01-05T10:20:00+09:00"}}, {"type": "Feature", "geometry": {"type": "Point", "coordinates": [141.333664, 43.035698]}, "properties": {"action": "警戒出動", "address": "中央区南17条西17丁目", "time": "2019-01-05T07:35:00+09:00"}}, {"type": "Feature", "geometry": {"type": "Point", "coordinates": [141.374924, 43.051079]}, "properties": {"action": "ガス漏れ出動", "address": "豊平区豊平2条7丁目", "time": "2019-01-05T19:00:00+09:00"}}, {"type": "Feature", "geometry": {"type": "Point", "coordinates": [141.296875, 43.104866]}, "properties": {"action": "救急隊支援出動", "address": "西区発寒16条2丁目", "time": "2019-01-05T19:22:00+09:00"}}, {"type": "Feature", "geometry": {"type": "Point", "coordinates": [141.34259, 43.05328]}, "properties": {"action": "救急隊支援出動", "address": "中央区南5条西10丁目", "time": "2019-01-05T17:27:00+09:00"}}, {"type": "Feature", "geometry": {"type": "Point", "coordinates": [141.329514, 43.004574]}, "properties": {"action": "救急隊支援出動", "address": "南区北ノ沢 付近", "time": "2019-01-05T14:09:00+09:00"}}, {"type": "Feature", "geometry": {"type": "Point", "coordinates": [141.448654, 43.014317]}, "properties": {"action": "救急隊支援出動", "address": "清田区北野5条5丁目", "time": "2019-01-05T11:20:00+09:00"}}, {"type": "Feature", "geometry": {"type": "Point", "coordinates": [141.25177, 43.113583]}, "properties": {"action": "救急隊支援出動", "address": "手稲区富丘1条6丁目", "time": "2019-01-05T09:19:00+09:00"}}, {"type": "Feature", "geometry": {"type": "Point", "coordinates": [141.304031, 43.102291]}, "properties": {"action": "救急隊支援出動", "address": "西区八軒10条西12丁目", "time": "2019-01-05T09:19:00+09:00"}}, {"type": "Feature", "geometry": {"type": "Point", "coordinates": [141.329514, 43.004574]}, "properties": {"action": "救急隊支援出動", "address": "南区北ノ沢 付近", "time": "2019-01-05T09:13:00+09:00"}}]}