{"type": "FeatureCollection", "crs": {"type": "name", "properties": {"name": "urn:ogc:def:crs:OGC:1.3:CRS84"}}, "features": [{"type": "Feature", "geometry": {"type": "Point", "coordinates": [141.383057, 43.048058]}, "properties": {"action": "救助出動", "address": "白石区東札幌1条3丁目", "time": "2019-01-12T21:17:00+09:00"}}, {"type": "Feature", "geometry": {"type": "Point", "coordinates": [141.326218, 43.06403]}, "properties": {"action": "救助出動", "address": "中央区北5条西19丁目", "time": "2019-01-12T18:01:00+09:00"}}, {"type": "Feature", "geometry": {"type": "Point", "coordinates": [141.195969, 43.100754]}, "properties": {"action": "山岳救助出動", "address": "手稲区手稲金山 付近", "time": "2019-01-12T11:09:00+09:00"}}, {"type": "Feature", "geometry": {"type": "Point", "coordinates": [141.157349, 42.966698]}, "properties": {"action": "山岳救助出動", "address": "南区定山渓 付近", "time": "2019-01-12T10:55:00+09:00"}}, {"type": "Feature", "geometry": {"type": "Point", "coordinates": [141.403198, 43.063946]}, "properties": {"action": "警戒出動", "address": "白石区菊水元町2条5丁目", "time": "2019-01-12T22:46:00+09:00"}}, {"type": "Feature", "geometry": {"type": "Point", "coordinates": [141.359116, 43.03767]}, "properties": {"action": "警戒出動", "address": "豊平区中の島1条2丁目", "time": "2019-01-12T22:30:00+09:00"}}, {"type": "Feature", "geometry": {"type": "Point", "coordinates": [141.394699, 43.028156]}, "properties": {"action": "警戒出動", "address": "豊平区月寒西1条8丁目", "time": "2019-01-12T21:27:00+09:00"}}, {"type": "Feature", "geometry": {"type": "Point", "coordinates": [141.448776, 43.006214]}, "properties": {"action": "警戒出動", "address": "清田区平岡4条1丁目", "time": "2019-01-12T20:07:00+09:00"}}, {"type": "Feature", "geometry": {"type": "Point", "coordinates": [141.36026, 43.097889]}, "properties": {"action": "警戒出動", "address": "東区北28条東8丁目", "time": "2019-01-12T18:02:00+09:00"}}, {"type": "Feature", "geometry": {"type": "Point", "coordinates": [141.361359, 43.080677]}, "properties": {"action": "警戒出動", "address": "東区北15条東6丁目", "time": "2019-01-12T13:38:00+09:00"}}, {"type": "Feature", "geometry": {"type": "Point", "coordinates": [141.361969, 43.056137]}, "properties": {"action": "警戒出動", "address": "中央区南5条東3丁目", "time": "2019-01-12T02:44:00+09:00"}}, {"type": "Feature", "geometry": {"type": "Point", "coordinates": [141.23674, 43.119671]}, "properties": {"action": "救急隊支援出動", "address": "手稲区手稲本町3条4丁目", "time": "2019-01-12T14:49:00+09:00"}}, {"type": "Feature", "geometry": {"type": "Point", "coordinates": [141.445923, 43.068806]}, "properties": {"action": "救急隊支援出動", "address": "白石区川下 付近", "time": "2019-01-12T12:31:00+09:00"}}, {"type": "Feature", "geometry": {"type": "Point", "coordinates": [141.457779, 42.988037]}, "properties": {"action": "救急隊支援出動", "address": "清田区里塚1条2丁目", "time": "2019-01-12T10:55:00+09:00"}}, {"type": "Feature", "geometry": {"type": "Point", "coordinates": [141.434708, 43.024597]}, "properties": {"action": "救急隊支援出動", "address": "清田区北野7条1丁目", "time": "2019-01-12T09:27:00+09:00"}}, {"type": "Feature", "geometry": {"type": "Point", "coordinates": [141.339813, 43.052849]}, "properties": {"action": "救急隊支援出動", "address": "中央区南5条西12丁目", "time": "2019-01-12T07:26:00+09:00"}}, {"type": "Feature", "geometry": {"type": "Point", "coordinates": [141.394485, 43.067421]}, "properties": {"action": "救急隊支援出動", "address": "白石区菊水元町1条1丁目", "time": "2019-01-12T06:05:00+09:00"}}, {"type": "Feature", "geometry": {"type": "Point", "coordinates": [141.439896, 43.005226]}, "properties": {"action": "航空隊支援出動", "address": "清田区清田1条2丁目", "time": "2019-01-12T09:28:00+09:00"}}]}