{"type": "FeatureCollection", "crs": {"type": "name", "properties": {"name": "urn:ogc:def:crs:OGC:1.3:CRS84"}}, "features": [{"type": "Feature", "geometry": {"type": "Point", "coordinates": [141.348892, 43.076656]}, "properties": {"action": "火災出動", "address": "北区北13条西3丁目", "time": "2019-01-25T19:57:00+09:00"}}, {"type": "Feature", "geometry": {"type": "Point", "coordinates": [141.488037, 43.036308]}, "properties": {"action": "救助出動", "address": "厚別区もみじ台北4丁目", "time": "2019-01-25T19:48:00+09:00"}}, {"type": "Feature", "geometry": {"type": "Point", "coordinates": [141.307526, 43.041294]}, "properties": {"action": "救助出動", "address": "中央区円山西町6丁目", "time": "2019-01-25T09:05:00+09:00"}}, {"type": "Feature", "geometry": {"type": "Point", "coordinates": [141.195969, 43.100754]}, "properties": {"action": "山岳救助出動", "address": "手稲区手稲金山 付近", "time": "2019-01-25T13:55:00+09:00"}}, {"type": "Feature", "geometry": {"type": "Point", "coordinates": [141.271362, 43.129181]}, "properties": {"action": "警戒出動", "address": "北区新川西1条6丁目", "time": "2019-01-25T22:17:00+09:00"}}, {"type": "Feature", "geometry": {"type": "Point", "coordinates": [141.363327, 43.072521]}, "properties": {"action": "警戒出動", "address": "東区北8条東6丁目", "time": "2019-01-25T22:11:00+09:00"}}, {"type": "Feature", "geometry": {"type": "Point", "coordinates": [141.352524, 43.055485]}, "properties": {"action": "警戒出動", "address": "中央区南4条西4丁目", "time": "2019-01-25T21:11:00+09:00"}}, {"type": "Feature", "geometry": {"type": "Point", "coordinates": [141.32312, 43.084927]}, "properties": {"action": "警戒出動", "address": "西区八軒7条東4丁目", "time": "2019-01-25T21:06:00+09:00"}}, {"type": "Feature", "geometry": {"type": "Point", "coordinates": [141.395294, 43.032024]}, "properties": {"action": "警戒出動", "address": "豊平区月寒中央通6丁目", "time": "2019-01-25T14:40:00+09:00"}}, {"type": "Feature", "geometry": {"type": "Point", "coordinates": [141.405304, 43.016663]}, "properties": {"action": "警戒出動", "address": "豊平区福住3条2丁目", "time": "2019-01-25T05:08:00+09:00"}}, {"type": "Feature", "geometry": {"type": "Point", "coordinates": [141.360901, 43.08865]}, "properties": {"action": "救急隊支援出動", "address": "東区北21条東7丁目", "time": "2019-01-25T22:25:00+09:00"}}, {"type": "Feature", "geometry": {"type": "Point", "coordinates": [141.303696, 42.957058]}, "properties": {"action": "救急隊支援出動", "address": "南区藤野4条4丁目", "time": "2019-01-25T10:19:00+09:00"}}, {"type": "Feature", "geometry": {"type": "Point", "coordinates": [141.420288, 43.058468]}, "properties": {"action": "救急隊支援出動", "address": "白石区北郷4条5丁目", "time": "2019-01-25T07:29:00+09:00"}}, {"type": "Feature", "geometry": {"type": "Point", "coordinates": [141.24263, 43.141605]}, "properties": {"action": "救急隊支援出動", "address": "手稲区前田8条19丁目", "time": "2019-01-25T01:45:00+09:00"}}]}