{"type": "FeatureCollection", "crs": {"type": "name", "properties": {"name": "urn:ogc:def:crs:OGC:1.3:CRS84"}}, "features": [{"type": "Feature", "geometry": {"type": "Point", "coordinates": [141.350067, 42.959015]}, "properties": {"action": "火災出動", "address": "南区常盤 付近", "time": "2019-01-19T01:14:00+09:00"}}, {"type": "Feature", "geometry": {"type": "Point", "coordinates": [141.317688, 43.136681]}, "properties": {"action": "救助出動", "address": "北区屯田6条11丁目", "time": "2019-01-19T15:00:00+09:00"}}, {"type": "Feature", "geometry": {"type": "Point", "coordinates": [141.344269, 42.966232]}, "properties": {"action": "救助出動", "address": "南区石山東3丁目", "time": "2019-01-19T13:43:00+09:00"}}, {"type": "Feature", "geometry": {"type": "Point", "coordinates": [141.289734, 43.067486]}, "properties": {"action": "警戒出動", "address": "西区山の手4条9丁目", "time": "2019-01-19T23:07:00+09:00"}}, {"type": "Feature", "geometry": {"type": "Point", "coordinates": [141.488037, 43.036308]}, "properties": {"action": "警戒出動", "address": "厚別区もみじ台北4丁目", "time": "2019-01-19T14:11:00+09:00"}}, {"type": "Feature", "geometry": {"type": "Point", "coordinates": [141.468521, 43.030453]}, "properties": {"action": "警戒出動", "address": "厚別区厚別南2丁目", "time": "2019-01-19T12:57:00+09:00"}}, {"type": "Feature", "geometry": {"type": "Point", "coordinates": [141.350128, 43.038605]}, "properties": {"action": "警戒出動", "address": "中央区南16条西7丁目", "time": "2019-01-19T10:31:00+09:00"}}, {"type": "Feature", "geometry": {"type": "Point", "coordinates": [141.441589, 42.987415]}, "properties": {"action": "警戒出動", "address": "清田区真栄4条2丁目", "time": "2019-01-19T10:00:00+09:00"}}, {"type": "Feature", "geometry": {"type": "Point", "coordinates": [141.441589, 42.987415]}, "properties": {"action": "警戒出動", "address": "清田区真栄4条2丁目", "time": "2019-01-19T07:31:00+09:00"}}, {"type": "Feature", "geometry": {"type": "Point", "coordinates": [141.334534, 43.056465]}, "properties": {"action": "救急隊支援出動", "address": "中央区南1条西15丁目", "time": "2019-01-19T21:49:00+09:00"}}, {"type": "Feature", "geometry": {"type": "Point", "coordinates": [141.373184, 43.053078]}, "properties": {"action": "救急隊支援出動", "address": "豊平区豊平1条5丁目", "time": "2019-01-19T15:31:00+09:00"}}, {"type": "Feature", "geometry": {"type": "Point", "coordinates": [141.344162, 43.089386]}, "properties": {"action": "救急隊支援出動", "address": "北区北23条西4丁目", "time": "2019-01-19T11:40:00+09:00"}}, {"type": "Feature", "geometry": {"type": "Point", "coordinates": [141.226974, 43.117218]}, "properties": {"action": "救急隊支援出動", "address": "手稲区稲穂5条2丁目", "time": "2019-01-19T10:49:00+09:00"}}, {"type": "Feature", "geometry": {"type": "Point", "coordinates": [141.400406, 43.086662]}, "properties": {"action": "救急隊支援出動", "address": "東区東苗穂3条1丁目", "time": "2019-01-19T07:57:00+09:00"}}, {"type": "Feature", "geometry": {"type": "Point", "coordinates": [141.306076, 42.962074]}, "properties": {"action": "救急隊支援出動", "address": "南区藤野2条3丁目", "time": "2019-01-19T06:57:00+09:00"}}, {"type": "Feature", "geometry": {"type": "Point", "coordinates": [141.245468, 43.124142]}, "properties": {"action": "救急隊支援出動", "address": "手稲区前田2条12丁目", "time": "2019-01-19T04:24:00+09:00"}}, {"type": "Feature", "geometry": {"type": "Point", "coordinates": [141.278595, 42.959984]}, "properties": {"action": "救急隊支援出動", "address": "南区藤野3条11丁目", "time": "2019-01-19T00:58:00+09:00"}}]}