{"type": "FeatureCollection", "crs": {"type": "name", "properties": {"name": "urn:ogc:def:crs:OGC:1.3:CRS84"}}, "features": [{"type": "Feature", "geometry": {"type": "Point", "coordinates": [141.457779, 42.988037]}, "properties": {"action": "火災出動", "address": "清田区里塚1条2丁目", "time": "2019-01-06T23:18:00+09:00"}}, {"type": "Feature", "geometry": {"type": "Point", "coordinates": [141.340118, 43.048992]}, "properties": {"action": "火災出動", "address": "中央区南8条西12丁目", "time": "2019-01-06T20:37:00+09:00"}}, {"type": "Feature", "geometry": {"type": "Point", "coordinates": [141.344421, 43.0522]}, "properties": {"action": "火災出動", "address": "中央区南6条西9丁目", "time": "2019-01-06T18:42:00+09:00"}}, {"type": "Feature", "geometry": {"type": "Point", "coordinates": [141.350052, 43.058567]}, "properties": {"action": "火災出動", "address": "中央区南1条西5丁目", "time": "2019-01-06T14:36:00+09:00"}}, {"type": "Feature", "geometry": {"type": "Point", "coordinates": [141.249329, 43.105873]}, "properties": {"action": "火災出動", "address": "手稲区富丘3条4丁目", "time": "2019-01-06T07:55:00+09:00"}}, {"type": "Feature", "geometry": {"type": "Point", "coordinates": [141.43576, 43.008381]}, "properties": {"action": "車両火災出動", "address": "清田区北野2条3丁目", "time": "2019-01-06T15:29:00+09:00"}}, {"type": "Feature", "geometry": {"type": "Point", "coordinates": [141.472137, 43.033001]}, "properties": {"action": "救助出動", "address": "厚別区青葉町1丁目", "time": "2019-01-06T09:40:00+09:00"}}, {"type": "Feature", "geometry": {"type": "Point", "coordinates": [141.336884, 43.098454]}, "properties": {"action": "救助出動", "address": "北区北32条西7丁目", "time": "2019-01-06T08:58:00+09:00"}}, {"type": "Feature", "geometry": {"type": "Point", "coordinates": [141.350906, 43.0457]}, "properties": {"action": "警戒出動", "address": "中央区南11条西6丁目", "time": "2019-01-06T22:25:00+09:00"}}, {"type": "Feature", "geometry": {"type": "Point", "coordinates": [141.359573, 43.107063]}, "properties": {"action": "警戒出動", "address": "東区北37条東9丁目", "time": "2019-01-06T19:51:00+09:00"}}, {"type": "Feature", "geometry": {"type": "Point", "coordinates": [141.423721, 43.019806]}, "properties": {"action": "警戒出動", "address": "豊平区月寒東3条18丁目", "time": "2019-01-06T17:34:00+09:00"}}, {"type": "Feature", "geometry": {"type": "Point", "coordinates": [141.345993, 43.068996]}, "properties": {"action": "警戒出動", "address": "北区北7条西6丁目", "time": "2019-01-06T12:25:00+09:00"}}, {"type": "Feature", "geometry": {"type": "Point", "coordinates": [141.372269, 43.04702]}, "properties": {"action": "警戒出動", "address": "豊平区豊平6条8丁目", "time": "2019-01-06T10:15:00+09:00"}}, {"type": "Feature", "geometry": {"type": "Point", "coordinates": [141.297272, 43.076847]}, "properties": {"action": "警戒出動", "address": "西区琴似4条6丁目", "time": "2019-01-06T05:01:00+09:00"}}, {"type": "Feature", "geometry": {"type": "Point", "coordinates": [141.477921, 43.026562]}, "properties": {"action": "警戒出動", "address": "厚別区青葉町8丁目", "time": "2019-01-06T02:30:00+09:00"}}, {"type": "Feature", "geometry": {"type": "Point", "coordinates": [141.277313, 43.087536]}, "properties": {"action": "救急隊支援出動", "address": "西区西町北19丁目", "time": "2019-01-06T17:09:00+09:00"}}, {"type": "Feature", "geometry": {"type": "Point", "coordinates": [141.457779, 42.988037]}, "properties": {"action": "救急隊支援出動", "address": "清田区里塚1条2丁目", "time": "2019-01-06T13:01:00+09:00"}}, {"type": "Feature", "geometry": {"type": "Point", "coordinates": [141.494507, 43.031677]}, "properties": {"action": "救急隊支援出動", "address": "厚別区もみじ台東1丁目", "time": "2019-01-06T11:51:00+09:00"}}, {"type": "Feature", "geometry": {"type": "Point", "coordinates": [141.454788, 42.988522]}, "properties": {"action": "救急隊支援出動", "address": "清田区里塚1条1丁目", "time": "2019-01-06T10:20:00+09:00"}}, {"type": "Feature", "geometry": {"type": "Point", "coordinates": [141.340378, 43.090538]}, "properties": {"action": "救急隊支援出動", "address": "北区北24条西6丁目", "time": "2019-01-06T09:06:00+09:00"}}, {"type": "Feature", "geometry": {"type": "Point", "coordinates": [141.468521, 43.030453]}, "properties": {"action": "救急隊支援出動", "address": "厚別区厚別南2丁目", "time": "2019-01-06T08:58:00+09:00"}}, {"type": "Feature", "geometry": {"type": "Point", "coordinates": [141.264786, 43.069294]}, "properties": {"action": "救急隊支援出動", "address": "西区西野7条7丁目", "time": "2019-01-06T08:06:00+09:00"}}, {"type": "Feature", "geometry": {"type": "Point", "coordinates": [141.225006, 43.045628]}, "properties": {"action": "救急隊支援出動", "address": "西区平和 付近", "time": "2019-01-06T07:23:00+09:00"}}, {"type": "Feature", "geometry": {"type": "Point", "coordinates": [141.303131, 43.048664]}, "properties": {"action": "救急隊支援出動", "address": "中央区円山西町1丁目", "time": "2019-01-06T01:13:00+09:00"}}, {"type": "Feature", "geometry": {"type": "Point", "coordinates": [141.462601, 43.020119]}, "properties": {"action": "航空隊支援出動", "address": "厚別区上野幌3条1丁目", "time": "2019-01-06T09:06:00+09:00"}}]}