{"type": "FeatureCollection", "crs": {"type": "name", "properties": {"name": "urn:ogc:def:crs:OGC:1.3:CRS84"}}, "features": [{"type": "Feature", "geometry": {"type": "Point", "coordinates": [141.337952, 43.050423]}, "properties": {"action": "火災出動", "address": "中央区南7条西13丁目", "time": "2019-01-24T17:50:00+09:00"}}, {"type": "Feature", "geometry": {"type": "Point", "coordinates": [141.395142, 43.04274]}, "properties": {"action": "火災出動", "address": "白石区栄通1丁目", "time": "2019-01-24T16:31:00+09:00"}}, {"type": "Feature", "geometry": {"type": "Point", "coordinates": [141.437042, 43.056221]}, "properties": {"action": "救助出動", "address": "白石区川北1条2丁目", "time": "2019-01-24T15:15:00+09:00"}}, {"type": "Feature", "geometry": {"type": "Point", "coordinates": [141.274216, 43.107582]}, "properties": {"action": "救助出動", "address": "手稲区新発寒3条1丁目", "time": "2019-01-24T10:51:00+09:00"}}, {"type": "Feature", "geometry": {"type": "Point", "coordinates": [141.38298, 43.058609]}, "properties": {"action": "警戒出動", "address": "白石区菊水8条3丁目", "time": "2019-01-24T20:27:00+09:00"}}, {"type": "Feature", "geometry": {"type": "Point", "coordinates": [141.380371, 43.108868]}, "properties": {"action": "警戒出動", "address": "東区北37条東22丁目", "time": "2019-01-24T17:47:00+09:00"}}, {"type": "Feature", "geometry": {"type": "Point", "coordinates": [141.421982, 43.040577]}, "properties": {"action": "警戒出動", "address": "白石区本通11丁目", "time": "2019-01-24T05:34:00+09:00"}}, {"type": "Feature", "geometry": {"type": "Point", "coordinates": [141.409729, 43.039337]}, "properties": {"action": "警戒出動", "address": "白石区南郷通7丁目", "time": "2019-01-24T05:07:00+09:00"}}, {"type": "Feature", "geometry": {"type": "Point", "coordinates": [141.327286, 43.006504]}, "properties": {"action": "救急隊支援出動", "address": "南区北ﾉ沢2丁目", "time": "2019-01-24T21:15:00+09:00"}}, {"type": "Feature", "geometry": {"type": "Point", "coordinates": [141.329514, 43.004574]}, "properties": {"action": "救急隊支援出動", "address": "南区北ノ沢 付近", "time": "2019-01-24T19:28:00+09:00"}}, {"type": "Feature", "geometry": {"type": "Point", "coordinates": [141.443436, 43.018166]}, "properties": {"action": "救急隊支援出動", "address": "清田区北野6条4丁目", "time": "2019-01-24T18:38:00+09:00"}}, {"type": "Feature", "geometry": {"type": "Point", "coordinates": [141.38736, 43.044746]}, "properties": {"action": "救急隊支援出動", "address": "豊平区美園1条3丁目", "time": "2019-01-24T17:22:00+09:00"}}, {"type": "Feature", "geometry": {"type": "Point", "coordinates": [141.381851, 43.135532]}, "properties": {"action": "救急隊支援出動", "address": "北区篠路町上篠路 付近", "time": "2019-01-24T13:59:00+09:00"}}, {"type": "Feature", "geometry": {"type": "Point", "coordinates": [141.368378, 43.016277]}, "properties": {"action": "救急隊支援出動", "address": "南区澄川4条2丁目", "time": "2019-01-24T13:44:00+09:00"}}, {"type": "Feature", "geometry": {"type": "Point", "coordinates": [141.46933, 43.017296]}, "properties": {"action": "救急隊支援出動", "address": "厚別区上野幌2条2丁目", "time": "2019-01-24T11:57:00+09:00"}}, {"type": "Feature", "geometry": {"type": "Point", "coordinates": [141.345596, 43.089531]}, "properties": {"action": "救急隊支援出動", "address": "北区北23条西3丁目", "time": "2019-01-24T11:53:00+09:00"}}, {"type": "Feature", "geometry": {"type": "Point", "coordinates": [141.266495, 43.091064]}, "properties": {"action": "救急隊支援出動", "address": "西区宮の沢2条4丁目", "time": "2019-01-24T06:28:00+09:00"}}, {"type": "Feature", "geometry": {"type": "Point", "coordinates": [141.462311, 43.069542]}, "properties": {"action": "救急隊支援出動", "address": "厚別区厚別町山本 付近", "time": "2019-01-24T05:09:00+09:00"}}, {"type": "Feature", "geometry": {"type": "Point", "coordinates": [141.401062, 43.156555]}, "properties": {"action": "救急隊支援出動", "address": "北区あいの里1条6丁目", "time": "2019-01-24T05:00:00+09:00"}}]}