{"type": "FeatureCollection", "crs": {"type": "name", "properties": {"name": "urn:ogc:def:crs:OGC:1.3:CRS84"}}, "features": [{"type": "Feature", "geometry": {"type": "Point", "coordinates": [141.479034, 43.039322]}, "properties": {"action": "火災出動", "address": "厚別区厚別中央1条7丁目", "time": "2018-09-19T20:14:00+09:00"}}, {"type": "Feature", "geometry": {"type": "Point", "coordinates": [141.340851, 43.05632]}, "properties": {"action": "車両火災出動", "address": "中央区南2条西11丁目", "time": "2018-09-19T16:10:00+09:00"}}, {"type": "Feature", "geometry": {"type": "Point", "coordinates": [141.364334, 43.081116]}, "properties": {"action": "救助出動", "address": "東区北15条東8丁目", "time": "2018-09-19T23:11:00+09:00"}}, {"type": "Feature", "geometry": {"type": "Point", "coordinates": [141.253479, 43.130951]}, "properties": {"action": "救助出動", "address": "手稲区前田7条12丁目", "time": "2018-09-19T17:28:00+09:00"}}, {"type": "Feature", "geometry": {"type": "Point", "coordinates": [141.437714, 43.039383]}, "properties": {"action": "警戒出動", "address": "白石区平和通17丁目", "time": "2018-09-19T22:40:00+09:00"}}, {"type": "Feature", "geometry": {"type": "Point", "coordinates": [141.335709, 43.058102]}, "properties": {"action": "警戒出動", "address": "中央区大通西14丁目", "time": "2018-09-19T21:43:00+09:00"}}, {"type": "Feature", "geometry": {"type": "Point", "coordinates": [141.467697, 42.981716]}, "properties": {"action": "警戒出動", "address": "清田区里塚2条6丁目", "time": "2018-09-19T21:32:00+09:00"}}, {"type": "Feature", "geometry": {"type": "Point", "coordinates": [141.443436, 43.018166]}, "properties": {"action": "警戒出動", "address": "清田区北野6条4丁目", "time": "2018-09-19T20:46:00+09:00"}}, {"type": "Feature", "geometry": {"type": "Point", "coordinates": [141.466934, 43.045147]}, "properties": {"action": "警戒出動", "address": "厚別区厚別中央5条4丁目", "time": "2018-09-19T19:00:00+09:00"}}, {"type": "Feature", "geometry": {"type": "Point", "coordinates": [141.237167, 42.97134]}, "properties": {"action": "警戒出動", "address": "南区砥山 付近", "time": "2018-09-19T17:46:00+09:00"}}, {"type": "Feature", "geometry": {"type": "Point", "coordinates": [141.211426, 42.962208]}, "properties": {"action": "警戒出動", "address": "小樽市銭函4丁目", "time": "2018-09-19T17:30:00+09:00"}}, {"type": "Feature", "geometry": {"type": "Point", "coordinates": [141.382355, 43.049988]}, "properties": {"action": "警戒出動", "address": "白石区東札幌1条2丁目", "time": "2018-09-19T11:05:00+09:00"}}, {"type": "Feature", "geometry": {"type": "Point", "coordinates": [141.379974, 43.05061]}, "properties": {"action": "警戒出動", "address": "白石区東札幌1条1丁目", "time": "2018-09-19T10:53:00+09:00"}}, {"type": "Feature", "geometry": {"type": "Point", "coordinates": [141.422104, 43.025696]}, "properties": {"action": "警戒出動", "address": "豊平区月寒東4条16丁目", "time": "2018-09-19T10:35:00+09:00"}}, {"type": "Feature", "geometry": {"type": "Point", "coordinates": [141.374527, 43.038269]}, "properties": {"action": "警戒出動", "address": "豊平区平岸4条4丁目", "time": "2018-09-19T01:24:00+09:00"}}, {"type": "Feature", "geometry": {"type": "Point", "coordinates": [141.296692, 43.092304]}, "properties": {"action": "救急隊支援出動", "address": "西区発寒11条2丁目", "time": "2018-09-19T15:37:00+09:00"}}, {"type": "Feature", "geometry": {"type": "Point", "coordinates": [141.428879, 42.99905]}, "properties": {"action": "航空隊支援出動", "address": "清田区清田4条2丁目", "time": "2018-09-19T16:58:00+09:00"}}, {"type": "Feature", "geometry": {"type": "Point", "coordinates": [141.415298, 43.101463]}, "properties": {"action": "航空隊支援出動", "address": "東区東苗穂10条2丁目", "time": "2018-09-19T11:34:00+09:00"}}]}