{"type": "FeatureCollection", "crs": {"type": "name", "properties": {"name": "urn:ogc:def:crs:OGC:1.3:CRS84"}}, "features": [{"type": "Feature", "geometry": {"type": "Point", "coordinates": [141.333008, 43.119297]}, "properties": {"action": "車両火災出動", "address": "北区新琴似11条5丁目", "time": "2018-09-12T11:08:00+09:00"}}, {"type": "Feature", "geometry": {"type": "Point", "coordinates": [141.347839, 43.109547]}, "properties": {"action": "救助出動", "address": "東区北41条東2丁目", "time": "2018-09-12T17:39:00+09:00"}}, {"type": "Feature", "geometry": {"type": "Point", "coordinates": [141.350418, 43.00288]}, "properties": {"action": "救助出動", "address": "南区真駒内曙町1丁目", "time": "2018-09-12T13:57:00+09:00"}}, {"type": "Feature", "geometry": {"type": "Point", "coordinates": [141.273071, 43.083878]}, "properties": {"action": "救助出動", "address": "西区西野1条9丁目", "time": "2018-09-12T11:42:00+09:00"}}, {"type": "Feature", "geometry": {"type": "Point", "coordinates": [141.467957, 43.036476]}, "properties": {"action": "救助出動", "address": "厚別区厚別中央2条4丁目", "time": "2018-09-12T09:32:00+09:00"}}, {"type": "Feature", "geometry": {"type": "Point", "coordinates": [141.324051, 43.054878]}, "properties": {"action": "警戒出動", "address": "中央区南2条西22丁目", "time": "2018-09-12T23:05:00+09:00"}}, {"type": "Feature", "geometry": {"type": "Point", "coordinates": [141.340942, 43.113808]}, "properties": {"action": "警戒出動", "address": "北区麻生町7丁目", "time": "2018-09-12T22:28:00+09:00"}}, {"type": "Feature", "geometry": {"type": "Point", "coordinates": [141.359818, 43.067417]}, "properties": {"action": "警戒出動", "address": "中央区北4条東3丁目", "time": "2018-09-12T21:59:00+09:00"}}, {"type": "Feature", "geometry": {"type": "Point", "coordinates": [141.353409, 43.08617]}, "properties": {"action": "警戒出動", "address": "東区北20条東2丁目", "time": "2018-09-12T21:51:00+09:00"}}, {"type": "Feature", "geometry": {"type": "Point", "coordinates": [141.43924, 43.028267]}, "properties": {"action": "警戒出動", "address": "白石区南郷通20丁目", "time": "2018-09-12T21:01:00+09:00"}}, {"type": "Feature", "geometry": {"type": "Point", "coordinates": [141.332428, 43.051891]}, "properties": {"action": "警戒出動", "address": "中央区南5条西16丁目", "time": "2018-09-12T19:17:00+09:00"}}, {"type": "Feature", "geometry": {"type": "Point", "coordinates": [141.35405, 43.055759]}, "properties": {"action": "警戒出動", "address": "中央区南4条西3丁目", "time": "2018-09-12T19:07:00+09:00"}}, {"type": "Feature", "geometry": {"type": "Point", "coordinates": [141.303375, 43.057793]}, "properties": {"action": "警戒出動", "address": "中央区宮の森2条10丁目", "time": "2018-09-12T18:20:00+09:00"}}, {"type": "Feature", "geometry": {"type": "Point", "coordinates": [141.37114, 43.01442]}, "properties": {"action": "警戒出動", "address": "南区澄川5条3丁目", "time": "2018-09-12T15:44:00+09:00"}}, {"type": "Feature", "geometry": {"type": "Point", "coordinates": [141.321121, 42.99482]}, "properties": {"action": "警戒出動", "address": "南区中ﾉ沢3丁目", "time": "2018-09-12T13:48:00+09:00"}}, {"type": "Feature", "geometry": {"type": "Point", "coordinates": [141.348648, 42.948299]}, "properties": {"action": "警戒出動", "address": "南区常盤2条2丁目", "time": "2018-09-12T11:38:00+09:00"}}, {"type": "Feature", "geometry": {"type": "Point", "coordinates": [141.408554, 43.037563]}, "properties": {"action": "警戒出動", "address": "白石区栄通7丁目", "time": "2018-09-12T11:28:00+09:00"}}, {"type": "Feature", "geometry": {"type": "Point", "coordinates": [141.365463, 43.083508]}, "properties": {"action": "警戒出動", "address": "東区北17条東9丁目", "time": "2018-09-12T10:10:00+09:00"}}, {"type": "Feature", "geometry": {"type": "Point", "coordinates": [141.443893, 42.991756]}, "properties": {"action": "警戒出動", "address": "清田区真栄2条2丁目", "time": "2018-09-12T10:06:00+09:00"}}, {"type": "Feature", "geometry": {"type": "Point", "coordinates": [141.441086, 43.037571]}, "properties": {"action": "警戒出動", "address": "白石区流通ｾﾝﾀｰ1丁目", "time": "2018-09-12T09:16:00+09:00"}}, {"type": "Feature", "geometry": {"type": "Point", "coordinates": [141.450302, 43.021626]}, "properties": {"action": "警戒出動", "address": "厚別区大谷地西3丁目", "time": "2018-09-12T06:03:00+09:00"}}, {"type": "Feature", "geometry": {"type": "Point", "coordinates": [141.476929, 43.021748]}, "properties": {"action": "警戒出動", "address": "厚別区厚別南6丁目", "time": "2018-09-12T00:40:00+09:00"}}, {"type": "Feature", "geometry": {"type": "Point", "coordinates": [141.321381, 43.00465]}, "properties": {"action": "救急隊支援出動", "address": "南区北ﾉ沢5丁目", "time": "2018-09-12T13:16:00+09:00"}}, {"type": "Feature", "geometry": {"type": "Point", "coordinates": [141.43924, 43.028267]}, "properties": {"action": "救急隊支援出動", "address": "白石区南郷通20丁目", "time": "2018-09-12T08:51:00+09:00"}}, {"type": "Feature", "geometry": {"type": "Point", "coordinates": [141.328644, 43.090652]}, "properties": {"action": "救急隊支援出動", "address": "北区北25条西13丁目", "time": "2018-09-12T08:08:00+09:00"}}, {"type": "Feature", "geometry": {"type": "Point", "coordinates": [141.475037, 43.057407]}, "properties": {"action": "救急隊支援出動", "address": "厚別区厚別北3条3丁目", "time": "2018-09-12T04:11:00+09:00"}}]}