{"type": "FeatureCollection", "crs": {"type": "name", "properties": {"name": "urn:ogc:def:crs:OGC:1.3:CRS84"}}, "features": [{"type": "Feature", "geometry": {"type": "Point", "coordinates": [141.430542, 43.058403]}, "properties": {"action": "車両火災出動", "address": "白石区北郷5条10丁目", "time": "2018-09-16T20:04:00+09:00"}}, {"type": "Feature", "geometry": {"type": "Point", "coordinates": [141.285751, 43.074268]}, "properties": {"action": "救助出動", "address": "西区西野2条1丁目", "time": "2018-09-16T13:00:00+09:00"}}, {"type": "Feature", "geometry": {"type": "Point", "coordinates": [141.397446, 43.018238]}, "properties": {"action": "警戒出動", "address": "豊平区福住1条3丁目", "time": "2018-09-16T22:29:00+09:00"}}, {"type": "Feature", "geometry": {"type": "Point", "coordinates": [141.432571, 43.137402]}, "properties": {"action": "警戒出動", "address": "東区中沼町 付近", "time": "2018-09-16T18:01:00+09:00"}}, {"type": "Feature", "geometry": {"type": "Point", "coordinates": [141.334763, 42.979015]}, "properties": {"action": "警戒出動", "address": "南区川沿13条2丁目", "time": "2018-09-16T17:17:00+09:00"}}, {"type": "Feature", "geometry": {"type": "Point", "coordinates": [141.363312, 43.024906]}, "properties": {"action": "警戒出動", "address": "豊平区平岸1条15丁目", "time": "2018-09-16T15:04:00+09:00"}}, {"type": "Feature", "geometry": {"type": "Point", "coordinates": [141.413376, 43.06086]}, "properties": {"action": "警戒出動", "address": "白石区北郷3条3丁目", "time": "2018-09-16T12:58:00+09:00"}}, {"type": "Feature", "geometry": {"type": "Point", "coordinates": [141.359909, 43.142365]}, "properties": {"action": "警戒出動", "address": "北区篠路2条5丁目", "time": "2018-09-16T12:44:00+09:00"}}, {"type": "Feature", "geometry": {"type": "Point", "coordinates": [141.423401, 43.031597]}, "properties": {"action": "警戒出動", "address": "白石区栄通15丁目", "time": "2018-09-16T12:10:00+09:00"}}, {"type": "Feature", "geometry": {"type": "Point", "coordinates": [141.464645, 43.03315]}, "properties": {"action": "警戒出動", "address": "厚別区厚別中央1条3丁目", "time": "2018-09-16T11:57:00+09:00"}}, {"type": "Feature", "geometry": {"type": "Point", "coordinates": [141.383057, 43.048058]}, "properties": {"action": "警戒出動", "address": "白石区東札幌1条3丁目", "time": "2018-09-16T10:49:00+09:00"}}, {"type": "Feature", "geometry": {"type": "Point", "coordinates": [141.45816, 42.97974]}, "properties": {"action": "警戒出動", "address": "清田区美しが丘3条6丁目", "time": "2018-09-16T09:45:00+09:00"}}, {"type": "Feature", "geometry": {"type": "Point", "coordinates": [141.423691, 43.054466]}, "properties": {"action": "警戒出動", "address": "白石区北郷3条7丁目", "time": "2018-09-16T07:04:00+09:00"}}, {"type": "Feature", "geometry": {"type": "Point", "coordinates": [141.312363, 43.066525]}, "properties": {"action": "警戒出動", "address": "西区二十四軒1条7丁目", "time": "2018-09-16T07:04:00+09:00"}}, {"type": "Feature", "geometry": {"type": "Point", "coordinates": [141.415298, 43.101463]}, "properties": {"action": "警戒出動", "address": "東区東苗穂10条2丁目", "time": "2018-09-16T04:01:00+09:00"}}, {"type": "Feature", "geometry": {"type": "Point", "coordinates": [141.423691, 43.054466]}, "properties": {"action": "警戒出動", "address": "白石区北郷3条7丁目", "time": "2018-09-16T03:20:00+09:00"}}, {"type": "Feature", "geometry": {"type": "Point", "coordinates": [141.430161, 43.091282]}, "properties": {"action": "警戒出動", "address": "東区東雁来8条4丁目", "time": "2018-09-16T01:01:00+09:00"}}, {"type": "Feature", "geometry": {"type": "Point", "coordinates": [141.423691, 43.054466]}, "properties": {"action": "警戒出動", "address": "白石区北郷3条7丁目", "time": "2018-09-16T00:42:00+09:00"}}, {"type": "Feature", "geometry": {"type": "Point", "coordinates": [141.362396, 43.010811]}, "properties": {"action": "警戒出動", "address": "南区澄川2条5丁目", "time": "2018-09-16T00:27:00+09:00"}}, {"type": "Feature", "geometry": {"type": "Point", "coordinates": [141.413376, 43.06086]}, "properties": {"action": "警戒出動", "address": "白石区北郷3条3丁目", "time": "2018-09-16T00:18:00+09:00"}}, {"type": "Feature", "geometry": {"type": "Point", "coordinates": [141.230026, 43.143391]}, "properties": {"action": "ガス漏れ出動", "address": "手稲区明日風5丁目", "time": "2018-09-16T23:57:00+09:00"}}, {"type": "Feature", "geometry": {"type": "Point", "coordinates": [141.256332, 43.092281]}, "properties": {"action": "救急隊支援出動", "address": "手稲区西宮の沢6条2丁目", "time": "2018-09-16T20:54:00+09:00"}}, {"type": "Feature", "geometry": {"type": "Point", "coordinates": [141.290405, 42.966904]}, "properties": {"action": "救急隊支援出動", "address": "南区藤野1条8丁目", "time": "2018-09-16T19:15:00+09:00"}}, {"type": "Feature", "geometry": {"type": "Point", "coordinates": [141.297577, 42.966518]}, "properties": {"action": "救急隊支援出動", "address": "南区藤野1条6丁目", "time": "2018-09-16T13:55:00+09:00"}}, {"type": "Feature", "geometry": {"type": "Point", "coordinates": [141.461273, 42.969585]}, "properties": {"action": "救急隊支援出動", "address": "清田区里塚 付近", "time": "2018-09-16T10:48:00+09:00"}}, {"type": "Feature", "geometry": {"type": "Point", "coordinates": [141.354202, 43.044552]}, "properties": {"action": "救急隊支援出動", "address": "中央区中島公園 付近", "time": "2018-09-16T09:26:00+09:00"}}, {"type": "Feature", "geometry": {"type": "Point", "coordinates": [141.306381, 42.960247]}, "properties": {"action": "航空隊支援出動", "address": "南区藤野3条3丁目", "time": "2018-09-16T13:57:00+09:00"}}, {"type": "Feature", "geometry": {"type": "Point", "coordinates": [141.461594, 42.97887]}, "properties": {"action": "航空隊支援出動", "address": "清田区美しが丘2条7丁目", "time": "2018-09-16T10:55:00+09:00"}}]}