{"type": "FeatureCollection", "crs": {"type": "name", "properties": {"name": "urn:ogc:def:crs:OGC:1.3:CRS84"}}, "features": [{"type": "Feature", "geometry": {"type": "Point", "coordinates": [141.370117, 43.096802]}, "properties": {"action": "車両火災出動", "address": "東区北26条東15丁目", "time": "2018-09-01T19:22:00+09:00"}}, {"type": "Feature", "geometry": {"type": "Point", "coordinates": [141.313416, 43.104687]}, "properties": {"action": "車両火災出動", "address": "北区新川4条7丁目", "time": "2018-09-01T18:19:00+09:00"}}, {"type": "Feature", "geometry": {"type": "Point", "coordinates": [141.319366, 43.063122]}, "properties": {"action": "救助出動", "address": "中央区北5条西24丁目", "time": "2018-09-01T15:24:00+09:00"}}, {"type": "Feature", "geometry": {"type": "Point", "coordinates": [141.378189, 42.963326]}, "properties": {"action": "救助出動", "address": "豊平区西岡 付近", "time": "2018-09-01T10:39:00+09:00"}}, {"type": "Feature", "geometry": {"type": "Point", "coordinates": [141.339813, 43.052849]}, "properties": {"action": "救助出動", "address": "中央区南5条西12丁目", "time": "2018-09-01T01:48:00+09:00"}}, {"type": "Feature", "geometry": {"type": "Point", "coordinates": [141.34584, 43.042576]}, "properties": {"action": "警戒出動", "address": "中央区南13条西9丁目", "time": "2018-09-01T20:31:00+09:00"}}, {"type": "Feature", "geometry": {"type": "Point", "coordinates": [141.339813, 43.052849]}, "properties": {"action": "警戒出動", "address": "中央区南5条西12丁目", "time": "2018-09-01T18:13:00+09:00"}}, {"type": "Feature", "geometry": {"type": "Point", "coordinates": [141.280579, 43.07159]}, "properties": {"action": "警戒出動", "address": "西区西野4条2丁目", "time": "2018-09-01T18:05:00+09:00"}}, {"type": "Feature", "geometry": {"type": "Point", "coordinates": [141.201492, 43.138714]}, "properties": {"action": "警戒出動", "address": "手稲区星置3条6丁目", "time": "2018-09-01T18:01:00+09:00"}}, {"type": "Feature", "geometry": {"type": "Point", "coordinates": [141.347443, 43.045506]}, "properties": {"action": "警戒出動", "address": "中央区南11条西8丁目", "time": "2018-09-01T07:32:00+09:00"}}, {"type": "Feature", "geometry": {"type": "Point", "coordinates": [141.397446, 43.018238]}, "properties": {"action": "警戒出動", "address": "豊平区福住1条3丁目", "time": "2018-09-01T03:26:00+09:00"}}, {"type": "Feature", "geometry": {"type": "Point", "coordinates": [141.364563, 43.15155]}, "properties": {"action": "警戒出動", "address": "北区篠路7条6丁目", "time": "2018-09-01T00:28:00+09:00"}}, {"type": "Feature", "geometry": {"type": "Point", "coordinates": [141.38501, 43.158627]}, "properties": {"action": "救急隊支援出動", "address": "北区拓北8条4丁目", "time": "2018-09-01T18:10:00+09:00"}}, {"type": "Feature", "geometry": {"type": "Point", "coordinates": [141.345062, 43.047894]}, "properties": {"action": "救急隊支援出動", "address": "中央区南9条西9丁目", "time": "2018-09-01T16:50:00+09:00"}}, {"type": "Feature", "geometry": {"type": "Point", "coordinates": [141.30928, 42.989559]}, "properties": {"action": "救急隊支援出動", "address": "南区南沢6条3丁目", "time": "2018-09-01T09:08:00+09:00"}}, {"type": "Feature", "geometry": {"type": "Point", "coordinates": [141.325928, 42.985222]}, "properties": {"action": "航空隊支援出動", "address": "南区南沢2条1丁目", "time": "2018-09-01T09:09:00+09:00"}}]}