{"type": "FeatureCollection", "crs": {"type": "name", "properties": {"name": "urn:ogc:def:crs:OGC:1.3:CRS84"}}, "features": [{"type": "Feature", "geometry": {"type": "Point", "coordinates": [141.433823, 43.029774]}, "properties": {"action": "火災出動", "address": "白石区南郷通18丁目", "time": "2018-09-26T17:38:00+09:00"}}, {"type": "Feature", "geometry": {"type": "Point", "coordinates": [141.343216, 43.086342]}, "properties": {"action": "火災出動", "address": "北区北21条西5丁目", "time": "2018-09-26T11:53:00+09:00"}}, {"type": "Feature", "geometry": {"type": "Point", "coordinates": [141.379868, 43.02079]}, "properties": {"action": "救助出動", "address": "豊平区平岸7条16丁目", "time": "2018-09-26T12:48:00+09:00"}}, {"type": "Feature", "geometry": {"type": "Point", "coordinates": [141.344757, 43.061649]}, "properties": {"action": "救助出動", "address": "中央区北1条西8丁目", "time": "2018-09-26T09:57:00+09:00"}}, {"type": "Feature", "geometry": {"type": "Point", "coordinates": [141.394913, 43.009827]}, "properties": {"action": "救助出動", "address": "豊平区福住2条7丁目", "time": "2018-09-26T09:10:00+09:00"}}, {"type": "Feature", "geometry": {"type": "Point", "coordinates": [141.309662, 43.087734]}, "properties": {"action": "警戒出動", "address": "西区八軒4条西3丁目", "time": "2018-09-26T17:45:00+09:00"}}, {"type": "Feature", "geometry": {"type": "Point", "coordinates": [141.459702, 43.036198]}, "properties": {"action": "警戒出動", "address": "厚別区厚別中央3条2丁目", "time": "2018-09-26T13:57:00+09:00"}}, {"type": "Feature", "geometry": {"type": "Point", "coordinates": [141.344742, 43.05341]}, "properties": {"action": "警戒出動", "address": "中央区南5条西9丁目", "time": "2018-09-26T07:20:00+09:00"}}, {"type": "Feature", "geometry": {"type": "Point", "coordinates": [141.391205, 43.086594]}, "properties": {"action": "警戒出動", "address": "東区伏古4条3丁目", "time": "2018-09-26T04:40:00+09:00"}}, {"type": "Feature", "geometry": {"type": "Point", "coordinates": [141.427933, 42.996925]}, "properties": {"action": "ガス漏れ出動", "address": "清田区清田5条2丁目", "time": "2018-09-26T15:07:00+09:00"}}, {"type": "Feature", "geometry": {"type": "Point", "coordinates": [141.482208, 43.041965]}, "properties": {"action": "救急隊支援出動", "address": "厚別区厚別東2条2丁目", "time": "2018-09-26T18:03:00+09:00"}}, {"type": "Feature", "geometry": {"type": "Point", "coordinates": [141.434708, 43.068935]}, "properties": {"action": "救急隊支援出動", "address": "白石区川北 付近", "time": "2018-09-26T17:07:00+09:00"}}, {"type": "Feature", "geometry": {"type": "Point", "coordinates": [141.384186, 43.029953]}, "properties": {"action": "救急隊支援出動", "address": "豊平区美園12条8丁目", "time": "2018-09-26T13:50:00+09:00"}}, {"type": "Feature", "geometry": {"type": "Point", "coordinates": [141.352798, 43.122158]}, "properties": {"action": "救急隊支援出動", "address": "東区北50条東7丁目", "time": "2018-09-26T08:08:00+09:00"}}]}