{"type": "FeatureCollection", "crs": {"type": "name", "properties": {"name": "urn:ogc:def:crs:OGC:1.3:CRS84"}}, "features": [{"type": "Feature", "geometry": {"type": "Point", "coordinates": [141.378021, 43.04604]}, "properties": {"action": "火災出動", "address": "豊平区豊平4条11丁目", "time": "2018-09-25T12:56:00+09:00"}}, {"type": "Feature", "geometry": {"type": "Point", "coordinates": [141.347351, 42.943043]}, "properties": {"action": "車両火災出動", "address": "南区常盤3条2丁目", "time": "2018-09-25T13:45:00+09:00"}}, {"type": "Feature", "geometry": {"type": "Point", "coordinates": [141.33078, 43.051064]}, "properties": {"action": "車両火災出動", "address": "中央区南6条西17丁目", "time": "2018-09-25T11:40:00+09:00"}}, {"type": "Feature", "geometry": {"type": "Point", "coordinates": [141.33963, 43.131432]}, "properties": {"action": "救助出動", "address": "北区屯田5条3丁目", "time": "2018-09-25T12:30:00+09:00"}}, {"type": "Feature", "geometry": {"type": "Point", "coordinates": [141.33316, 43.068352]}, "properties": {"action": "警戒出動", "address": "中央区北8条西14丁目", "time": "2018-09-25T20:57:00+09:00"}}, {"type": "Feature", "geometry": {"type": "Point", "coordinates": [141.239136, 43.147003]}, "properties": {"action": "警戒出動", "address": "手稲区曙11条1丁目", "time": "2018-09-25T20:47:00+09:00"}}, {"type": "Feature", "geometry": {"type": "Point", "coordinates": [141.233887, 43.136024]}, "properties": {"action": "警戒出動", "address": "手稲区曙6条3丁目", "time": "2018-09-25T18:59:00+09:00"}}, {"type": "Feature", "geometry": {"type": "Point", "coordinates": [141.350739, 43.056423]}, "properties": {"action": "警戒出動", "address": "中央区南3条西5丁目", "time": "2018-09-25T17:20:00+09:00"}}, {"type": "Feature", "geometry": {"type": "Point", "coordinates": [141.395294, 43.032024]}, "properties": {"action": "警戒出動", "address": "豊平区月寒中央通6丁目", "time": "2018-09-25T13:58:00+09:00"}}, {"type": "Feature", "geometry": {"type": "Point", "coordinates": [141.42067, 43.013]}, "properties": {"action": "警戒出動", "address": "豊平区月寒東1条19丁目", "time": "2018-09-25T10:50:00+09:00"}}, {"type": "Feature", "geometry": {"type": "Point", "coordinates": [141.410812, 43.071934]}, "properties": {"action": "警戒出動", "address": "白石区菊水元町7条2丁目", "time": "2018-09-25T08:41:00+09:00"}}, {"type": "Feature", "geometry": {"type": "Point", "coordinates": [141.357819, 43.075352]}, "properties": {"action": "警戒出動", "address": "東区北11条東3丁目", "time": "2018-09-25T08:41:00+09:00"}}, {"type": "Feature", "geometry": {"type": "Point", "coordinates": [141.410812, 43.071934]}, "properties": {"action": "警戒出動", "address": "白石区菊水元町7条2丁目", "time": "2018-09-25T07:51:00+09:00"}}, {"type": "Feature", "geometry": {"type": "Point", "coordinates": [141.3564, 43.100822]}, "properties": {"action": "警戒出動", "address": "東区北32条東6丁目", "time": "2018-09-25T04:52:00+09:00"}}, {"type": "Feature", "geometry": {"type": "Point", "coordinates": [141.374146, 43.045109]}, "properties": {"action": "警戒出動", "address": "豊平区豊平6条10丁目", "time": "2018-09-25T00:40:00+09:00"}}, {"type": "Feature", "geometry": {"type": "Point", "coordinates": [141.339142, 43.120651]}, "properties": {"action": "ガス漏れ出動", "address": "北区屯田1条2丁目", "time": "2018-09-25T21:15:00+09:00"}}, {"type": "Feature", "geometry": {"type": "Point", "coordinates": [141.360748, 43.054859]}, "properties": {"action": "ガス漏れ出動", "address": "中央区南6条東2丁目", "time": "2018-09-25T09:14:00+09:00"}}, {"type": "Feature", "geometry": {"type": "Point", "coordinates": [141.225006, 43.045628]}, "properties": {"action": "救急隊支援出動", "address": "西区平和 付近", "time": "2018-09-25T23:58:00+09:00"}}, {"type": "Feature", "geometry": {"type": "Point", "coordinates": [141.36615, 43.093887]}, "properties": {"action": "救急隊支援出動", "address": "東区北24条東12丁目", "time": "2018-09-25T21:54:00+09:00"}}, {"type": "Feature", "geometry": {"type": "Point", "coordinates": [141.314758, 43.09951]}, "properties": {"action": "救急隊支援出動", "address": "北区新川2条5丁目", "time": "2018-09-25T16:56:00+09:00"}}, {"type": "Feature", "geometry": {"type": "Point", "coordinates": [141.386597, 43.035122]}, "properties": {"action": "救急隊支援出動", "address": "豊平区美園8条7丁目", "time": "2018-09-25T08:11:00+09:00"}}, {"type": "Feature", "geometry": {"type": "Point", "coordinates": [141.235428, 43.145813]}, "properties": {"action": "救急隊支援出動", "address": "手稲区曙11条2丁目", "time": "2018-09-25T00:45:00+09:00"}}]}