{"type": "FeatureCollection", "crs": {"type": "name", "properties": {"name": "urn:ogc:def:crs:OGC:1.3:CRS84"}}, "features": [{"type": "Feature", "geometry": {"type": "Point", "coordinates": [141.247589, 43.11916]}, "properties": {"action": "火災出動", "address": "手稲区前田1条10丁目", "time": "2018-11-30T22:10:00+09:00"}}, {"type": "Feature", "geometry": {"type": "Point", "coordinates": [141.397751, 43.146748]}, "properties": {"action": "火災出動", "address": "北区篠路町拓北 付近", "time": "2018-11-30T16:46:00+09:00"}}, {"type": "Feature", "geometry": {"type": "Point", "coordinates": [141.258179, 43.100037]}, "properties": {"action": "火災出動", "address": "手稲区西宮の沢4条3丁目", "time": "2018-11-30T10:28:00+09:00"}}, {"type": "Feature", "geometry": {"type": "Point", "coordinates": [141.43306, 42.98814]}, "properties": {"action": "火災出動", "address": "清田区清田7条3丁目", "time": "2018-11-30T08:10:00+09:00"}}, {"type": "Feature", "geometry": {"type": "Point", "coordinates": [141.365463, 43.083508]}, "properties": {"action": "救助出動", "address": "東区北17条東9丁目", "time": "2018-11-30T19:34:00+09:00"}}, {"type": "Feature", "geometry": {"type": "Point", "coordinates": [141.347397, 43.03022]}, "properties": {"action": "警戒出動", "address": "中央区南22条西9丁目", "time": "2018-11-30T23:13:00+09:00"}}, {"type": "Feature", "geometry": {"type": "Point", "coordinates": [141.29805, 43.131783]}, "properties": {"action": "警戒出動", "address": "北区新琴似町 付近", "time": "2018-11-30T22:29:00+09:00"}}, {"type": "Feature", "geometry": {"type": "Point", "coordinates": [141.425323, 42.981323]}, "properties": {"action": "警戒出動", "address": "清田区清田10条3丁目", "time": "2018-11-30T19:59:00+09:00"}}, {"type": "Feature", "geometry": {"type": "Point", "coordinates": [141.347931, 43.085423]}, "properties": {"action": "警戒出動", "address": "北区北20条西2丁目", "time": "2018-11-30T18:05:00+09:00"}}, {"type": "Feature", "geometry": {"type": "Point", "coordinates": [141.277267, 43.076443]}, "properties": {"action": "警戒出動", "address": "西区西野3条5丁目", "time": "2018-11-30T11:49:00+09:00"}}, {"type": "Feature", "geometry": {"type": "Point", "coordinates": [141.344696, 43.0662]}, "properties": {"action": "警戒出動", "address": "中央区北5条西7丁目", "time": "2018-11-30T11:18:00+09:00"}}, {"type": "Feature", "geometry": {"type": "Point", "coordinates": [141.475143, 43.041767]}, "properties": {"action": "救急隊支援出動", "address": "厚別区厚別中央2条6丁目", "time": "2018-11-30T15:10:00+09:00"}}, {"type": "Feature", "geometry": {"type": "Point", "coordinates": [141.358276, 43.105953]}, "properties": {"action": "救急隊支援出動", "address": "東区北36条東8丁目", "time": "2018-11-30T14:28:00+09:00"}}, {"type": "Feature", "geometry": {"type": "Point", "coordinates": [141.325241, 43.143997]}, "properties": {"action": "救急隊支援出動", "address": "北区屯田9条9丁目", "time": "2018-11-30T13:51:00+09:00"}}, {"type": "Feature", "geometry": {"type": "Point", "coordinates": [141.378403, 42.993889]}, "properties": {"action": "救急隊支援出動", "address": "豊平区西岡4条13丁目", "time": "2018-11-30T13:45:00+09:00"}}, {"type": "Feature", "geometry": {"type": "Point", "coordinates": [141.329361, 43.126907]}, "properties": {"action": "救急隊支援出動", "address": "北区屯田3条6丁目", "time": "2018-11-30T11:51:00+09:00"}}, {"type": "Feature", "geometry": {"type": "Point", "coordinates": [141.470673, 43.042297]}, "properties": {"action": "航空隊支援出動", "address": "厚別区厚別中央3条5丁目", "time": "2018-11-30T15:12:00+09:00"}}, {"type": "Feature", "geometry": {"type": "Point", "coordinates": [141.333298, 43.140602]}, "properties": {"action": "航空隊支援出動", "address": "北区屯田8条6丁目", "time": "2018-11-30T13:53:00+09:00"}}, {"type": "Feature", "geometry": {"type": "Point", "coordinates": [141.380264, 42.996513]}, "properties": {"action": "航空隊支援出動", "address": "豊平区西岡4条12丁目", "time": "2018-11-30T13:48:00+09:00"}}]}