{"type": "FeatureCollection", "crs": {"type": "name", "properties": {"name": "urn:ogc:def:crs:OGC:1.3:CRS84"}}, "features": [{"type": "Feature", "geometry": {"type": "Point", "coordinates": [141.355118, 43.01757]}, "properties": {"action": "火災出動", "address": "豊平区中の島1条13丁目", "time": "2018-11-14T13:41:00+09:00"}}, {"type": "Feature", "geometry": {"type": "Point", "coordinates": [141.353714, 43.065384]}, "properties": {"action": "火災出動", "address": "中央区北3条西2丁目", "time": "2018-11-14T09:49:00+09:00"}}, {"type": "Feature", "geometry": {"type": "Point", "coordinates": [141.202988, 43.129433]}, "properties": {"action": "火災出動", "address": "手稲区金山1条3丁目", "time": "2018-11-14T04:02:00+09:00"}}, {"type": "Feature", "geometry": {"type": "Point", "coordinates": [141.328506, 43.042915]}, "properties": {"action": "救助出動", "address": "中央区南12条西20丁目", "time": "2018-11-14T20:28:00+09:00"}}, {"type": "Feature", "geometry": {"type": "Point", "coordinates": [141.298828, 43.06496]}, "properties": {"action": "救助出動", "address": "西区山の手1条7丁目", "time": "2018-11-14T17:54:00+09:00"}}, {"type": "Feature", "geometry": {"type": "Point", "coordinates": [141.400238, 43.040459]}, "properties": {"action": "救助出動", "address": "白石区栄通3丁目", "time": "2018-11-14T16:41:00+09:00"}}, {"type": "Feature", "geometry": {"type": "Point", "coordinates": [141.343491, 43.097267]}, "properties": {"action": "救助出動", "address": "北区北30条西3丁目", "time": "2018-11-14T16:08:00+09:00"}}, {"type": "Feature", "geometry": {"type": "Point", "coordinates": [141.330704, 43.052105]}, "properties": {"action": "救助出動", "address": "中央区南5条西17丁目", "time": "2018-11-14T03:13:00+09:00"}}, {"type": "Feature", "geometry": {"type": "Point", "coordinates": [141.353104, 43.05323]}, "properties": {"action": "警戒出動", "address": "中央区南6条西4丁目", "time": "2018-11-14T23:42:00+09:00"}}, {"type": "Feature", "geometry": {"type": "Point", "coordinates": [141.447113, 43.042992]}, "properties": {"action": "警戒出動", "address": "白石区流通ｾﾝﾀｰ3丁目", "time": "2018-11-14T21:14:00+09:00"}}, {"type": "Feature", "geometry": {"type": "Point", "coordinates": [141.272079, 43.12537]}, "properties": {"action": "警戒出動", "address": "手稲区新発寒7条9丁目", "time": "2018-11-14T18:54:00+09:00"}}, {"type": "Feature", "geometry": {"type": "Point", "coordinates": [141.367615, 43.074459]}, "properties": {"action": "警戒出動", "address": "東区北9条東9丁目", "time": "2018-11-14T18:49:00+09:00"}}, {"type": "Feature", "geometry": {"type": "Point", "coordinates": [141.366821, 43.028294]}, "properties": {"action": "警戒出動", "address": "豊平区平岸2条12丁目", "time": "2018-11-14T15:39:00+09:00"}}, {"type": "Feature", "geometry": {"type": "Point", "coordinates": [141.364502, 43.040775]}, "properties": {"action": "警戒出動", "address": "豊平区平岸1条2丁目", "time": "2018-11-14T09:57:00+09:00"}}, {"type": "Feature", "geometry": {"type": "Point", "coordinates": [141.308685, 43.063297]}, "properties": {"action": "警戒出動", "address": "中央区宮の森2条4丁目", "time": "2018-11-14T07:02:00+09:00"}}, {"type": "Feature", "geometry": {"type": "Point", "coordinates": [141.368073, 43.042068]}, "properties": {"action": "警戒出動", "address": "豊平区平岸2条1丁目", "time": "2018-11-14T01:23:00+09:00"}}, {"type": "Feature", "geometry": {"type": "Point", "coordinates": [141.338364, 42.979156]}, "properties": {"action": "救急隊支援出動", "address": "南区川沿13条1丁目", "time": "2018-11-14T12:57:00+09:00"}}, {"type": "Feature", "geometry": {"type": "Point", "coordinates": [141.248062, 43.113194]}, "properties": {"action": "救急隊支援出動", "address": "手稲区富丘2条6丁目", "time": "2018-11-14T10:54:00+09:00"}}, {"type": "Feature", "geometry": {"type": "Point", "coordinates": [141.361694, 43.098072]}, "properties": {"action": "救急隊支援出動", "address": "東区北28条東9丁目", "time": "2018-11-14T05:40:00+09:00"}}, {"type": "Feature", "geometry": {"type": "Point", "coordinates": [141.329575, 43.115177]}, "properties": {"action": "救急隊支援出動", "address": "北区新琴似8条5丁目", "time": "2018-11-14T03:51:00+09:00"}}]}