{"type": "FeatureCollection", "crs": {"type": "name", "properties": {"name": "urn:ogc:def:crs:OGC:1.3:CRS84"}}, "features": [{"type": "Feature", "geometry": {"type": "Point", "coordinates": [141.432571, 43.137402]}, "properties": {"action": "火災出動", "address": "東区中沼町 付近", "time": "2018-11-09T09:19:00+09:00"}}, {"type": "Feature", "geometry": {"type": "Point", "coordinates": [141.431656, 43.011425]}, "properties": {"action": "救助出動", "address": "清田区北野2条2丁目", "time": "2018-11-09T23:27:00+09:00"}}, {"type": "Feature", "geometry": {"type": "Point", "coordinates": [141.413986, 43.041321]}, "properties": {"action": "救助出動", "address": "白石区本郷通8丁目", "time": "2018-11-09T20:10:00+09:00"}}, {"type": "Feature", "geometry": {"type": "Point", "coordinates": [141.355469, 42.943344]}, "properties": {"action": "救助出動", "address": "南区真駒内 付近", "time": "2018-11-09T08:02:00+09:00"}}, {"type": "Feature", "geometry": {"type": "Point", "coordinates": [141.317612, 43.068119]}, "properties": {"action": "救助出動", "address": "中央区北9条西24丁目", "time": "2018-11-09T02:01:00+09:00"}}, {"type": "Feature", "geometry": {"type": "Point", "coordinates": [141.379456, 43.087429]}, "properties": {"action": "警戒出動", "address": "東区北19条東19丁目", "time": "2018-11-09T23:40:00+09:00"}}, {"type": "Feature", "geometry": {"type": "Point", "coordinates": [141.444519, 42.993549]}, "properties": {"action": "警戒出動", "address": "清田区真栄1条2丁目", "time": "2018-11-09T22:25:00+09:00"}}, {"type": "Feature", "geometry": {"type": "Point", "coordinates": [141.396942, 43.058022]}, "properties": {"action": "警戒出動", "address": "白石区中央2条3丁目", "time": "2018-11-09T20:08:00+09:00"}}, {"type": "Feature", "geometry": {"type": "Point", "coordinates": [141.437149, 43.023376]}, "properties": {"action": "警戒出動", "address": "清田区北野7条2丁目", "time": "2018-11-09T19:41:00+09:00"}}, {"type": "Feature", "geometry": {"type": "Point", "coordinates": [141.384521, 43.018932]}, "properties": {"action": "警戒出動", "address": "豊平区西岡2条3丁目", "time": "2018-11-09T18:27:00+09:00"}}, {"type": "Feature", "geometry": {"type": "Point", "coordinates": [141.472137, 43.033001]}, "properties": {"action": "警戒出動", "address": "厚別区青葉町1丁目", "time": "2018-11-09T12:47:00+09:00"}}, {"type": "Feature", "geometry": {"type": "Point", "coordinates": [141.395142, 43.04274]}, "properties": {"action": "警戒出動", "address": "白石区栄通1丁目", "time": "2018-11-09T08:57:00+09:00"}}, {"type": "Feature", "geometry": {"type": "Point", "coordinates": [141.462616, 42.99025]}, "properties": {"action": "警戒出動", "address": "清田区里塚2条2丁目", "time": "2018-11-09T06:10:00+09:00"}}, {"type": "Feature", "geometry": {"type": "Point", "coordinates": [141.368271, 43.023815]}, "properties": {"action": "警戒出動", "address": "豊平区平岸3条16丁目", "time": "2018-11-09T04:28:00+09:00"}}, {"type": "Feature", "geometry": {"type": "Point", "coordinates": [141.396942, 43.058022]}, "properties": {"action": "警戒出動", "address": "白石区中央2条3丁目", "time": "2018-11-09T03:57:00+09:00"}}, {"type": "Feature", "geometry": {"type": "Point", "coordinates": [141.328461, 43.098827]}, "properties": {"action": "警戒出動", "address": "北区北30条西13丁目", "time": "2018-11-09T02:53:00+09:00"}}, {"type": "Feature", "geometry": {"type": "Point", "coordinates": [141.310669, 43.059475]}, "properties": {"action": "ガス漏れ出動", "address": "中央区北3条西30丁目", "time": "2018-11-09T07:37:00+09:00"}}, {"type": "Feature", "geometry": {"type": "Point", "coordinates": [141.366547, 43.055038]}, "properties": {"action": "救急隊支援出動", "address": "豊平区豊平3条1丁目", "time": "2018-11-09T17:53:00+09:00"}}, {"type": "Feature", "geometry": {"type": "Point", "coordinates": [141.41832, 43.025238]}, "properties": {"action": "救急隊支援出動", "address": "豊平区月寒東3条15丁目", "time": "2018-11-09T12:39:00+09:00"}}, {"type": "Feature", "geometry": {"type": "Point", "coordinates": [141.346176, 43.092476]}, "properties": {"action": "救急隊支援出動", "address": "北区北25条西2丁目", "time": "2018-11-09T11:30:00+09:00"}}, {"type": "Feature", "geometry": {"type": "Point", "coordinates": [141.390808, 43.032417]}, "properties": {"action": "救急隊支援出動", "address": "豊平区月寒西2条5丁目", "time": "2018-11-09T01:15:00+09:00"}}]}