{"type": "FeatureCollection", "crs": {"type": "name", "properties": {"name": "urn:ogc:def:crs:OGC:1.3:CRS84"}}, "features": [{"type": "Feature", "geometry": {"type": "Point", "coordinates": [141.332504, 43.057884]}, "properties": {"action": "火災出動", "address": "中央区大通西16丁目", "time": "2018-11-28T01:56:00+09:00"}}, {"type": "Feature", "geometry": {"type": "Point", "coordinates": [141.284943, 43.112667]}, "properties": {"action": "救助出動", "address": "西区発寒16条14丁目", "time": "2018-11-28T10:57:00+09:00"}}, {"type": "Feature", "geometry": {"type": "Point", "coordinates": [141.406464, 43.041992]}, "properties": {"action": "救助出動", "address": "白石区南郷通5丁目", "time": "2018-11-28T09:22:00+09:00"}}, {"type": "Feature", "geometry": {"type": "Point", "coordinates": [141.371933, 43.064156]}, "properties": {"action": "水難救助出動", "address": "中央区大通東10丁目", "time": "2018-11-28T15:18:00+09:00"}}, {"type": "Feature", "geometry": {"type": "Point", "coordinates": [141.35672, 43.040581]}, "properties": {"action": "水難救助出動", "address": "中央区南15条西1丁目", "time": "2018-11-28T09:25:00+09:00"}}, {"type": "Feature", "geometry": {"type": "Point", "coordinates": [141.355362, 43.050835]}, "properties": {"action": "水難救助出動", "address": "中央区南8条西3丁目", "time": "2018-11-28T05:59:00+09:00"}}, {"type": "Feature", "geometry": {"type": "Point", "coordinates": [141.368942, 43.000587]}, "properties": {"action": "警戒出動", "address": "南区澄川5条10丁目", "time": "2018-11-28T21:42:00+09:00"}}, {"type": "Feature", "geometry": {"type": "Point", "coordinates": [141.373978, 43.02528]}, "properties": {"action": "警戒出動", "address": "豊平区平岸4条14丁目", "time": "2018-11-28T19:13:00+09:00"}}, {"type": "Feature", "geometry": {"type": "Point", "coordinates": [141.347656, 43.081188]}, "properties": {"action": "警戒出動", "address": "北区北17条西3丁目", "time": "2018-11-28T17:50:00+09:00"}}, {"type": "Feature", "geometry": {"type": "Point", "coordinates": [141.291931, 43.099049]}, "properties": {"action": "警戒出動", "address": "西区発寒13条4丁目", "time": "2018-11-28T13:55:00+09:00"}}, {"type": "Feature", "geometry": {"type": "Point", "coordinates": [141.325958, 43.065247]}, "properties": {"action": "警戒出動", "address": "中央区北6条西19丁目", "time": "2018-11-28T10:57:00+09:00"}}, {"type": "Feature", "geometry": {"type": "Point", "coordinates": [141.384521, 43.007511]}, "properties": {"action": "警戒出動", "address": "豊平区西岡3条8丁目", "time": "2018-11-28T10:01:00+09:00"}}, {"type": "Feature", "geometry": {"type": "Point", "coordinates": [141.391846, 43.04591]}, "properties": {"action": "警戒出動", "address": "白石区東札幌2条5丁目", "time": "2018-11-28T08:14:00+09:00"}}, {"type": "Feature", "geometry": {"type": "Point", "coordinates": [141.501007, 43.035732]}, "properties": {"action": "警戒出動", "address": "厚別区下野幌ﾃｸﾉﾊﾟｰｸ2丁目", "time": "2018-11-28T05:16:00+09:00"}}, {"type": "Feature", "geometry": {"type": "Point", "coordinates": [141.480606, 43.020187]}, "properties": {"action": "救急隊支援出動", "address": "厚別区厚別南7丁目", "time": "2018-11-28T12:35:00+09:00"}}]}