{"type": "FeatureCollection", "crs": {"type": "name", "properties": {"name": "urn:ogc:def:crs:OGC:1.3:CRS84"}}, "features": [{"type": "Feature", "geometry": {"type": "Point", "coordinates": [141.321518, 43.094917]}, "properties": {"action": "火災出動", "address": "北区新川2条1丁目", "time": "2018-11-07T12:07:00+09:00"}}, {"type": "Feature", "geometry": {"type": "Point", "coordinates": [141.357147, 42.993134]}, "properties": {"action": "救助出動", "address": "南区真駒内緑町4丁目", "time": "2018-11-07T11:43:00+09:00"}}, {"type": "Feature", "geometry": {"type": "Point", "coordinates": [141.386078, 43.092697]}, "properties": {"action": "救助出動", "address": "東区北23条東22丁目", "time": "2018-11-07T09:35:00+09:00"}}, {"type": "Feature", "geometry": {"type": "Point", "coordinates": [141.333252, 42.974232]}, "properties": {"action": "救助出動", "address": "南区川沿17条2丁目", "time": "2018-11-07T08:47:00+09:00"}}, {"type": "Feature", "geometry": {"type": "Point", "coordinates": [141.293961, 43.060795]}, "properties": {"action": "警戒出動", "address": "西区山の手1条12丁目", "time": "2018-11-07T13:36:00+09:00"}}, {"type": "Feature", "geometry": {"type": "Point", "coordinates": [141.328461, 43.098827]}, "properties": {"action": "警戒出動", "address": "北区北30条西13丁目", "time": "2018-11-07T07:02:00+09:00"}}, {"type": "Feature", "geometry": {"type": "Point", "coordinates": [141.346466, 43.103245]}, "properties": {"action": "警戒出動", "address": "東区北35条東1丁目", "time": "2018-11-07T03:26:00+09:00"}}, {"type": "Feature", "geometry": {"type": "Point", "coordinates": [141.292374, 43.096104]}, "properties": {"action": "救急隊支援出動", "address": "西区発寒12条4丁目", "time": "2018-11-07T20:25:00+09:00"}}, {"type": "Feature", "geometry": {"type": "Point", "coordinates": [141.350342, 43.063671]}, "properties": {"action": "救急隊支援出動", "address": "中央区北2条西4丁目", "time": "2018-11-07T19:36:00+09:00"}}, {"type": "Feature", "geometry": {"type": "Point", "coordinates": [141.219574, 43.139454]}, "properties": {"action": "救急隊支援出動", "address": "手稲区星置3条1丁目", "time": "2018-11-07T19:09:00+09:00"}}, {"type": "Feature", "geometry": {"type": "Point", "coordinates": [141.276993, 43.084316]}, "properties": {"action": "救急隊支援出動", "address": "西区西町南18丁目", "time": "2018-11-07T19:06:00+09:00"}}, {"type": "Feature", "geometry": {"type": "Point", "coordinates": [141.310883, 43.118439]}, "properties": {"action": "救急隊支援出動", "address": "北区新琴似5条13丁目", "time": "2018-11-07T17:35:00+09:00"}}, {"type": "Feature", "geometry": {"type": "Point", "coordinates": [141.238861, 43.145142]}, "properties": {"action": "救急隊支援出動", "address": "手稲区曙10条1丁目", "time": "2018-11-07T15:52:00+09:00"}}, {"type": "Feature", "geometry": {"type": "Point", "coordinates": [141.230026, 43.143391]}, "properties": {"action": "救急隊支援出動", "address": "手稲区明日風5丁目", "time": "2018-11-07T14:09:00+09:00"}}, {"type": "Feature", "geometry": {"type": "Point", "coordinates": [141.3517, 43.058826]}, "properties": {"action": "救急隊支援出動", "address": "中央区南1条西4丁目", "time": "2018-11-07T10:50:00+09:00"}}, {"type": "Feature", "geometry": {"type": "Point", "coordinates": [141.329514, 43.004574]}, "properties": {"action": "救急隊支援出動", "address": "南区北ノ沢 付近", "time": "2018-11-07T08:36:00+09:00"}}, {"type": "Feature", "geometry": {"type": "Point", "coordinates": [141.239136, 43.147003]}, "properties": {"action": "航空隊支援出動", "address": "手稲区曙11条1丁目", "time": "2018-11-07T14:12:00+09:00"}}]}