{"type": "FeatureCollection", "crs": {"type": "name", "properties": {"name": "urn:ogc:def:crs:OGC:1.3:CRS84"}}, "features": [{"type": "Feature", "geometry": {"type": "Point", "coordinates": [141.298828, 43.06496]}, "properties": {"action": "車両火災出動", "address": "西区山の手1条7丁目", "time": "2018-11-06T18:07:00+09:00"}}, {"type": "Feature", "geometry": {"type": "Point", "coordinates": [141.328461, 43.098827]}, "properties": {"action": "警戒出動", "address": "北区北30条西13丁目", "time": "2018-11-06T22:19:00+09:00"}}, {"type": "Feature", "geometry": {"type": "Point", "coordinates": [141.31987, 42.985996]}, "properties": {"action": "警戒出動", "address": "南区南沢3条2丁目", "time": "2018-11-06T20:36:00+09:00"}}, {"type": "Feature", "geometry": {"type": "Point", "coordinates": [141.453873, 43.0868]}, "properties": {"action": "警戒出動", "address": "白石区東米里　 付近", "time": "2018-11-06T13:20:00+09:00"}}, {"type": "Feature", "geometry": {"type": "Point", "coordinates": [141.412216, 43.042377]}, "properties": {"action": "警戒出動", "address": "白石区本郷通7丁目", "time": "2018-11-06T07:48:00+09:00"}}, {"type": "Feature", "geometry": {"type": "Point", "coordinates": [141.274063, 43.081257]}, "properties": {"action": "警戒出動", "address": "西区西野2条8丁目", "time": "2018-11-06T05:07:00+09:00"}}, {"type": "Feature", "geometry": {"type": "Point", "coordinates": [141.314362, 43.069271]}, "properties": {"action": "警戒出動", "address": "西区二十四軒1条5丁目", "time": "2018-11-06T04:19:00+09:00"}}, {"type": "Feature", "geometry": {"type": "Point", "coordinates": [141.444519, 42.993549]}, "properties": {"action": "ガス漏れ出動", "address": "清田区真栄1条2丁目", "time": "2018-11-06T19:02:00+09:00"}}, {"type": "Feature", "geometry": {"type": "Point", "coordinates": [141.414398, 43.165569]}, "properties": {"action": "救急隊支援出動", "address": "北区あいの里3条9丁目", "time": "2018-11-06T21:00:00+09:00"}}, {"type": "Feature", "geometry": {"type": "Point", "coordinates": [141.248367, 43.056759]}, "properties": {"action": "救急隊支援出動", "address": "西区平和2条9丁目", "time": "2018-11-06T17:39:00+09:00"}}, {"type": "Feature", "geometry": {"type": "Point", "coordinates": [141.410492, 43.051991]}, "properties": {"action": "救急隊支援出動", "address": "白石区平和通3丁目", "time": "2018-11-06T16:45:00+09:00"}}, {"type": "Feature", "geometry": {"type": "Point", "coordinates": [141.410812, 43.071934]}, "properties": {"action": "救急隊支援出動", "address": "白石区菊水元町7条2丁目", "time": "2018-11-06T16:30:00+09:00"}}, {"type": "Feature", "geometry": {"type": "Point", "coordinates": [141.276642, 43.073036]}, "properties": {"action": "救急隊支援出動", "address": "西区西野4条4丁目", "time": "2018-11-06T12:01:00+09:00"}}, {"type": "Feature", "geometry": {"type": "Point", "coordinates": [141.345093, 43.111965]}, "properties": {"action": "救急隊支援出動", "address": "東区北43条東1丁目", "time": "2018-11-06T10:56:00+09:00"}}, {"type": "Feature", "geometry": {"type": "Point", "coordinates": [141.472229, 43.039192]}, "properties": {"action": "救急隊支援出動", "address": "厚別区厚別中央2条5丁目", "time": "2018-11-06T10:53:00+09:00"}}, {"type": "Feature", "geometry": {"type": "Point", "coordinates": [141.42807, 43.032047]}, "properties": {"action": "救急隊支援出動", "address": "白石区南郷通16丁目", "time": "2018-11-06T08:39:00+09:00"}}, {"type": "Feature", "geometry": {"type": "Point", "coordinates": [141.384491, 43.154427]}, "properties": {"action": "救急隊支援出動", "address": "北区拓北5条4丁目", "time": "2018-11-06T06:35:00+09:00"}}, {"type": "Feature", "geometry": {"type": "Point", "coordinates": [141.360062, 43.09174]}, "properties": {"action": "救急隊支援出動", "address": "東区北23条東7丁目", "time": "2018-11-06T01:24:00+09:00"}}, {"type": "Feature", "geometry": {"type": "Point", "coordinates": [141.425125, 43.033173]}, "properties": {"action": "航空隊支援出動", "address": "白石区南郷通15丁目", "time": "2018-11-06T08:47:00+09:00"}}]}