{"type": "FeatureCollection", "crs": {"type": "name", "properties": {"name": "urn:ogc:def:crs:OGC:1.3:CRS84"}}, "features": [{"type": "Feature", "geometry": {"type": "Point", "coordinates": [141.342712, 43.082024]}, "properties": {"action": "火災出動", "address": "北区北18条西6丁目", "time": "2018-11-01T19:36:00+09:00"}}, {"type": "Feature", "geometry": {"type": "Point", "coordinates": [141.438354, 42.988152]}, "properties": {"action": "火災出動", "address": "清田区真栄4条1丁目", "time": "2018-11-01T07:18:00+09:00"}}, {"type": "Feature", "geometry": {"type": "Point", "coordinates": [141.32724, 43.090858]}, "properties": {"action": "救助出動", "address": "北区北25条西14丁目", "time": "2018-11-01T20:46:00+09:00"}}, {"type": "Feature", "geometry": {"type": "Point", "coordinates": [141.364182, 43.113323]}, "properties": {"action": "救助出動", "address": "東区北42条東14丁目", "time": "2018-11-01T19:54:00+09:00"}}, {"type": "Feature", "geometry": {"type": "Point", "coordinates": [141.449112, 43.001698]}, "properties": {"action": "救助出動", "address": "清田区平岡3条2丁目", "time": "2018-11-01T15:23:00+09:00"}}, {"type": "Feature", "geometry": {"type": "Point", "coordinates": [141.340378, 43.090538]}, "properties": {"action": "救助出動", "address": "北区北24条西6丁目", "time": "2018-11-01T09:45:00+09:00"}}, {"type": "Feature", "geometry": {"type": "Point", "coordinates": [141.399963, 43.117615]}, "properties": {"action": "救助出動", "address": "東区丘珠町 付近", "time": "2018-11-01T08:16:00+09:00"}}, {"type": "Feature", "geometry": {"type": "Point", "coordinates": [141.368256, 43.091187]}, "properties": {"action": "救助出動", "address": "東区北22条東13丁目", "time": "2018-11-01T07:09:00+09:00"}}, {"type": "Feature", "geometry": {"type": "Point", "coordinates": [141.416473, 43.039856]}, "properties": {"action": "警戒出動", "address": "白石区本郷通9丁目", "time": "2018-11-01T22:08:00+09:00"}}, {"type": "Feature", "geometry": {"type": "Point", "coordinates": [141.43924, 43.028267]}, "properties": {"action": "警戒出動", "address": "白石区南郷通20丁目", "time": "2018-11-01T20:48:00+09:00"}}, {"type": "Feature", "geometry": {"type": "Point", "coordinates": [141.25264, 43.053623]}, "properties": {"action": "警戒出動", "address": "西区平和3条7丁目", "time": "2018-11-01T14:06:00+09:00"}}, {"type": "Feature", "geometry": {"type": "Point", "coordinates": [141.346481, 43.079758]}, "properties": {"action": "警戒出動", "address": "北区北16条西4丁目", "time": "2018-11-01T12:33:00+09:00"}}, {"type": "Feature", "geometry": {"type": "Point", "coordinates": [141.294083, 43.075233]}, "properties": {"action": "警戒出動", "address": "西区山の手6条1丁目", "time": "2018-11-01T10:41:00+09:00"}}, {"type": "Feature", "geometry": {"type": "Point", "coordinates": [141.383926, 43.081192]}, "properties": {"action": "警戒出動", "address": "東区本町2条2丁目", "time": "2018-11-01T05:01:00+09:00"}}, {"type": "Feature", "geometry": {"type": "Point", "coordinates": [141.360901, 43.08865]}, "properties": {"action": "警戒出動", "address": "東区北21条東7丁目", "time": "2018-11-01T02:13:00+09:00"}}, {"type": "Feature", "geometry": {"type": "Point", "coordinates": [141.367996, 43.098789]}, "properties": {"action": "救急隊支援出動", "address": "東区北28条東14丁目", "time": "2018-11-01T21:40:00+09:00"}}, {"type": "Feature", "geometry": {"type": "Point", "coordinates": [141.468521, 43.030453]}, "properties": {"action": "救急隊支援出動", "address": "厚別区厚別南2丁目", "time": "2018-11-01T18:19:00+09:00"}}, {"type": "Feature", "geometry": {"type": "Point", "coordinates": [141.460892, 43.033939]}, "properties": {"action": "救急隊支援出動", "address": "厚別区厚別中央2条2丁目", "time": "2018-11-01T15:13:00+09:00"}}, {"type": "Feature", "geometry": {"type": "Point", "coordinates": [141.305191, 43.082226]}, "properties": {"action": "救急隊支援出動", "address": "西区琴似3条1丁目", "time": "2018-11-01T12:54:00+09:00"}}, {"type": "Feature", "geometry": {"type": "Point", "coordinates": [141.440125, 42.994781]}, "properties": {"action": "救急隊支援出動", "address": "清田区真栄2条1丁目", "time": "2018-11-01T12:49:00+09:00"}}, {"type": "Feature", "geometry": {"type": "Point", "coordinates": [141.308472, 43.079727]}, "properties": {"action": "救急隊支援出動", "address": "西区琴似1条1丁目", "time": "2018-11-01T12:35:00+09:00"}}, {"type": "Feature", "geometry": {"type": "Point", "coordinates": [141.379913, 43.080219]}, "properties": {"action": "救急隊支援出動", "address": "東区本町1条1丁目", "time": "2018-11-01T11:04:00+09:00"}}, {"type": "Feature", "geometry": {"type": "Point", "coordinates": [141.329483, 42.949112]}, "properties": {"action": "救急隊支援出動", "address": "南区石山　 付近", "time": "2018-11-01T08:41:00+09:00"}}, {"type": "Feature", "geometry": {"type": "Point", "coordinates": [141.261917, 43.107273]}, "properties": {"action": "救急隊支援出動", "address": "手稲区西宮の沢1条4丁目", "time": "2018-11-01T08:17:00+09:00"}}, {"type": "Feature", "geometry": {"type": "Point", "coordinates": [141.4608, 43.028278]}, "properties": {"action": "航空隊支援出動", "address": "厚別区大谷地東7丁目", "time": "2018-11-01T15:17:00+09:00"}}, {"type": "Feature", "geometry": {"type": "Point", "coordinates": [141.433563, 42.999126]}, "properties": {"action": "航空隊支援出動", "address": "清田区清田3条3丁目", "time": "2018-11-01T12:53:00+09:00"}}]}