{"type": "FeatureCollection", "crs": {"type": "name", "properties": {"name": "urn:ogc:def:crs:OGC:1.3:CRS84"}}, "features": [{"type": "Feature", "geometry": {"type": "Point", "coordinates": [141.446243, 42.987785]}, "properties": {"action": "火災出動", "address": "清田区美しが丘3条1丁目", "time": "2018-11-22T21:24:00+09:00"}}, {"type": "Feature", "geometry": {"type": "Point", "coordinates": [141.370819, 43.101475]}, "properties": {"action": "火災出動", "address": "東区北31条東16丁目", "time": "2018-11-22T12:49:00+09:00"}}, {"type": "Feature", "geometry": {"type": "Point", "coordinates": [141.445663, 43.025959]}, "properties": {"action": "車両火災出動", "address": "厚別区大谷地西1丁目", "time": "2018-11-22T21:41:00+09:00"}}, {"type": "Feature", "geometry": {"type": "Point", "coordinates": [141.232971, 43.127216]}, "properties": {"action": "車両火災出動", "address": "手稲区曙2条3丁目", "time": "2018-11-22T19:26:00+09:00"}}, {"type": "Feature", "geometry": {"type": "Point", "coordinates": [141.407547, 43.066101]}, "properties": {"action": "救助出動", "address": "白石区北郷4条1丁目", "time": "2018-11-22T18:41:00+09:00"}}, {"type": "Feature", "geometry": {"type": "Point", "coordinates": [141.221146, 43.143658]}, "properties": {"action": "救助出動", "address": "手稲区手稲山口 付近", "time": "2018-11-22T16:54:00+09:00"}}, {"type": "Feature", "geometry": {"type": "Point", "coordinates": [141.400681, 43.058926]}, "properties": {"action": "救助出動", "address": "白石区中央3条4丁目", "time": "2018-11-22T10:13:00+09:00"}}, {"type": "Feature", "geometry": {"type": "Point", "coordinates": [141.374146, 43.045109]}, "properties": {"action": "救助出動", "address": "豊平区豊平6条10丁目", "time": "2018-11-22T00:16:00+09:00"}}, {"type": "Feature", "geometry": {"type": "Point", "coordinates": [141.475143, 43.041767]}, "properties": {"action": "警戒出動", "address": "厚別区厚別中央2条6丁目", "time": "2018-11-22T18:16:00+09:00"}}, {"type": "Feature", "geometry": {"type": "Point", "coordinates": [141.382187, 43.023869]}, "properties": {"action": "警戒出動", "address": "豊平区平岸7条14丁目", "time": "2018-11-22T13:01:00+09:00"}}, {"type": "Feature", "geometry": {"type": "Point", "coordinates": [141.359543, 43.05455]}, "properties": {"action": "警戒出動", "address": "中央区南6条東1丁目", "time": "2018-11-22T05:55:00+09:00"}}, {"type": "Feature", "geometry": {"type": "Point", "coordinates": [141.375122, 43.058422]}, "properties": {"action": "警戒出動", "address": "白石区菊水4条2丁目", "time": "2018-11-22T04:07:00+09:00"}}, {"type": "Feature", "geometry": {"type": "Point", "coordinates": [141.401627, 43.042805]}, "properties": {"action": "警戒出動", "address": "白石区南郷通3丁目", "time": "2018-11-22T00:55:00+09:00"}}, {"type": "Feature", "geometry": {"type": "Point", "coordinates": [141.401627, 43.042805]}, "properties": {"action": "警戒出動", "address": "白石区南郷通3丁目", "time": "2018-11-22T00:26:00+09:00"}}, {"type": "Feature", "geometry": {"type": "Point", "coordinates": [141.349091, 43.137482]}, "properties": {"action": "救急隊支援出動", "address": "北区太平10条1丁目", "time": "2018-11-22T15:16:00+09:00"}}, {"type": "Feature", "geometry": {"type": "Point", "coordinates": [141.351013, 43.08596]}, "properties": {"action": "救急隊支援出動", "address": "東区北20条東1丁目", "time": "2018-11-22T07:26:00+09:00"}}]}