{"type": "FeatureCollection", "crs": {"type": "name", "properties": {"name": "urn:ogc:def:crs:OGC:1.3:CRS84"}}, "features": [{"type": "Feature", "geometry": {"type": "Point", "coordinates": [141.290024, 43.084583]}, "properties": {"action": "火災出動", "address": "西区発寒4条5丁目", "time": "2018-08-01T23:36:00+09:00"}}, {"type": "Feature", "geometry": {"type": "Point", "coordinates": [141.355469, 42.943344]}, "properties": {"action": "火災出動", "address": "南区真駒内 付近", "time": "2018-08-01T16:39:00+09:00"}}, {"type": "Feature", "geometry": {"type": "Point", "coordinates": [141.365753, 43.082405]}, "properties": {"action": "車両火災出動", "address": "東区北16条東9丁目", "time": "2018-08-01T12:58:00+09:00"}}, {"type": "Feature", "geometry": {"type": "Point", "coordinates": [141.348083, 43.041416]}, "properties": {"action": "救助出動", "address": "中央区南14条西8丁目", "time": "2018-08-01T14:09:00+09:00"}}, {"type": "Feature", "geometry": {"type": "Point", "coordinates": [141.309265, 43.066669]}, "properties": {"action": "救助出動", "address": "中央区宮の森3条1丁目", "time": "2018-08-01T12:29:00+09:00"}}, {"type": "Feature", "geometry": {"type": "Point", "coordinates": [141.306976, 43.097809]}, "properties": {"action": "救助出動", "address": "西区八軒9条西9丁目", "time": "2018-08-01T08:24:00+09:00"}}, {"type": "Feature", "geometry": {"type": "Point", "coordinates": [141.374466, 43.033279]}, "properties": {"action": "救助出動", "address": "豊平区平岸4条8丁目", "time": "2018-08-01T03:16:00+09:00"}}, {"type": "Feature", "geometry": {"type": "Point", "coordinates": [141.279602, 43.077995]}, "properties": {"action": "警戒出動", "address": "西区西野2条5丁目", "time": "2018-08-01T20:30:00+09:00"}}, {"type": "Feature", "geometry": {"type": "Point", "coordinates": [141.355377, 43.078728]}, "properties": {"action": "警戒出動", "address": "東区北14条東2丁目", "time": "2018-08-01T18:51:00+09:00"}}, {"type": "Feature", "geometry": {"type": "Point", "coordinates": [141.420166, 43.06736]}, "properties": {"action": "警戒出動", "address": "白石区北郷8条3丁目", "time": "2018-08-01T16:33:00+09:00"}}, {"type": "Feature", "geometry": {"type": "Point", "coordinates": [141.360687, 43.060688]}, "properties": {"action": "警戒出動", "address": "中央区南1条東3丁目", "time": "2018-08-01T16:20:00+09:00"}}, {"type": "Feature", "geometry": {"type": "Point", "coordinates": [141.23674, 43.119671]}, "properties": {"action": "警戒出動", "address": "手稲区手稲本町3条4丁目", "time": "2018-08-01T14:07:00+09:00"}}, {"type": "Feature", "geometry": {"type": "Point", "coordinates": [141.216476, 43.125942]}, "properties": {"action": "警戒出動", "address": "手稲区稲穂3条6丁目", "time": "2018-08-01T13:58:00+09:00"}}, {"type": "Feature", "geometry": {"type": "Point", "coordinates": [141.483902, 43.040562]}, "properties": {"action": "警戒出動", "address": "厚別区厚別東1条2丁目", "time": "2018-08-01T11:54:00+09:00"}}, {"type": "Feature", "geometry": {"type": "Point", "coordinates": [141.35817, 43.059116]}, "properties": {"action": "警戒出動", "address": "中央区南2条東1丁目", "time": "2018-08-01T02:02:00+09:00"}}, {"type": "Feature", "geometry": {"type": "Point", "coordinates": [141.34726, 43.082592]}, "properties": {"action": "警戒出動", "address": "北区北18条西3丁目", "time": "2018-08-01T00:23:00+09:00"}}, {"type": "Feature", "geometry": {"type": "Point", "coordinates": [141.319321, 43.107857]}, "properties": {"action": "救急隊支援出動", "address": "北区新琴似2条6丁目", "time": "2018-08-01T19:37:00+09:00"}}, {"type": "Feature", "geometry": {"type": "Point", "coordinates": [141.397598, 43.09079]}, "properties": {"action": "救急隊支援出動", "address": "東区伏古8条4丁目", "time": "2018-08-01T19:32:00+09:00"}}, {"type": "Feature", "geometry": {"type": "Point", "coordinates": [141.39386, 43.169704]}, "properties": {"action": "救急隊支援出動", "address": "北区あいの里5条3丁目", "time": "2018-08-01T15:22:00+09:00"}}]}