{"type": "FeatureCollection", "crs": {"type": "name", "properties": {"name": "urn:ogc:def:crs:OGC:1.3:CRS84"}}, "features": [{"type": "Feature", "geometry": {"type": "Point", "coordinates": [141.344299, 42.969887]}, "properties": {"action": "救助出動", "address": "南区石山東2丁目", "time": "2018-08-28T10:19:00+09:00"}}, {"type": "Feature", "geometry": {"type": "Point", "coordinates": [141.364975, 43.115826]}, "properties": {"action": "救助出動", "address": "東区北44条東15丁目", "time": "2018-08-28T09:06:00+09:00"}}, {"type": "Feature", "geometry": {"type": "Point", "coordinates": [141.24617, 43.116768]}, "properties": {"action": "救助出動", "address": "手稲区手稲本町1条1丁目", "time": "2018-08-28T02:22:00+09:00"}}, {"type": "Feature", "geometry": {"type": "Point", "coordinates": [141.366791, 43.071079]}, "properties": {"action": "警戒出動", "address": "東区北6条東8丁目", "time": "2018-08-28T23:52:00+09:00"}}, {"type": "Feature", "geometry": {"type": "Point", "coordinates": [141.333344, 42.991035]}, "properties": {"action": "警戒出動", "address": "南区川沿6条2丁目", "time": "2018-08-28T22:23:00+09:00"}}, {"type": "Feature", "geometry": {"type": "Point", "coordinates": [141.273148, 43.058388]}, "properties": {"action": "警戒出動", "address": "西区福井1丁目", "time": "2018-08-28T21:18:00+09:00"}}, {"type": "Feature", "geometry": {"type": "Point", "coordinates": [141.379639, 43.027763]}, "properties": {"action": "警戒出動", "address": "豊平区平岸6条12丁目", "time": "2018-08-28T19:55:00+09:00"}}, {"type": "Feature", "geometry": {"type": "Point", "coordinates": [141.441833, 43.024548]}, "properties": {"action": "警戒出動", "address": "白石区栄通21丁目", "time": "2018-08-28T18:08:00+09:00"}}, {"type": "Feature", "geometry": {"type": "Point", "coordinates": [141.5009, 43.028248]}, "properties": {"action": "警戒出動", "address": "厚別区もみじ台東6丁目", "time": "2018-08-28T17:44:00+09:00"}}, {"type": "Feature", "geometry": {"type": "Point", "coordinates": [141.285751, 43.074268]}, "properties": {"action": "警戒出動", "address": "西区西野2条1丁目", "time": "2018-08-28T02:38:00+09:00"}}, {"type": "Feature", "geometry": {"type": "Point", "coordinates": [141.339661, 43.051979]}, "properties": {"action": "ガス漏れ出動", "address": "中央区南6条西12丁目", "time": "2018-08-28T20:46:00+09:00"}}, {"type": "Feature", "geometry": {"type": "Point", "coordinates": [141.382355, 43.049988]}, "properties": {"action": "救急隊支援出動", "address": "白石区東札幌1条2丁目", "time": "2018-08-28T17:19:00+09:00"}}, {"type": "Feature", "geometry": {"type": "Point", "coordinates": [141.260605, 43.118385]}, "properties": {"action": "救急隊支援出動", "address": "手稲区前田4条6丁目", "time": "2018-08-28T07:36:00+09:00"}}, {"type": "Feature", "geometry": {"type": "Point", "coordinates": [141.33371, 42.985878]}, "properties": {"action": "救急隊支援出動", "address": "南区川沿9条2丁目", "time": "2018-08-28T02:11:00+09:00"}}, {"type": "Feature", "geometry": {"type": "Point", "coordinates": [141.479034, 43.039322]}, "properties": {"action": "救急隊支援出動", "address": "厚別区厚別中央1条7丁目", "time": "2018-08-28T01:11:00+09:00"}}]}