{"type": "FeatureCollection", "crs": {"type": "name", "properties": {"name": "urn:ogc:def:crs:OGC:1.3:CRS84"}}, "features": [{"type": "Feature", "geometry": {"type": "Point", "coordinates": [141.225143, 43.119614]}, "properties": {"action": "火災出動", "address": "手稲区稲穂4条3丁目", "time": "2018-08-26T02:22:00+09:00"}}, {"type": "Feature", "geometry": {"type": "Point", "coordinates": [141.281342, 43.07024]}, "properties": {"action": "救助出動", "address": "西区西野4条1丁目", "time": "2018-08-26T23:48:00+09:00"}}, {"type": "Feature", "geometry": {"type": "Point", "coordinates": [141.349136, 43.047939]}, "properties": {"action": "救助出動", "address": "中央区南9条西7丁目", "time": "2018-08-26T00:27:00+09:00"}}, {"type": "Feature", "geometry": {"type": "Point", "coordinates": [141.225006, 43.045628]}, "properties": {"action": "水難救助出動", "address": "西区平和 付近", "time": "2018-08-26T10:25:00+09:00"}}, {"type": "Feature", "geometry": {"type": "Point", "coordinates": [141.394379, 43.048382]}, "properties": {"action": "警戒出動", "address": "白石区東札幌4条5丁目", "time": "2018-08-26T23:59:00+09:00"}}, {"type": "Feature", "geometry": {"type": "Point", "coordinates": [141.347672, 43.068119]}, "properties": {"action": "警戒出動", "address": "北区北6条西5丁目", "time": "2018-08-26T21:35:00+09:00"}}, {"type": "Feature", "geometry": {"type": "Point", "coordinates": [141.417877, 43.043697]}, "properties": {"action": "警戒出動", "address": "白石区本通8丁目", "time": "2018-08-26T20:01:00+09:00"}}, {"type": "Feature", "geometry": {"type": "Point", "coordinates": [141.345749, 43.082226]}, "properties": {"action": "警戒出動", "address": "北区北18条西4丁目", "time": "2018-08-26T18:47:00+09:00"}}, {"type": "Feature", "geometry": {"type": "Point", "coordinates": [141.418121, 43.039295]}, "properties": {"action": "警戒出動", "address": "白石区本郷通10丁目", "time": "2018-08-26T17:13:00+09:00"}}, {"type": "Feature", "geometry": {"type": "Point", "coordinates": [141.360382, 43.084366]}, "properties": {"action": "警戒出動", "address": "東区北18条東6丁目", "time": "2018-08-26T08:09:00+09:00"}}, {"type": "Feature", "geometry": {"type": "Point", "coordinates": [141.319061, 43.109974]}, "properties": {"action": "警戒出動", "address": "北区新琴似3条7丁目", "time": "2018-08-26T07:56:00+09:00"}}, {"type": "Feature", "geometry": {"type": "Point", "coordinates": [141.340775, 43.10894]}, "properties": {"action": "警戒出動", "address": "北区麻生町2丁目", "time": "2018-08-26T03:21:00+09:00"}}, {"type": "Feature", "geometry": {"type": "Point", "coordinates": [141.340927, 43.101227]}, "properties": {"action": "ガス漏れ出動", "address": "北区北34条西4丁目", "time": "2018-08-26T23:25:00+09:00"}}, {"type": "Feature", "geometry": {"type": "Point", "coordinates": [141.380859, 43.090675]}, "properties": {"action": "救急隊支援出動", "address": "東区北21条東20丁目", "time": "2018-08-26T20:58:00+09:00"}}, {"type": "Feature", "geometry": {"type": "Point", "coordinates": [141.324783, 43.102715]}, "properties": {"action": "救急隊支援出動", "address": "北区新琴似1条2丁目", "time": "2018-08-26T18:53:00+09:00"}}, {"type": "Feature", "geometry": {"type": "Point", "coordinates": [141.494507, 43.031677]}, "properties": {"action": "救急隊支援出動", "address": "厚別区もみじ台東1丁目", "time": "2018-08-26T18:32:00+09:00"}}, {"type": "Feature", "geometry": {"type": "Point", "coordinates": [141.420288, 43.058468]}, "properties": {"action": "救急隊支援出動", "address": "白石区北郷4条5丁目", "time": "2018-08-26T18:20:00+09:00"}}, {"type": "Feature", "geometry": {"type": "Point", "coordinates": [141.334106, 43.13467]}, "properties": {"action": "救急隊支援出動", "address": "北区屯田6条5丁目", "time": "2018-08-26T14:28:00+09:00"}}, {"type": "Feature", "geometry": {"type": "Point", "coordinates": [141.237427, 43.127644]}, "properties": {"action": "救急隊支援出動", "address": "手稲区曙2条2丁目", "time": "2018-08-26T09:17:00+09:00"}}]}