{"type": "FeatureCollection", "crs": {"type": "name", "properties": {"name": "urn:ogc:def:crs:OGC:1.3:CRS84"}}, "features": [{"type": "Feature", "geometry": {"type": "Point", "coordinates": [141.338058, 43.088593]}, "properties": {"action": "救助出動", "address": "北区北23条西8丁目", "time": "2018-08-04T13:51:00+09:00"}}, {"type": "Feature", "geometry": {"type": "Point", "coordinates": [141.321396, 43.088566]}, "properties": {"action": "救助出動", "address": "西区八軒9条東2丁目", "time": "2018-08-04T06:50:00+09:00"}}, {"type": "Feature", "geometry": {"type": "Point", "coordinates": [141.300079, 43.083523]}, "properties": {"action": "水難救助出動", "address": "西区発寒3条1丁目", "time": "2018-08-04T18:47:00+09:00"}}, {"type": "Feature", "geometry": {"type": "Point", "coordinates": [141.342911, 43.050755]}, "properties": {"action": "警戒出動", "address": "中央区南7条西10丁目", "time": "2018-08-04T18:10:00+09:00"}}, {"type": "Feature", "geometry": {"type": "Point", "coordinates": [141.372009, 43.060333]}, "properties": {"action": "警戒出動", "address": "白石区菊水4条1丁目", "time": "2018-08-04T13:50:00+09:00"}}, {"type": "Feature", "geometry": {"type": "Point", "coordinates": [141.22113, 43.12616]}, "properties": {"action": "警戒出動", "address": "手稲区稲穂2条5丁目", "time": "2018-08-04T12:20:00+09:00"}}, {"type": "Feature", "geometry": {"type": "Point", "coordinates": [141.347839, 43.042713]}, "properties": {"action": "ガス漏れ出動", "address": "中央区南13条西8丁目", "time": "2018-08-04T10:24:00+09:00"}}, {"type": "Feature", "geometry": {"type": "Point", "coordinates": [141.43576, 43.008381]}, "properties": {"action": "救急隊支援出動", "address": "清田区北野2条3丁目", "time": "2018-08-04T17:55:00+09:00"}}, {"type": "Feature", "geometry": {"type": "Point", "coordinates": [141.476685, 43.033802]}, "properties": {"action": "救急隊支援出動", "address": "厚別区青葉町3丁目", "time": "2018-08-04T16:59:00+09:00"}}, {"type": "Feature", "geometry": {"type": "Point", "coordinates": [141.465439, 42.97953]}, "properties": {"action": "救急隊支援出動", "address": "清田区美しが丘1条8丁目", "time": "2018-08-04T16:11:00+09:00"}}, {"type": "Feature", "geometry": {"type": "Point", "coordinates": [141.357773, 43.049603]}, "properties": {"action": "救急隊支援出動", "address": "中央区南9条西1丁目", "time": "2018-08-04T12:40:00+09:00"}}, {"type": "Feature", "geometry": {"type": "Point", "coordinates": [141.368958, 43.054848]}, "properties": {"action": "救急隊支援出動", "address": "豊平区豊平2条2丁目", "time": "2018-08-04T12:16:00+09:00"}}, {"type": "Feature", "geometry": {"type": "Point", "coordinates": [141.364883, 43.071568]}, "properties": {"action": "救急隊支援出動", "address": "東区北7条東7丁目", "time": "2018-08-04T00:15:00+09:00"}}, {"type": "Feature", "geometry": {"type": "Point", "coordinates": [141.461594, 42.97887]}, "properties": {"action": "航空隊支援出動", "address": "清田区美しが丘2条7丁目", "time": "2018-08-04T15:54:00+09:00"}}]}