{"type": "FeatureCollection", "crs": {"type": "name", "properties": {"name": "urn:ogc:def:crs:OGC:1.3:CRS84"}}, "features": [{"type": "Feature", "geometry": {"type": "Point", "coordinates": [141.314362, 43.069271]}, "properties": {"action": "火災出動", "address": "西区二十四軒1条5丁目", "time": "2019-02-22T06:06:00+09:00"}}, {"type": "Feature", "geometry": {"type": "Point", "coordinates": [141.403549, 43.103703]}, "properties": {"action": "救助出動", "address": "東区伏古14条3丁目", "time": "2019-02-22T20:53:00+09:00"}}, {"type": "Feature", "geometry": {"type": "Point", "coordinates": [141.285355, 42.958939]}, "properties": {"action": "救助出動", "address": "南区藤野4条9丁目", "time": "2019-02-22T15:58:00+09:00"}}, {"type": "Feature", "geometry": {"type": "Point", "coordinates": [141.466995, 42.984371]}, "properties": {"action": "救助出動", "address": "清田区里塚2条5丁目", "time": "2019-02-22T15:49:00+09:00"}}, {"type": "Feature", "geometry": {"type": "Point", "coordinates": [141.372589, 43.100624]}, "properties": {"action": "救助出動", "address": "東区北30条東17丁目", "time": "2019-02-22T12:43:00+09:00"}}, {"type": "Feature", "geometry": {"type": "Point", "coordinates": [141.386337, 43.004246]}, "properties": {"action": "救助出動", "address": "豊平区西岡4条9丁目", "time": "2019-02-22T01:04:00+09:00"}}, {"type": "Feature", "geometry": {"type": "Point", "coordinates": [141.368378, 43.085152]}, "properties": {"action": "警戒出動", "address": "東区北18条東12丁目", "time": "2019-02-22T20:51:00+09:00"}}, {"type": "Feature", "geometry": {"type": "Point", "coordinates": [141.348709, 43.070591]}, "properties": {"action": "警戒出動", "address": "北区北8条西4丁目", "time": "2019-02-22T20:19:00+09:00"}}, {"type": "Feature", "geometry": {"type": "Point", "coordinates": [141.371368, 43.039398]}, "properties": {"action": "警戒出動", "address": "豊平区平岸3条3丁目", "time": "2019-02-22T19:44:00+09:00"}}, {"type": "Feature", "geometry": {"type": "Point", "coordinates": [141.415314, 43.064262]}, "properties": {"action": "警戒出動", "address": "白石区北郷5条3丁目", "time": "2019-02-22T18:41:00+09:00"}}, {"type": "Feature", "geometry": {"type": "Point", "coordinates": [141.342972, 43.054455]}, "properties": {"action": "警戒出動", "address": "中央区南4条西10丁目", "time": "2019-02-22T16:57:00+09:00"}}, {"type": "Feature", "geometry": {"type": "Point", "coordinates": [141.404846, 43.125992]}, "properties": {"action": "警戒出動", "address": "東区北丘珠3条2丁目", "time": "2019-02-22T16:39:00+09:00"}}, {"type": "Feature", "geometry": {"type": "Point", "coordinates": [141.415314, 43.064262]}, "properties": {"action": "警戒出動", "address": "白石区北郷5条3丁目", "time": "2019-02-22T14:26:00+09:00"}}, {"type": "Feature", "geometry": {"type": "Point", "coordinates": [141.291931, 43.099049]}, "properties": {"action": "警戒出動", "address": "西区発寒13条4丁目", "time": "2019-02-22T12:20:00+09:00"}}, {"type": "Feature", "geometry": {"type": "Point", "coordinates": [141.360748, 43.054859]}, "properties": {"action": "警戒出動", "address": "中央区南6条東2丁目", "time": "2019-02-22T11:10:00+09:00"}}, {"type": "Feature", "geometry": {"type": "Point", "coordinates": [141.332367, 43.111237]}, "properties": {"action": "警戒出動", "address": "北区新琴似7条2丁目", "time": "2019-02-22T10:26:00+09:00"}}, {"type": "Feature", "geometry": {"type": "Point", "coordinates": [141.372742, 43.087337]}, "properties": {"action": "警戒出動", "address": "東区北19条東15丁目", "time": "2019-02-22T08:47:00+09:00"}}, {"type": "Feature", "geometry": {"type": "Point", "coordinates": [141.368378, 43.085152]}, "properties": {"action": "警戒出動", "address": "東区北18条東12丁目", "time": "2019-02-22T07:19:00+09:00"}}, {"type": "Feature", "geometry": {"type": "Point", "coordinates": [141.386612, 43.041943]}, "properties": {"action": "警戒出動", "address": "豊平区美園3条4丁目", "time": "2019-02-22T03:44:00+09:00"}}, {"type": "Feature", "geometry": {"type": "Point", "coordinates": [141.3228, 43.054741]}, "properties": {"action": "警戒出動", "address": "中央区南2条西23丁目", "time": "2019-02-22T03:22:00+09:00"}}, {"type": "Feature", "geometry": {"type": "Point", "coordinates": [141.388382, 43.090622]}, "properties": {"action": "警戒出動", "address": "東区北22条東23丁目", "time": "2019-02-22T02:21:00+09:00"}}, {"type": "Feature", "geometry": {"type": "Point", "coordinates": [141.410492, 43.051991]}, "properties": {"action": "救急隊支援出動", "address": "白石区平和通3丁目", "time": "2019-02-22T20:30:00+09:00"}}, {"type": "Feature", "geometry": {"type": "Point", "coordinates": [141.398071, 43.027843]}, "properties": {"action": "救急隊支援出動", "address": "豊平区月寒中央通9丁目", "time": "2019-02-22T16:24:00+09:00"}}, {"type": "Feature", "geometry": {"type": "Point", "coordinates": [141.415741, 43.054745]}, "properties": {"action": "救急隊支援出動", "address": "白石区北郷1条5丁目", "time": "2019-02-22T12:22:00+09:00"}}, {"type": "Feature", "geometry": {"type": "Point", "coordinates": [141.257523, 43.142448]}, "properties": {"action": "救急隊支援出動", "address": "手稲区手稲前田 付近", "time": "2019-02-22T11:45:00+09:00"}}, {"type": "Feature", "geometry": {"type": "Point", "coordinates": [141.390976, 43.024509]}, "properties": {"action": "救急隊支援出動", "address": "豊平区月寒西3条10丁目", "time": "2019-02-22T08:40:00+09:00"}}, {"type": "Feature", "geometry": {"type": "Point", "coordinates": [141.433624, 43.058552]}, "properties": {"action": "救急隊支援出動", "address": "白石区川北2条1丁目", "time": "2019-02-22T07:28:00+09:00"}}, {"type": "Feature", "geometry": {"type": "Point", "coordinates": [141.329514, 43.004574]}, "properties": {"action": "救急隊支援出動", "address": "南区北ﾉ沢1丁目", "time": "2019-02-22T07:15:00+09:00"}}, {"type": "Feature", "geometry": {"type": "Point", "coordinates": [141.399628, 43.052162]}, "properties": {"action": "救急隊支援出動", "address": "白石区中央1条6丁目", "time": "2019-02-22T00:07:00+09:00"}}]}