{"type": "FeatureCollection", "crs": {"type": "name", "properties": {"name": "urn:ogc:def:crs:OGC:1.3:CRS84"}}, "features": [{"type": "Feature", "geometry": {"type": "Point", "coordinates": [141.34761, 43.056015]}, "properties": {"action": "火災出動", "address": "中央区南3条西7丁目", "time": "2019-02-27T23:09:00+09:00"}}, {"type": "Feature", "geometry": {"type": "Point", "coordinates": [141.324692, 43.111095]}, "properties": {"action": "火災出動", "address": "北区新琴似5条5丁目", "time": "2019-02-27T20:06:00+09:00"}}, {"type": "Feature", "geometry": {"type": "Point", "coordinates": [141.368988, 43.162685]}, "properties": {"action": "火災出動", "address": "北区篠路町篠路 付近", "time": "2019-02-27T19:33:00+09:00"}}, {"type": "Feature", "geometry": {"type": "Point", "coordinates": [141.306625, 43.080811]}, "properties": {"action": "火災出動", "address": "西区琴似2条1丁目", "time": "2019-02-27T11:22:00+09:00"}}, {"type": "Feature", "geometry": {"type": "Point", "coordinates": [141.473343, 43.045216]}, "properties": {"action": "火災出動", "address": "厚別区厚別中央4条6丁目", "time": "2019-02-27T05:21:00+09:00"}}, {"type": "Feature", "geometry": {"type": "Point", "coordinates": [141.349747, 43.042744]}, "properties": {"action": "火災出動", "address": "中央区南13条西7丁目", "time": "2019-02-27T05:17:00+09:00"}}, {"type": "Feature", "geometry": {"type": "Point", "coordinates": [141.386566, 43.028923]}, "properties": {"action": "救助出動", "address": "豊平区月寒西5条6丁目", "time": "2019-02-27T18:58:00+09:00"}}, {"type": "Feature", "geometry": {"type": "Point", "coordinates": [141.473083, 43.020004]}, "properties": {"action": "救助出動", "address": "厚別区上野幌1条3丁目", "time": "2019-02-27T16:26:00+09:00"}}, {"type": "Feature", "geometry": {"type": "Point", "coordinates": [141.408386, 43.033493]}, "properties": {"action": "救助出動", "address": "豊平区月寒東4条8丁目", "time": "2019-02-27T10:34:00+09:00"}}, {"type": "Feature", "geometry": {"type": "Point", "coordinates": [141.275848, 43.099323]}, "properties": {"action": "救助出動", "address": "西区発寒9条13丁目", "time": "2019-02-27T06:28:00+09:00"}}, {"type": "Feature", "geometry": {"type": "Point", "coordinates": [141.462311, 43.069542]}, "properties": {"action": "救助出動", "address": "厚別区厚別町山本 付近", "time": "2019-02-27T02:58:00+09:00"}}, {"type": "Feature", "geometry": {"type": "Point", "coordinates": [141.368927, 43.051624]}, "properties": {"action": "警戒出動", "address": "豊平区豊平4条3丁目", "time": "2019-02-27T23:12:00+09:00"}}, {"type": "Feature", "geometry": {"type": "Point", "coordinates": [141.339462, 43.055977]}, "properties": {"action": "警戒出動", "address": "中央区南2条西12丁目", "time": "2019-02-27T19:20:00+09:00"}}, {"type": "Feature", "geometry": {"type": "Point", "coordinates": [141.328354, 42.988918]}, "properties": {"action": "警戒出動", "address": "南区川沿7条4丁目", "time": "2019-02-27T17:17:00+09:00"}}, {"type": "Feature", "geometry": {"type": "Point", "coordinates": [141.447784, 43.045387]}, "properties": {"action": "警戒出動", "address": "白石区川下1条6丁目", "time": "2019-02-27T15:21:00+09:00"}}, {"type": "Feature", "geometry": {"type": "Point", "coordinates": [141.300919, 43.087379]}, "properties": {"action": "警戒出動", "address": "西区発寒10条1丁目", "time": "2019-02-27T12:02:00+09:00"}}, {"type": "Feature", "geometry": {"type": "Point", "coordinates": [141.314957, 43.055935]}, "properties": {"action": "警戒出動", "address": "中央区大通西28丁目", "time": "2019-02-27T10:16:00+09:00"}}, {"type": "Feature", "geometry": {"type": "Point", "coordinates": [141.300354, 43.094654]}, "properties": {"action": "警戒出動", "address": "西区八軒5条西10丁目", "time": "2019-02-27T02:56:00+09:00"}}, {"type": "Feature", "geometry": {"type": "Point", "coordinates": [141.423599, 43.039837]}, "properties": {"action": "警戒出動", "address": "白石区本通12丁目", "time": "2019-02-27T02:36:00+09:00"}}, {"type": "Feature", "geometry": {"type": "Point", "coordinates": [141.264587, 43.116001]}, "properties": {"action": "警戒出動", "address": "手稲区前田4条4丁目", "time": "2019-02-27T01:42:00+09:00"}}, {"type": "Feature", "geometry": {"type": "Point", "coordinates": [141.327209, 43.105717]}, "properties": {"action": "救急隊支援出動", "address": "北区新琴似3条2丁目", "time": "2019-02-27T20:53:00+09:00"}}, {"type": "Feature", "geometry": {"type": "Point", "coordinates": [141.246567, 43.114742]}, "properties": {"action": "救急隊支援出動", "address": "手稲区富丘2条7丁目", "time": "2019-02-27T20:33:00+09:00"}}, {"type": "Feature", "geometry": {"type": "Point", "coordinates": [141.420822, 43.041107]}, "properties": {"action": "救急隊支援出動", "address": "白石区本通10丁目", "time": "2019-02-27T19:01:00+09:00"}}, {"type": "Feature", "geometry": {"type": "Point", "coordinates": [141.306076, 42.962074]}, "properties": {"action": "救急隊支援出動", "address": "南区藤野2条3丁目", "time": "2019-02-27T11:49:00+09:00"}}]}