{"type": "FeatureCollection", "crs": {"type": "name", "properties": {"name": "urn:ogc:def:crs:OGC:1.3:CRS84"}}, "features": [{"type": "Feature", "geometry": {"type": "Point", "coordinates": [141.337204, 43.108826]}, "properties": {"action": "火災出動", "address": "北区北40条西5丁目", "time": "2019-02-04T14:06:00+09:00"}}, {"type": "Feature", "geometry": {"type": "Point", "coordinates": [141.357803, 43.086853]}, "properties": {"action": "救助出動", "address": "東区北20条東5丁目", "time": "2019-02-04T21:24:00+09:00"}}, {"type": "Feature", "geometry": {"type": "Point", "coordinates": [141.357635, 43.021824]}, "properties": {"action": "救助出動", "address": "豊平区中の島2条10丁目", "time": "2019-02-04T20:32:00+09:00"}}, {"type": "Feature", "geometry": {"type": "Point", "coordinates": [141.365173, 43.054504]}, "properties": {"action": "救助出動", "address": "豊平区豊平4条1丁目", "time": "2019-02-04T19:10:00+09:00"}}, {"type": "Feature", "geometry": {"type": "Point", "coordinates": [141.426224, 43.042751]}, "properties": {"action": "救助出動", "address": "白石区平和通12丁目", "time": "2019-02-04T15:38:00+09:00"}}, {"type": "Feature", "geometry": {"type": "Point", "coordinates": [141.476685, 43.033802]}, "properties": {"action": "救助出動", "address": "厚別区青葉町3丁目", "time": "2019-02-04T15:19:00+09:00"}}, {"type": "Feature", "geometry": {"type": "Point", "coordinates": [141.358673, 43.125172]}, "properties": {"action": "救助出動", "address": "北区百合が原1丁目", "time": "2019-02-04T11:31:00+09:00"}}, {"type": "Feature", "geometry": {"type": "Point", "coordinates": [141.267517, 43.02198]}, "properties": {"action": "救助出動", "address": "中央区盤渓 付近", "time": "2019-02-04T09:21:00+09:00"}}, {"type": "Feature", "geometry": {"type": "Point", "coordinates": [141.349014, 43.046738]}, "properties": {"action": "警戒出動", "address": "中央区南10条西7丁目", "time": "2019-02-04T20:24:00+09:00"}}, {"type": "Feature", "geometry": {"type": "Point", "coordinates": [141.236908, 43.135918]}, "properties": {"action": "警戒出動", "address": "手稲区曙6条2丁目", "time": "2019-02-04T19:12:00+09:00"}}, {"type": "Feature", "geometry": {"type": "Point", "coordinates": [141.363556, 43.115803]}, "properties": {"action": "警戒出動", "address": "東区北44条東14丁目", "time": "2019-02-04T18:55:00+09:00"}}, {"type": "Feature", "geometry": {"type": "Point", "coordinates": [141.329361, 43.126907]}, "properties": {"action": "警戒出動", "address": "北区屯田3条6丁目", "time": "2019-02-04T17:14:00+09:00"}}, {"type": "Feature", "geometry": {"type": "Point", "coordinates": [141.368042, 43.147823]}, "properties": {"action": "警戒出動", "address": "北区篠路5条8丁目", "time": "2019-02-04T14:38:00+09:00"}}, {"type": "Feature", "geometry": {"type": "Point", "coordinates": [141.350739, 43.087357]}, "properties": {"action": "警戒出動", "address": "東区北21条東1丁目", "time": "2019-02-04T11:05:00+09:00"}}, {"type": "Feature", "geometry": {"type": "Point", "coordinates": [141.340775, 43.044987]}, "properties": {"action": "警戒出動", "address": "中央区南11条西12丁目", "time": "2019-02-04T09:53:00+09:00"}}, {"type": "Feature", "geometry": {"type": "Point", "coordinates": [141.38945, 43.043423]}, "properties": {"action": "警戒出動", "address": "豊平区美園1条5丁目", "time": "2019-02-04T07:17:00+09:00"}}, {"type": "Feature", "geometry": {"type": "Point", "coordinates": [141.393311, 43.051548]}, "properties": {"action": "警戒出動", "address": "白石区東札幌5条4丁目", "time": "2019-02-04T06:31:00+09:00"}}, {"type": "Feature", "geometry": {"type": "Point", "coordinates": [141.357162, 43.058308]}, "properties": {"action": "警戒出動", "address": "中央区南2条西1丁目", "time": "2019-02-04T06:25:00+09:00"}}, {"type": "Feature", "geometry": {"type": "Point", "coordinates": [141.307144, 43.103554]}, "properties": {"action": "警戒出動", "address": "北区新川2条9丁目", "time": "2019-02-04T06:23:00+09:00"}}, {"type": "Feature", "geometry": {"type": "Point", "coordinates": [141.362625, 43.144566]}, "properties": {"action": "警戒出動", "address": "北区篠路3条6丁目", "time": "2019-02-04T05:58:00+09:00"}}, {"type": "Feature", "geometry": {"type": "Point", "coordinates": [141.322983, 43.118496]}, "properties": {"action": "警戒出動", "address": "北区新琴似8条9丁目", "time": "2019-02-04T05:48:00+09:00"}}, {"type": "Feature", "geometry": {"type": "Point", "coordinates": [141.319321, 43.107857]}, "properties": {"action": "警戒出動", "address": "北区新琴似2条6丁目", "time": "2019-02-04T05:44:00+09:00"}}, {"type": "Feature", "geometry": {"type": "Point", "coordinates": [141.325745, 43.104362]}, "properties": {"action": "警戒出動", "address": "北区新琴似2条2丁目", "time": "2019-02-04T05:42:00+09:00"}}, {"type": "Feature", "geometry": {"type": "Point", "coordinates": [141.379639, 43.027763]}, "properties": {"action": "警戒出動", "address": "豊平区平岸6条12丁目", "time": "2019-02-04T01:35:00+09:00"}}, {"type": "Feature", "geometry": {"type": "Point", "coordinates": [141.348267, 43.059887]}, "properties": {"action": "救急隊支援出動", "address": "中央区大通西6丁目", "time": "2019-02-04T18:47:00+09:00"}}, {"type": "Feature", "geometry": {"type": "Point", "coordinates": [141.348267, 43.059887]}, "properties": {"action": "救急隊支援出動", "address": "中央区大通西6丁目", "time": "2019-02-04T16:56:00+09:00"}}, {"type": "Feature", "geometry": {"type": "Point", "coordinates": [141.492859, 43.030972]}, "properties": {"action": "救急隊支援出動", "address": "厚別区もみじ台北7丁目", "time": "2019-02-04T14:13:00+09:00"}}, {"type": "Feature", "geometry": {"type": "Point", "coordinates": [141.320724, 43.045319]}, "properties": {"action": "救急隊支援出動", "address": "中央区南8条西26丁目", "time": "2019-02-04T11:52:00+09:00"}}, {"type": "Feature", "geometry": {"type": "Point", "coordinates": [141.385132, 43.034466]}, "properties": {"action": "救急隊支援出動", "address": "豊平区美園9条7丁目", "time": "2019-02-04T08:23:00+09:00"}}, {"type": "Feature", "geometry": {"type": "Point", "coordinates": [141.335709, 42.985531]}, "properties": {"action": "救急隊支援出動", "address": "南区川沿9条1丁目", "time": "2019-02-04T06:59:00+09:00"}}, {"type": "Feature", "geometry": {"type": "Point", "coordinates": [141.363297, 43.13681]}, "properties": {"action": "救急隊支援出動", "address": "北区百合が原8丁目", "time": "2019-02-04T06:52:00+09:00"}}, {"type": "Feature", "geometry": {"type": "Point", "coordinates": [141.312653, 42.984875]}, "properties": {"action": "救急隊支援出動", "address": "南区南沢4条4丁目", "time": "2019-02-04T02:57:00+09:00"}}]}