{"type": "FeatureCollection", "crs": {"type": "name", "properties": {"name": "urn:ogc:def:crs:OGC:1.3:CRS84"}}, "features": [{"type": "Feature", "geometry": {"type": "Point", "coordinates": [141.307007, 43.067993]}, "properties": {"action": "火災出動", "address": "中央区宮の森4条1丁目", "time": "2017-12-06T19:32:00+09:00"}}, {"type": "Feature", "geometry": {"type": "Point", "coordinates": [141.301086, 43.075249]}, "properties": {"action": "火災出動", "address": "西区琴似2条6丁目", "time": "2017-12-06T15:31:00+09:00"}}, {"type": "Feature", "geometry": {"type": "Point", "coordinates": [141.336426, 43.14043]}, "properties": {"action": "車両火災出動", "address": "北区屯田8条5丁目", "time": "2017-12-06T18:19:00+09:00"}}, {"type": "Feature", "geometry": {"type": "Point", "coordinates": [141.462311, 43.069542]}, "properties": {"action": "車両火災出動", "address": "厚別区厚別町山本 付近", "time": "2017-12-06T16:21:00+09:00"}}, {"type": "Feature", "geometry": {"type": "Point", "coordinates": [141.431656, 43.011425]}, "properties": {"action": "救助出動", "address": "清田区北野2条2丁目", "time": "2017-12-06T19:31:00+09:00"}}, {"type": "Feature", "geometry": {"type": "Point", "coordinates": [141.373428, 43.075138]}, "properties": {"action": "救助出動", "address": "東区北9条東13丁目", "time": "2017-12-06T12:58:00+09:00"}}, {"type": "Feature", "geometry": {"type": "Point", "coordinates": [141.350418, 43.00288]}, "properties": {"action": "救助出動", "address": "南区真駒内曙町1丁目", "time": "2017-12-06T10:40:00+09:00"}}, {"type": "Feature", "geometry": {"type": "Point", "coordinates": [141.320435, 43.090698]}, "properties": {"action": "救助出動", "address": "西区八軒10条東1丁目", "time": "2017-12-06T05:50:00+09:00"}}, {"type": "Feature", "geometry": {"type": "Point", "coordinates": [141.37471, 43.121922]}, "properties": {"action": "警戒出動", "address": "東区栄町 付近", "time": "2017-12-06T08:14:00+09:00"}}, {"type": "Feature", "geometry": {"type": "Point", "coordinates": [141.390381, 43.049511]}, "properties": {"action": "警戒出動", "address": "白石区東札幌3条4丁目", "time": "2017-12-06T06:47:00+09:00"}}, {"type": "Feature", "geometry": {"type": "Point", "coordinates": [141.362686, 43.082024]}, "properties": {"action": "警戒出動", "address": "東区北16条東7丁目", "time": "2017-12-06T06:43:00+09:00"}}, {"type": "Feature", "geometry": {"type": "Point", "coordinates": [141.321899, 43.093838]}, "properties": {"action": "警戒出動", "address": "北区北25条西18丁目", "time": "2017-12-06T03:51:00+09:00"}}, {"type": "Feature", "geometry": {"type": "Point", "coordinates": [141.381927, 43.045525]}, "properties": {"action": "ガス漏れ出動", "address": "豊平区豊平3条13丁目", "time": "2017-12-06T21:31:00+09:00"}}, {"type": "Feature", "geometry": {"type": "Point", "coordinates": [141.365372, 43.049316]}, "properties": {"action": "救急隊支援出動", "address": "豊平区旭町1丁目", "time": "2017-12-06T22:16:00+09:00"}}, {"type": "Feature", "geometry": {"type": "Point", "coordinates": [141.395447, 43.091633]}, "properties": {"action": "救急隊支援出動", "address": "東区伏古8条3丁目", "time": "2017-12-06T22:08:00+09:00"}}, {"type": "Feature", "geometry": {"type": "Point", "coordinates": [141.307327, 43.085045]}, "properties": {"action": "救急隊支援出動", "address": "西区八軒2条西3丁目", "time": "2017-12-06T15:46:00+09:00"}}, {"type": "Feature", "geometry": {"type": "Point", "coordinates": [141.431458, 43.035294]}, "properties": {"action": "救急隊支援出動", "address": "白石区本通16丁目", "time": "2017-12-06T14:47:00+09:00"}}, {"type": "Feature", "geometry": {"type": "Point", "coordinates": [141.391586, 43.062855]}, "properties": {"action": "救急隊支援出動", "address": "白石区菊水上町3条3丁目", "time": "2017-12-06T11:56:00+09:00"}}, {"type": "Feature", "geometry": {"type": "Point", "coordinates": [141.423035, 43.10358]}, "properties": {"action": "救急隊支援出動", "address": "東区東苗穂12条3丁目", "time": "2017-12-06T05:15:00+09:00"}}, {"type": "Feature", "geometry": {"type": "Point", "coordinates": [141.453522, 43.025478]}, "properties": {"action": "救急隊支援出動", "address": "厚別区大谷地東3丁目", "time": "2017-12-06T02:05:00+09:00"}}, {"type": "Feature", "geometry": {"type": "Point", "coordinates": [141.425125, 43.033173]}, "properties": {"action": "航空隊支援出動", "address": "白石区南郷通15丁目", "time": "2017-12-06T14:53:00+09:00"}}]}