{"type": "FeatureCollection", "crs": {"type": "name", "properties": {"name": "urn:ogc:def:crs:OGC:1.3:CRS84"}}, "features": [{"type": "Feature", "geometry": {"type": "Point", "coordinates": [141.457504, 43.042282]}, "properties": {"action": "火災出動", "address": "厚別区厚別中央5条1丁目", "time": "2017-12-10T09:46:00+09:00"}}, {"type": "Feature", "geometry": {"type": "Point", "coordinates": [141.295822, 43.058701]}, "properties": {"action": "救助出動", "address": "中央区宮の森4条11丁目", "time": "2017-12-10T16:46:00+09:00"}}, {"type": "Feature", "geometry": {"type": "Point", "coordinates": [141.3564, 43.081177]}, "properties": {"action": "警戒出動", "address": "東区北16条東3丁目", "time": "2017-12-10T19:16:00+09:00"}}, {"type": "Feature", "geometry": {"type": "Point", "coordinates": [141.333893, 43.040508]}, "properties": {"action": "警戒出動", "address": "中央区南14条西16丁目", "time": "2017-12-10T15:53:00+09:00"}}, {"type": "Feature", "geometry": {"type": "Point", "coordinates": [141.369873, 43.058556]}, "properties": {"action": "警戒出動", "address": "白石区菊水2条1丁目", "time": "2017-12-10T15:47:00+09:00"}}, {"type": "Feature", "geometry": {"type": "Point", "coordinates": [141.345993, 43.068996]}, "properties": {"action": "警戒出動", "address": "北区北7条西6丁目", "time": "2017-12-10T15:06:00+09:00"}}, {"type": "Feature", "geometry": {"type": "Point", "coordinates": [141.350998, 43.054146]}, "properties": {"action": "警戒出動", "address": "中央区南5条西5丁目", "time": "2017-12-10T03:45:00+09:00"}}, {"type": "Feature", "geometry": {"type": "Point", "coordinates": [141.368271, 43.023815]}, "properties": {"action": "警戒出動", "address": "豊平区平岸3条16丁目", "time": "2017-12-10T02:48:00+09:00"}}, {"type": "Feature", "geometry": {"type": "Point", "coordinates": [141.405289, 43.038567]}, "properties": {"action": "警戒出動", "address": "白石区栄通6丁目", "time": "2017-12-10T02:39:00+09:00"}}, {"type": "Feature", "geometry": {"type": "Point", "coordinates": [141.307388, 43.111187]}, "properties": {"action": "救急隊支援出動", "address": "北区新琴似1条12丁目", "time": "2017-12-10T21:36:00+09:00"}}, {"type": "Feature", "geometry": {"type": "Point", "coordinates": [141.331268, 42.989269]}, "properties": {"action": "救急隊支援出動", "address": "南区川沿7条3丁目", "time": "2017-12-10T19:39:00+09:00"}}, {"type": "Feature", "geometry": {"type": "Point", "coordinates": [141.248032, 43.060383]}, "properties": {"action": "救急隊支援出動", "address": "西区西野13条8丁目", "time": "2017-12-10T13:06:00+09:00"}}, {"type": "Feature", "geometry": {"type": "Point", "coordinates": [141.443436, 43.018166]}, "properties": {"action": "救急隊支援出動", "address": "清田区北野6条4丁目", "time": "2017-12-10T13:00:00+09:00"}}, {"type": "Feature", "geometry": {"type": "Point", "coordinates": [141.458435, 43.003193]}, "properties": {"action": "救急隊支援出動", "address": "清田区平岡5条4丁目", "time": "2017-12-10T12:58:00+09:00"}}, {"type": "Feature", "geometry": {"type": "Point", "coordinates": [141.206345, 43.129051]}, "properties": {"action": "救急隊支援出動", "address": "手稲区金山1条2丁目", "time": "2017-12-10T12:21:00+09:00"}}, {"type": "Feature", "geometry": {"type": "Point", "coordinates": [141.319717, 43.115955]}, "properties": {"action": "救急隊支援出動", "address": "北区新琴似6条9丁目", "time": "2017-12-10T12:09:00+09:00"}}, {"type": "Feature", "geometry": {"type": "Point", "coordinates": [141.439896, 43.005226]}, "properties": {"action": "航空隊支援出動", "address": "清田区清田1条2丁目", "time": "2017-12-10T13:00:00+09:00"}}]}