{"type": "FeatureCollection", "crs": {"type": "name", "properties": {"name": "urn:ogc:def:crs:OGC:1.3:CRS84"}}, "features": [{"type": "Feature", "geometry": {"type": "Point", "coordinates": [141.310013, 43.067982]}, "properties": {"action": "火災出動", "address": "西区二十四軒2条7丁目", "time": "2017-12-27T15:43:00+09:00"}}, {"type": "Feature", "geometry": {"type": "Point", "coordinates": [141.339859, 43.098896]}, "properties": {"action": "火災出動", "address": "北区北32条西5丁目", "time": "2017-12-27T02:51:00+09:00"}}, {"type": "Feature", "geometry": {"type": "Point", "coordinates": [141.376389, 43.050083]}, "properties": {"action": "救助出動", "address": "豊平区豊平2条8丁目", "time": "2017-12-27T16:20:00+09:00"}}, {"type": "Feature", "geometry": {"type": "Point", "coordinates": [141.335709, 43.09116]}, "properties": {"action": "救助出動", "address": "北区北25条西9丁目", "time": "2017-12-27T11:05:00+09:00"}}, {"type": "Feature", "geometry": {"type": "Point", "coordinates": [141.347183, 43.01046]}, "properties": {"action": "救助出動", "address": "南区南35条西10丁目", "time": "2017-12-27T10:28:00+09:00"}}, {"type": "Feature", "geometry": {"type": "Point", "coordinates": [141.347397, 43.100018]}, "properties": {"action": "救助出動", "address": "東区北32条東1丁目", "time": "2017-12-27T08:54:00+09:00"}}, {"type": "Feature", "geometry": {"type": "Point", "coordinates": [141.334549, 43.063923]}, "properties": {"action": "警戒出動", "address": "中央区北4条西14丁目", "time": "2017-12-27T18:10:00+09:00"}}, {"type": "Feature", "geometry": {"type": "Point", "coordinates": [141.24263, 43.141605]}, "properties": {"action": "警戒出動", "address": "手稲区前田8条19丁目", "time": "2017-12-27T16:31:00+09:00"}}, {"type": "Feature", "geometry": {"type": "Point", "coordinates": [141.348572, 43.05843]}, "properties": {"action": "警戒出動", "address": "中央区南1条西6丁目", "time": "2017-12-27T15:17:00+09:00"}}, {"type": "Feature", "geometry": {"type": "Point", "coordinates": [141.336166, 43.05677]}, "properties": {"action": "警戒出動", "address": "中央区南1条西14丁目", "time": "2017-12-27T08:08:00+09:00"}}, {"type": "Feature", "geometry": {"type": "Point", "coordinates": [141.344727, 43.086555]}, "properties": {"action": "警戒出動", "address": "北区北21条西4丁目", "time": "2017-12-27T07:28:00+09:00"}}, {"type": "Feature", "geometry": {"type": "Point", "coordinates": [141.3909, 43.002056]}, "properties": {"action": "警戒出動", "address": "豊平区福住3条10丁目", "time": "2017-12-27T05:08:00+09:00"}}, {"type": "Feature", "geometry": {"type": "Point", "coordinates": [141.364822, 43.035191]}, "properties": {"action": "警戒出動", "address": "豊平区平岸1条7丁目", "time": "2017-12-27T04:52:00+09:00"}}, {"type": "Feature", "geometry": {"type": "Point", "coordinates": [141.336166, 43.05677]}, "properties": {"action": "警戒出動", "address": "中央区南1条西14丁目", "time": "2017-12-27T02:45:00+09:00"}}, {"type": "Feature", "geometry": {"type": "Point", "coordinates": [141.270538, 43.131775]}, "properties": {"action": "警戒出動", "address": "北区新川西2条7丁目", "time": "2017-12-27T01:28:00+09:00"}}, {"type": "Feature", "geometry": {"type": "Point", "coordinates": [141.376801, 43.104649]}, "properties": {"action": "救急隊支援出動", "address": "東区北34条東20丁目", "time": "2017-12-27T22:55:00+09:00"}}, {"type": "Feature", "geometry": {"type": "Point", "coordinates": [141.263367, 43.114841]}, "properties": {"action": "救急隊支援出動", "address": "手稲区前田3条4丁目", "time": "2017-12-27T21:46:00+09:00"}}, {"type": "Feature", "geometry": {"type": "Point", "coordinates": [141.200089, 43.130005]}, "properties": {"action": "救急隊支援出動", "address": "手稲区金山1条4丁目", "time": "2017-12-27T16:32:00+09:00"}}, {"type": "Feature", "geometry": {"type": "Point", "coordinates": [141.39856, 43.013756]}, "properties": {"action": "救急隊支援出動", "address": "豊平区福住2条5丁目", "time": "2017-12-27T15:41:00+09:00"}}, {"type": "Feature", "geometry": {"type": "Point", "coordinates": [141.387802, 43.06369]}, "properties": {"action": "救急隊支援出動", "address": "白石区菊水上町2条2丁目", "time": "2017-12-27T12:41:00+09:00"}}, {"type": "Feature", "geometry": {"type": "Point", "coordinates": [141.354309, 43.063042]}, "properties": {"action": "救急隊支援出動", "address": "江別市西野幌", "time": "2017-12-27T11:44:00+09:00"}}, {"type": "Feature", "geometry": {"type": "Point", "coordinates": [141.384796, 43.094795]}, "properties": {"action": "救急隊支援出動", "address": "東区北24条東21丁目", "time": "2017-12-27T11:43:00+09:00"}}, {"type": "Feature", "geometry": {"type": "Point", "coordinates": [141.345688, 43.044022]}, "properties": {"action": "救急隊支援出動", "address": "中央区南12条西9丁目", "time": "2017-12-27T11:14:00+09:00"}}, {"type": "Feature", "geometry": {"type": "Point", "coordinates": [141.348282, 43.147583]}, "properties": {"action": "救急隊支援出動", "address": "北区西茨戸1条1丁目", "time": "2017-12-27T10:54:00+09:00"}}, {"type": "Feature", "geometry": {"type": "Point", "coordinates": [141.358337, 43.072983]}, "properties": {"action": "救急隊支援出動", "address": "東区北9条東3丁目", "time": "2017-12-27T10:46:00+09:00"}}, {"type": "Feature", "geometry": {"type": "Point", "coordinates": [141.466293, 42.991249]}, "properties": {"action": "救急隊支援出動", "address": "清田区里塚3条3丁目", "time": "2017-12-27T05:32:00+09:00"}}, {"type": "Feature", "geometry": {"type": "Point", "coordinates": [141.462601, 43.020119]}, "properties": {"action": "航空隊支援出動", "address": "厚別区上野幌3条1丁目", "time": "2017-12-27T12:13:00+09:00"}}, {"type": "Feature", "geometry": {"type": "Point", "coordinates": [141.318848, 43.131603]}, "properties": {"action": "航空隊支援出動", "address": "北区屯田4条10丁目", "time": "2017-12-27T11:02:00+09:00"}}]}