{"type": "FeatureCollection", "crs": {"type": "name", "properties": {"name": "urn:ogc:def:crs:OGC:1.3:CRS84"}}, "features": [{"type": "Feature", "geometry": {"type": "Point", "coordinates": [141.397446, 43.018238]}, "properties": {"action": "火災出動", "address": "豊平区福住1条3丁目", "time": "2017-12-03T16:29:00+09:00"}}, {"type": "Feature", "geometry": {"type": "Point", "coordinates": [141.37851, 43.157928]}, "properties": {"action": "火災出動", "address": "北区拓北7条2丁目", "time": "2017-12-03T11:15:00+09:00"}}, {"type": "Feature", "geometry": {"type": "Point", "coordinates": [141.349899, 43.107399]}, "properties": {"action": "火災出動", "address": "東区北39条東3丁目", "time": "2017-12-03T10:26:00+09:00"}}, {"type": "Feature", "geometry": {"type": "Point", "coordinates": [141.29805, 43.131783]}, "properties": {"action": "火災出動", "address": "北区新琴似町 付近", "time": "2017-12-03T03:20:00+09:00"}}, {"type": "Feature", "geometry": {"type": "Point", "coordinates": [141.414597, 43.085854]}, "properties": {"action": "火災出動", "address": "東区東雁来5条1丁目", "time": "2017-12-03T02:58:00+09:00"}}, {"type": "Feature", "geometry": {"type": "Point", "coordinates": [141.364563, 43.15155]}, "properties": {"action": "車両火災出動", "address": "北区篠路7条6丁目", "time": "2017-12-03T04:10:00+09:00"}}, {"type": "Feature", "geometry": {"type": "Point", "coordinates": [141.304474, 43.072235]}, "properties": {"action": "警戒出動", "address": "西区二十四軒4条6丁目", "time": "2017-12-03T20:40:00+09:00"}}, {"type": "Feature", "geometry": {"type": "Point", "coordinates": [141.346313, 43.041481]}, "properties": {"action": "警戒出動", "address": "中央区南14条西9丁目", "time": "2017-12-03T17:58:00+09:00"}}, {"type": "Feature", "geometry": {"type": "Point", "coordinates": [141.374039, 43.027985]}, "properties": {"action": "警戒出動", "address": "豊平区平岸4条12丁目", "time": "2017-12-03T17:20:00+09:00"}}, {"type": "Feature", "geometry": {"type": "Point", "coordinates": [141.431732, 43.027885]}, "properties": {"action": "警戒出動", "address": "白石区栄通18丁目", "time": "2017-12-03T17:05:00+09:00"}}, {"type": "Feature", "geometry": {"type": "Point", "coordinates": [141.356964, 43.092724]}, "properties": {"action": "警戒出動", "address": "東区北24条東5丁目", "time": "2017-12-03T15:54:00+09:00"}}, {"type": "Feature", "geometry": {"type": "Point", "coordinates": [141.292648, 43.067059]}, "properties": {"action": "警戒出動", "address": "西区山の手3条8丁目", "time": "2017-12-03T15:08:00+09:00"}}, {"type": "Feature", "geometry": {"type": "Point", "coordinates": [141.395782, 43.054276]}, "properties": {"action": "警戒出動", "address": "白石区中央1条4丁目", "time": "2017-12-03T13:08:00+09:00"}}, {"type": "Feature", "geometry": {"type": "Point", "coordinates": [141.349045, 43.093922]}, "properties": {"action": "警戒出動", "address": "東区北26条東1丁目", "time": "2017-12-03T12:47:00+09:00"}}, {"type": "Feature", "geometry": {"type": "Point", "coordinates": [141.391846, 43.04591]}, "properties": {"action": "警戒出動", "address": "白石区東札幌2条5丁目", "time": "2017-12-03T11:24:00+09:00"}}, {"type": "Feature", "geometry": {"type": "Point", "coordinates": [141.31572, 43.065224]}, "properties": {"action": "警戒出動", "address": "中央区北7条西26丁目", "time": "2017-12-03T08:01:00+09:00"}}, {"type": "Feature", "geometry": {"type": "Point", "coordinates": [141.308502, 43.061962]}, "properties": {"action": "警戒出動", "address": "中央区宮の森2条5丁目", "time": "2017-12-03T07:01:00+09:00"}}, {"type": "Feature", "geometry": {"type": "Point", "coordinates": [141.294922, 43.06889]}, "properties": {"action": "警戒出動", "address": "西区山の手3条6丁目", "time": "2017-12-03T05:07:00+09:00"}}, {"type": "Feature", "geometry": {"type": "Point", "coordinates": [141.340485, 43.046291]}, "properties": {"action": "警戒出動", "address": "中央区南10条西12丁目", "time": "2017-12-03T03:37:00+09:00"}}, {"type": "Feature", "geometry": {"type": "Point", "coordinates": [141.260681, 43.065273]}, "properties": {"action": "警戒出動", "address": "西区西野9条7丁目", "time": "2017-12-03T00:37:00+09:00"}}, {"type": "Feature", "geometry": {"type": "Point", "coordinates": [141.347183, 43.020973]}, "properties": {"action": "ガス漏れ出動", "address": "中央区南29条西10丁目", "time": "2017-12-03T22:11:00+09:00"}}, {"type": "Feature", "geometry": {"type": "Point", "coordinates": [141.394882, 43.045612]}, "properties": {"action": "ガス漏れ出動", "address": "白石区東札幌2条6丁目", "time": "2017-12-03T21:18:00+09:00"}}, {"type": "Feature", "geometry": {"type": "Point", "coordinates": [141.247589, 43.11916]}, "properties": {"action": "救急隊支援出動", "address": "手稲区前田1条10丁目", "time": "2017-12-03T18:55:00+09:00"}}, {"type": "Feature", "geometry": {"type": "Point", "coordinates": [141.470474, 43.048489]}, "properties": {"action": "救急隊支援出動", "address": "厚別区厚別西1条5丁目", "time": "2017-12-03T14:16:00+09:00"}}, {"type": "Feature", "geometry": {"type": "Point", "coordinates": [141.364502, 43.040775]}, "properties": {"action": "救急隊支援出動", "address": "豊平区平岸1条2丁目", "time": "2017-12-03T10:54:00+09:00"}}, {"type": "Feature", "geometry": {"type": "Point", "coordinates": [141.35405, 43.055759]}, "properties": {"action": "救急隊支援出動", "address": "中央区南4条西3丁目", "time": "2017-12-03T03:12:00+09:00"}}, {"type": "Feature", "geometry": {"type": "Point", "coordinates": [141.461868, 43.049564]}, "properties": {"action": "航空隊支援出動", "address": "厚別区厚別西3条3丁目", "time": "2017-12-03T14:22:00+09:00"}}]}