{"type": "FeatureCollection", "crs": {"type": "name", "properties": {"name": "urn:ogc:def:crs:OGC:1.3:CRS84"}}, "features": [{"type": "Feature", "geometry": {"type": "Point", "coordinates": [141.356201, 43.145473]}, "properties": {"action": "火災出動", "address": "北区篠路3条3丁目", "time": "2019-07-31T09:27:00+09:00"}}, {"type": "Feature", "geometry": {"type": "Point", "coordinates": [141.410858, 43.051819]}, "properties": {"action": "車両火災出動", "address": "白石区平和通3丁目", "time": "2019-07-31T22:28:00+09:00"}}, {"type": "Feature", "geometry": {"type": "Point", "coordinates": [141.376846, 43.095165]}, "properties": {"action": "車両火災出動", "address": "東区北24条東18丁目", "time": "2019-07-31T12:32:00+09:00"}}, {"type": "Feature", "geometry": {"type": "Point", "coordinates": [141.299774, 43.085476]}, "properties": {"action": "救助出動", "address": "西区発寒4条1丁目", "time": "2019-07-31T19:27:00+09:00"}}, {"type": "Feature", "geometry": {"type": "Point", "coordinates": [141.395569, 43.006599]}, "properties": {"action": "救助出動", "address": "豊平区福住3条8丁目", "time": "2019-07-31T17:59:00+09:00"}}, {"type": "Feature", "geometry": {"type": "Point", "coordinates": [141.431656, 42.984848]}, "properties": {"action": "救助出動", "address": "清田区清田8条3丁目", "time": "2019-07-31T17:06:00+09:00"}}, {"type": "Feature", "geometry": {"type": "Point", "coordinates": [141.42955, 43.007938]}, "properties": {"action": "救助出動", "address": "清田区北野1条2丁目", "time": "2019-07-31T16:51:00+09:00"}}, {"type": "Feature", "geometry": {"type": "Point", "coordinates": [141.306793, 43.103394]}, "properties": {"action": "救助出動", "address": "北区新川2条9丁目", "time": "2019-07-31T08:52:00+09:00"}}, {"type": "Feature", "geometry": {"type": "Point", "coordinates": [141.375717, 43.047619]}, "properties": {"action": "警戒出動", "address": "豊平区豊平4条9丁目", "time": "2019-07-31T18:48:00+09:00"}}, {"type": "Feature", "geometry": {"type": "Point", "coordinates": [141.357727, 43.029327]}, "properties": {"action": "警戒出動", "address": "豊平区中の島1条6丁目", "time": "2019-07-31T08:24:00+09:00"}}, {"type": "Feature", "geometry": {"type": "Point", "coordinates": [141.398239, 43.15976]}, "properties": {"action": "警戒出動", "address": "北区あいの里2条5丁目", "time": "2019-07-31T06:34:00+09:00"}}, {"type": "Feature", "geometry": {"type": "Point", "coordinates": [141.312866, 43.089275]}, "properties": {"action": "警戒出動", "address": "西区八軒6条西2丁目", "time": "2019-07-31T03:06:00+09:00"}}, {"type": "Feature", "geometry": {"type": "Point", "coordinates": [141.350006, 43.052731]}, "properties": {"action": "警戒出動", "address": "中央区南6条西6丁目", "time": "2019-07-31T02:31:00+09:00"}}, {"type": "Feature", "geometry": {"type": "Point", "coordinates": [141.357269, 43.153866]}, "properties": {"action": "救急隊支援出動", "address": "北区篠路8条3丁目", "time": "2019-07-31T22:40:00+09:00"}}, {"type": "Feature", "geometry": {"type": "Point", "coordinates": [141.279556, 43.077961]}, "properties": {"action": "救急隊支援出動", "address": "西区西野2条5丁目", "time": "2019-07-31T21:39:00+09:00"}}, {"type": "Feature", "geometry": {"type": "Point", "coordinates": [141.352249, 43.056576]}, "properties": {"action": "救急隊支援出動", "address": "中央区南3条西4丁目", "time": "2019-07-31T19:50:00+09:00"}}, {"type": "Feature", "geometry": {"type": "Point", "coordinates": [141.368408, 43.023659]}, "properties": {"action": "救急隊支援出動", "address": "豊平区平岸3条16丁目", "time": "2019-07-31T19:34:00+09:00"}}, {"type": "Feature", "geometry": {"type": "Point", "coordinates": [141.458145, 42.998219]}, "properties": {"action": "救急隊支援出動", "address": "清田区平岡3条5丁目", "time": "2019-07-31T11:56:00+09:00"}}, {"type": "Feature", "geometry": {"type": "Point", "coordinates": [141.355423, 43.01733]}, "properties": {"action": "救急隊支援出動", "address": "豊平区中の島1条13丁目", "time": "2019-07-31T11:05:00+09:00"}}, {"type": "Feature", "geometry": {"type": "Point", "coordinates": [141.477005, 43.022232]}, "properties": {"action": "救急隊支援出動", "address": "厚別区厚別南6丁目", "time": "2019-07-31T10:01:00+09:00"}}, {"type": "Feature", "geometry": {"type": "Point", "coordinates": [141.39827, 43.078671]}, "properties": {"action": "救急隊支援出動", "address": "東区東苗穂1条2丁目", "time": "2019-07-31T06:22:00+09:00"}}, {"type": "Feature", "geometry": {"type": "Point", "coordinates": [141.474564, 43.024193]}, "properties": {"action": "航空隊支援出動", "address": "厚別区厚別南5丁目", "time": "2019-07-31T10:02:00+09:00"}}]}