{"type": "FeatureCollection", "crs": {"type": "name", "properties": {"name": "urn:ogc:def:crs:OGC:1.3:CRS84"}}, "features": [{"type": "Feature", "geometry": {"type": "Point", "coordinates": [141.298386, 43.131588]}, "properties": {"action": "火災出動", "address": "北区新琴似町 付近", "time": "2019-07-13T07:11:00+09:00"}}, {"type": "Feature", "geometry": {"type": "Point", "coordinates": [141.412094, 43.038506]}, "properties": {"action": "車両火災出動", "address": "白石区南郷通8丁目", "time": "2019-07-13T11:03:00+09:00"}}, {"type": "Feature", "geometry": {"type": "Point", "coordinates": [141.352097, 43.152927]}, "properties": {"action": "車両火災出動", "address": "北区篠路7条1丁目", "time": "2019-07-13T10:42:00+09:00"}}, {"type": "Feature", "geometry": {"type": "Point", "coordinates": [141.450439, 43.018517]}, "properties": {"action": "救助出動", "address": "清田区北野7条5丁目", "time": "2019-07-13T20:34:00+09:00"}}, {"type": "Feature", "geometry": {"type": "Point", "coordinates": [141.341202, 43.111073]}, "properties": {"action": "救助出動", "address": "北区麻生町4丁目", "time": "2019-07-13T20:33:00+09:00"}}, {"type": "Feature", "geometry": {"type": "Point", "coordinates": [141.352249, 43.056576]}, "properties": {"action": "救助出動", "address": "中央区南3条西4丁目", "time": "2019-07-13T20:12:00+09:00"}}, {"type": "Feature", "geometry": {"type": "Point", "coordinates": [141.370178, 43.065174]}, "properties": {"action": "警戒出動", "address": "中央区北1条東9丁目", "time": "2019-07-13T23:06:00+09:00"}}, {"type": "Feature", "geometry": {"type": "Point", "coordinates": [141.268005, 43.06707]}, "properties": {"action": "警戒出動", "address": "西区西野7条5丁目", "time": "2019-07-13T22:34:00+09:00"}}, {"type": "Feature", "geometry": {"type": "Point", "coordinates": [141.321335, 43.070572]}, "properties": {"action": "警戒出動", "address": "中央区北11条西21丁目", "time": "2019-07-13T21:56:00+09:00"}}, {"type": "Feature", "geometry": {"type": "Point", "coordinates": [141.337906, 43.050625]}, "properties": {"action": "警戒出動", "address": "中央区南7条西13丁目", "time": "2019-07-13T21:50:00+09:00"}}, {"type": "Feature", "geometry": {"type": "Point", "coordinates": [141.232986, 43.129433]}, "properties": {"action": "警戒出動", "address": "手稲区曙3条3丁目", "time": "2019-07-13T13:40:00+09:00"}}, {"type": "Feature", "geometry": {"type": "Point", "coordinates": [141.364655, 43.099533]}, "properties": {"action": "警戒出動", "address": "東区北30条東12丁目", "time": "2019-07-13T09:52:00+09:00"}}, {"type": "Feature", "geometry": {"type": "Point", "coordinates": [141.345306, 43.110561]}, "properties": {"action": "警戒出動", "address": "東区北42条東1丁目", "time": "2019-07-13T04:43:00+09:00"}}, {"type": "Feature", "geometry": {"type": "Point", "coordinates": [141.454376, 43.021919]}, "properties": {"action": "警戒出動", "address": "厚別区大谷地西5丁目", "time": "2019-07-13T02:36:00+09:00"}}, {"type": "Feature", "geometry": {"type": "Point", "coordinates": [141.363312, 43.072617]}, "properties": {"action": "警戒出動", "address": "東区北8条東6丁目", "time": "2019-07-13T02:18:00+09:00"}}, {"type": "Feature", "geometry": {"type": "Point", "coordinates": [141.322525, 43.122978]}, "properties": {"action": "ガス漏れ出動", "address": "北区新琴似10条11丁目", "time": "2019-07-13T21:09:00+09:00"}}, {"type": "Feature", "geometry": {"type": "Point", "coordinates": [141.350906, 43.159325]}, "properties": {"action": "救急隊支援出動", "address": "北区西茨戸6条1丁目", "time": "2019-07-13T20:02:00+09:00"}}, {"type": "Feature", "geometry": {"type": "Point", "coordinates": [141.31488, 42.959763]}, "properties": {"action": "救急隊支援出動", "address": "南区石山2条9丁目", "time": "2019-07-13T14:04:00+09:00"}}, {"type": "Feature", "geometry": {"type": "Point", "coordinates": [141.458038, 43.041828]}, "properties": {"action": "航空隊支援出動", "address": "厚別区厚別中央5条1丁目", "time": "2019-07-13T15:37:00+09:00"}}]}