{"type": "FeatureCollection", "crs": {"type": "name", "properties": {"name": "urn:ogc:def:crs:OGC:1.3:CRS84"}}, "features": [{"type": "Feature", "geometry": {"type": "Point", "coordinates": [141.340393, 43.103508]}, "properties": {"action": "火災出動", "address": "北区北36条西4丁目", "time": "2019-07-20T01:11:00+09:00"}}, {"type": "Feature", "geometry": {"type": "Point", "coordinates": [141.332993, 43.056339]}, "properties": {"action": "車両火災出動", "address": "中央区南1条西16丁目", "time": "2019-07-20T10:37:00+09:00"}}, {"type": "Feature", "geometry": {"type": "Point", "coordinates": [141.277176, 43.091061]}, "properties": {"action": "救助出動", "address": "西区発寒6条10丁目", "time": "2019-07-20T23:11:00+09:00"}}, {"type": "Feature", "geometry": {"type": "Point", "coordinates": [141.337677, 43.102558]}, "properties": {"action": "救助出動", "address": "北区北35条西6丁目", "time": "2019-07-20T09:52:00+09:00"}}, {"type": "Feature", "geometry": {"type": "Point", "coordinates": [141.414551, 43.079346]}, "properties": {"action": "水難救助出動", "address": "白石区米里 付近", "time": "2019-07-20T09:46:00+09:00"}}, {"type": "Feature", "geometry": {"type": "Point", "coordinates": [141.352341, 43.090607]}, "properties": {"action": "警戒出動", "address": "東区北23条東2丁目", "time": "2019-07-20T17:55:00+09:00"}}, {"type": "Feature", "geometry": {"type": "Point", "coordinates": [141.413162, 43.072395]}, "properties": {"action": "警戒出動", "address": "白石区菊水元町8条2丁目", "time": "2019-07-20T14:47:00+09:00"}}, {"type": "Feature", "geometry": {"type": "Point", "coordinates": [141.375717, 43.051567]}, "properties": {"action": "警戒出動", "address": "豊平区豊平1条7丁目", "time": "2019-07-20T10:54:00+09:00"}}, {"type": "Feature", "geometry": {"type": "Point", "coordinates": [141.32309, 43.118401]}, "properties": {"action": "警戒出動", "address": "北区新琴似8条9丁目", "time": "2019-07-20T08:48:00+09:00"}}, {"type": "Feature", "geometry": {"type": "Point", "coordinates": [141.327057, 43.055134]}, "properties": {"action": "警戒出動", "address": "中央区南2条西20丁目", "time": "2019-07-20T07:42:00+09:00"}}, {"type": "Feature", "geometry": {"type": "Point", "coordinates": [141.380081, 43.069908]}, "properties": {"action": "警戒出動", "address": "東区北4条東16丁目", "time": "2019-07-20T03:24:00+09:00"}}, {"type": "Feature", "geometry": {"type": "Point", "coordinates": [141.270538, 43.087402]}, "properties": {"action": "警戒出動", "address": "西区宮の沢2条2丁目", "time": "2019-07-20T03:22:00+09:00"}}, {"type": "Feature", "geometry": {"type": "Point", "coordinates": [141.437637, 43.019962]}, "properties": {"action": "救急隊支援出動", "address": "清田区北野6条3丁目", "time": "2019-07-20T18:22:00+09:00"}}, {"type": "Feature", "geometry": {"type": "Point", "coordinates": [141.279175, 43.067455]}, "properties": {"action": "救急隊支援出動", "address": "西区西野5条1丁目", "time": "2019-07-20T17:48:00+09:00"}}, {"type": "Feature", "geometry": {"type": "Point", "coordinates": [141.499146, 43.042774]}, "properties": {"action": "救急隊支援出動", "address": "厚別区厚別町下野幌 付近", "time": "2019-07-20T12:34:00+09:00"}}, {"type": "Feature", "geometry": {"type": "Point", "coordinates": [141.350983, 43.055225]}, "properties": {"action": "救急隊支援出動", "address": "中央区南4条西5丁目", "time": "2019-07-20T06:08:00+09:00"}}, {"type": "Feature", "geometry": {"type": "Point", "coordinates": [141.294937, 43.089825]}, "properties": {"action": "救急隊支援出動", "address": "西区発寒10条3丁目", "time": "2019-07-20T00:40:00+09:00"}}, {"type": "Feature", "geometry": {"type": "Point", "coordinates": [141.49585, 43.037437]}, "properties": {"action": "航空隊支援出動", "address": "厚別区もみじ台北3丁目", "time": "2019-07-20T12:37:00+09:00"}}]}