{"type": "FeatureCollection", "crs": {"type": "name", "properties": {"name": "urn:ogc:def:crs:OGC:1.3:CRS84"}}, "features": [{"type": "Feature", "geometry": {"type": "Point", "coordinates": [141.343216, 43.067501]}, "properties": {"action": "火災出動", "address": "北区北6条西8丁目", "time": "2019-07-28T19:50:00+09:00"}}, {"type": "Feature", "geometry": {"type": "Point", "coordinates": [141.361191, 43.058529]}, "properties": {"action": "火災出動", "address": "中央区南3条東3丁目", "time": "2019-07-28T03:28:00+09:00"}}, {"type": "Feature", "geometry": {"type": "Point", "coordinates": [141.323517, 43.051605]}, "properties": {"action": "車両火災出動", "address": "中央区南5条西23丁目", "time": "2019-07-28T09:41:00+09:00"}}, {"type": "Feature", "geometry": {"type": "Point", "coordinates": [141.376358, 43.077888]}, "properties": {"action": "救助出動", "address": "東区北11条東15丁目", "time": "2019-07-28T23:38:00+09:00"}}, {"type": "Feature", "geometry": {"type": "Point", "coordinates": [141.379868, 43.027996]}, "properties": {"action": "救助出動", "address": "豊平区平岸6条12丁目", "time": "2019-07-28T17:36:00+09:00"}}, {"type": "Feature", "geometry": {"type": "Point", "coordinates": [141.306747, 43.080883]}, "properties": {"action": "救助出動", "address": "西区琴似2条1丁目", "time": "2019-07-28T13:46:00+09:00"}}, {"type": "Feature", "geometry": {"type": "Point", "coordinates": [141.364426, 43.141582]}, "properties": {"action": "警戒出動", "address": "北区篠路2条7丁目", "time": "2019-07-28T23:26:00+09:00"}}, {"type": "Feature", "geometry": {"type": "Point", "coordinates": [141.252029, 43.100952]}, "properties": {"action": "警戒出動", "address": "手稲区富丘3条2丁目", "time": "2019-07-28T22:51:00+09:00"}}, {"type": "Feature", "geometry": {"type": "Point", "coordinates": [141.364426, 43.141582]}, "properties": {"action": "警戒出動", "address": "北区篠路2条7丁目", "time": "2019-07-28T21:07:00+09:00"}}, {"type": "Feature", "geometry": {"type": "Point", "coordinates": [141.357727, 43.029327]}, "properties": {"action": "警戒出動", "address": "豊平区中の島1条6丁目", "time": "2019-07-28T18:52:00+09:00"}}, {"type": "Feature", "geometry": {"type": "Point", "coordinates": [141.386612, 43.04208]}, "properties": {"action": "警戒出動", "address": "豊平区美園3条4丁目", "time": "2019-07-28T16:42:00+09:00"}}, {"type": "Feature", "geometry": {"type": "Point", "coordinates": [141.392975, 43.051472]}, "properties": {"action": "警戒出動", "address": "白石区東札幌5条4丁目", "time": "2019-07-28T14:15:00+09:00"}}, {"type": "Feature", "geometry": {"type": "Point", "coordinates": [141.396133, 43.030773]}, "properties": {"action": "警戒出動", "address": "豊平区月寒中央通7丁目", "time": "2019-07-28T14:10:00+09:00"}}, {"type": "Feature", "geometry": {"type": "Point", "coordinates": [141.363892, 42.999596]}, "properties": {"action": "警戒出動", "address": "南区真駒内東町2丁目", "time": "2019-07-28T13:46:00+09:00"}}, {"type": "Feature", "geometry": {"type": "Point", "coordinates": [141.407761, 43.019871]}, "properties": {"action": "警戒出動", "address": "豊平区月寒東1条15丁目", "time": "2019-07-28T12:02:00+09:00"}}, {"type": "Feature", "geometry": {"type": "Point", "coordinates": [141.354996, 43.052193]}, "properties": {"action": "警戒出動", "address": "中央区南7条西3丁目", "time": "2019-07-28T11:24:00+09:00"}}, {"type": "Feature", "geometry": {"type": "Point", "coordinates": [141.386307, 43.045589]}, "properties": {"action": "警戒出動", "address": "豊平区美園1条2丁目", "time": "2019-07-28T02:20:00+09:00"}}, {"type": "Feature", "geometry": {"type": "Point", "coordinates": [141.350662, 43.109932]}, "properties": {"action": "警戒出動", "address": "東区北41条東4丁目", "time": "2019-07-28T01:58:00+09:00"}}, {"type": "Feature", "geometry": {"type": "Point", "coordinates": [141.313889, 43.073273]}, "properties": {"action": "警戒出動", "address": "西区二十四軒2条3丁目", "time": "2019-07-28T01:42:00+09:00"}}, {"type": "Feature", "geometry": {"type": "Point", "coordinates": [141.464325, 43.033199]}, "properties": {"action": "警戒出動", "address": "厚別区厚別中央1条3丁目", "time": "2019-07-28T00:32:00+09:00"}}, {"type": "Feature", "geometry": {"type": "Point", "coordinates": [141.351669, 42.989994]}, "properties": {"action": "救急隊支援出動", "address": "南区真駒内幸町1丁目", "time": "2019-07-28T22:26:00+09:00"}}, {"type": "Feature", "geometry": {"type": "Point", "coordinates": [141.321594, 43.002792]}, "properties": {"action": "救急隊支援出動", "address": "南区北ﾉ沢8丁目", "time": "2019-07-28T17:02:00+09:00"}}, {"type": "Feature", "geometry": {"type": "Point", "coordinates": [141.328049, 42.990799]}, "properties": {"action": "救急隊支援出動", "address": "南区川沿6条4丁目", "time": "2019-07-28T11:17:00+09:00"}}, {"type": "Feature", "geometry": {"type": "Point", "coordinates": [141.360931, 43.059517]}, "properties": {"action": "救急隊支援出動", "address": "中央区南2条東3丁目", "time": "2019-07-28T11:04:00+09:00"}}, {"type": "Feature", "geometry": {"type": "Point", "coordinates": [141.442719, 43.015228]}, "properties": {"action": "救急隊支援出動", "address": "清田区北野5条4丁目", "time": "2019-07-28T09:48:00+09:00"}}, {"type": "Feature", "geometry": {"type": "Point", "coordinates": [141.39444, 43.120789]}, "properties": {"action": "航空隊支援出動", "address": "東区丘珠町", "time": "2019-07-28T13:03:00+09:00"}}]}