{"type": "FeatureCollection", "crs": {"type": "name", "properties": {"name": "urn:ogc:def:crs:OGC:1.3:CRS84"}}, "features": [{"type": "Feature", "geometry": {"type": "Point", "coordinates": [141.405014, 43.04652]}, "properties": {"action": "救助出動", "address": "白石区本郷通3丁目", "time": "2019-07-02T00:33:00+09:00"}}, {"type": "Feature", "geometry": {"type": "Point", "coordinates": [141.360092, 43.105247]}, "properties": {"action": "警戒出動", "address": "東区北35条東9丁目", "time": "2019-07-02T20:31:00+09:00"}}, {"type": "Feature", "geometry": {"type": "Point", "coordinates": [141.396622, 43.04475]}, "properties": {"action": "警戒出動", "address": "白石区南郷通1丁目", "time": "2019-07-02T16:09:00+09:00"}}, {"type": "Feature", "geometry": {"type": "Point", "coordinates": [141.453522, 43.025478]}, "properties": {"action": "警戒出動", "address": "厚別区大谷地東3丁目", "time": "2019-07-02T16:08:00+09:00"}}, {"type": "Feature", "geometry": {"type": "Point", "coordinates": [141.474121, 43.061058]}, "properties": {"action": "警戒出動", "address": "厚別区厚別北5条4丁目", "time": "2019-07-02T13:04:00+09:00"}}, {"type": "Feature", "geometry": {"type": "Point", "coordinates": [141.335739, 43.107925]}, "properties": {"action": "救急隊支援出動", "address": "北区北39条西6丁目", "time": "2019-07-02T14:36:00+09:00"}}, {"type": "Feature", "geometry": {"type": "Point", "coordinates": [141.375259, 42.991459]}, "properties": {"action": "救急隊支援出動", "address": "豊平区西岡4条14丁目", "time": "2019-07-02T14:08:00+09:00"}}, {"type": "Feature", "geometry": {"type": "Point", "coordinates": [141.443771, 42.998066]}, "properties": {"action": "救急隊支援出動", "address": "清田区平岡1条1丁目", "time": "2019-07-02T09:35:00+09:00"}}, {"type": "Feature", "geometry": {"type": "Point", "coordinates": [141.302261, 43.106457]}, "properties": {"action": "救急隊支援出動", "address": "北区新川2条12丁目", "time": "2019-07-02T08:06:00+09:00"}}, {"type": "Feature", "geometry": {"type": "Point", "coordinates": [141.380264, 42.996513]}, "properties": {"action": "航空隊支援出動", "address": "豊平区西岡4条12丁目", "time": "2019-07-02T14:10:00+09:00"}}]}