{"type": "FeatureCollection", "crs": {"type": "name", "properties": {"name": "urn:ogc:def:crs:OGC:1.3:CRS84"}}, "features": [{"type": "Feature", "geometry": {"type": "Point", "coordinates": [141.427322, 43.07193]}, "properties": {"action": "火災出動", "address": "白石区北郷 付近", "time": "2019-07-09T23:18:00+09:00"}}, {"type": "Feature", "geometry": {"type": "Point", "coordinates": [141.303741, 43.078091]}, "properties": {"action": "火災出動", "address": "西区琴似2条3丁目", "time": "2019-07-09T14:29:00+09:00"}}, {"type": "Feature", "geometry": {"type": "Point", "coordinates": [141.409729, 43.039337]}, "properties": {"action": "火災出動", "address": "白石区南郷通7丁目", "time": "2019-07-09T10:21:00+09:00"}}, {"type": "Feature", "geometry": {"type": "Point", "coordinates": [141.398819, 43.019451]}, "properties": {"action": "火災出動", "address": "豊平区福住1条2丁目", "time": "2019-07-09T09:03:00+09:00"}}, {"type": "Feature", "geometry": {"type": "Point", "coordinates": [141.377655, 43.036663]}, "properties": {"action": "救助出動", "address": "豊平区平岸5条6丁目", "time": "2019-07-09T09:21:00+09:00"}}, {"type": "Feature", "geometry": {"type": "Point", "coordinates": [141.455811, 43.021332]}, "properties": {"action": "救助出動", "address": "厚別区大谷地西6丁目", "time": "2019-07-09T02:06:00+09:00"}}, {"type": "Feature", "geometry": {"type": "Point", "coordinates": [141.333878, 43.053532]}, "properties": {"action": "警戒出動", "address": "中央区南4条西15丁目", "time": "2019-07-09T20:47:00+09:00"}}, {"type": "Feature", "geometry": {"type": "Point", "coordinates": [141.444519, 42.993549]}, "properties": {"action": "警戒出動", "address": "清田区真栄1条2丁目", "time": "2019-07-09T15:28:00+09:00"}}, {"type": "Feature", "geometry": {"type": "Point", "coordinates": [141.310181, 42.986725]}, "properties": {"action": "警戒出動", "address": "南区南沢5条4丁目", "time": "2019-07-09T10:12:00+09:00"}}, {"type": "Feature", "geometry": {"type": "Point", "coordinates": [141.370728, 43.121418]}, "properties": {"action": "警戒出動", "address": "東区北48条東19丁目", "time": "2019-07-09T08:42:00+09:00"}}, {"type": "Feature", "geometry": {"type": "Point", "coordinates": [141.289001, 43.098377]}, "properties": {"action": "警戒出動", "address": "西区発寒12条5丁目", "time": "2019-07-09T03:17:00+09:00"}}, {"type": "Feature", "geometry": {"type": "Point", "coordinates": [141.350235, 42.980774]}, "properties": {"action": "警戒出動", "address": "南区真駒内南町4丁目", "time": "2019-07-09T01:24:00+09:00"}}, {"type": "Feature", "geometry": {"type": "Point", "coordinates": [141.344284, 43.030155]}, "properties": {"action": "ガス漏れ出動", "address": "中央区南22条西11丁目", "time": "2019-07-09T09:23:00+09:00"}}, {"type": "Feature", "geometry": {"type": "Point", "coordinates": [141.307709, 43.122375]}, "properties": {"action": "ガス漏れ出動", "address": "北区新琴似6条15丁目", "time": "2019-07-09T07:32:00+09:00"}}, {"type": "Feature", "geometry": {"type": "Point", "coordinates": [141.367722, 43.144718]}, "properties": {"action": "救急隊支援出動", "address": "北区篠路3条8丁目", "time": "2019-07-09T17:11:00+09:00"}}, {"type": "Feature", "geometry": {"type": "Point", "coordinates": [141.370987, 43.033669]}, "properties": {"action": "救急隊支援出動", "address": "豊平区平岸3条8丁目", "time": "2019-07-09T12:13:00+09:00"}}, {"type": "Feature", "geometry": {"type": "Point", "coordinates": [141.330658, 43.106113]}, "properties": {"action": "救急隊支援出動", "address": "北区新琴似4条1丁目", "time": "2019-07-09T07:43:00+09:00"}}, {"type": "Feature", "geometry": {"type": "Point", "coordinates": [141.329514, 43.004574]}, "properties": {"action": "救急隊支援出動", "address": "南区北ノ沢 付近", "time": "2019-07-09T03:11:00+09:00"}}]}