{"type": "FeatureCollection", "crs": {"type": "name", "properties": {"name": "urn:ogc:def:crs:OGC:1.3:CRS84"}}, "features": [{"type": "Feature", "geometry": {"type": "Point", "coordinates": [141.351456, 43.054001]}, "properties": {"action": "火災出動", "address": "中央区南5条西5丁目", "time": "2019-07-14T22:22:00+09:00"}}, {"type": "Feature", "geometry": {"type": "Point", "coordinates": [141.344757, 43.079582]}, "properties": {"action": "火災出動", "address": "北区北16条西5丁目", "time": "2019-07-14T22:13:00+09:00"}}, {"type": "Feature", "geometry": {"type": "Point", "coordinates": [141.470078, 43.044147]}, "properties": {"action": "救助出動", "address": "厚別区厚別中央4条5丁目", "time": "2019-07-14T21:57:00+09:00"}}, {"type": "Feature", "geometry": {"type": "Point", "coordinates": [141.370178, 43.029427]}, "properties": {"action": "警戒出動", "address": "豊平区平岸3条11丁目", "time": "2019-07-14T14:46:00+09:00"}}, {"type": "Feature", "geometry": {"type": "Point", "coordinates": [141.44664, 43.067028]}, "properties": {"action": "警戒出動", "address": "白石区川下 付近", "time": "2019-07-14T13:45:00+09:00"}}, {"type": "Feature", "geometry": {"type": "Point", "coordinates": [141.396423, 43.021641]}, "properties": {"action": "警戒出動", "address": "豊平区西岡5条1丁目", "time": "2019-07-14T12:23:00+09:00"}}, {"type": "Feature", "geometry": {"type": "Point", "coordinates": [141.306564, 43.100601]}, "properties": {"action": "警戒出動", "address": "西区八軒10条西11丁目", "time": "2019-07-14T10:10:00+09:00"}}, {"type": "Feature", "geometry": {"type": "Point", "coordinates": [141.369507, 43.02599]}, "properties": {"action": "警戒出動", "address": "豊平区平岸3条14丁目", "time": "2019-07-14T08:44:00+09:00"}}, {"type": "Feature", "geometry": {"type": "Point", "coordinates": [141.28009, 43.085796]}, "properties": {"action": "警戒出動", "address": "西区西町北17丁目", "time": "2019-07-14T07:59:00+09:00"}}, {"type": "Feature", "geometry": {"type": "Point", "coordinates": [141.337326, 43.040531]}, "properties": {"action": "ガス漏れ出動", "address": "中央区南14条西14丁目", "time": "2019-07-14T12:27:00+09:00"}}, {"type": "Feature", "geometry": {"type": "Point", "coordinates": [141.390747, 43.032265]}, "properties": {"action": "救急隊支援出動", "address": "豊平区月寒西2条5丁目", "time": "2019-07-14T08:28:00+09:00"}}, {"type": "Feature", "geometry": {"type": "Point", "coordinates": [141.428757, 43.004986]}, "properties": {"action": "救急隊支援出動", "address": "清田区清田2条1丁目", "time": "2019-07-14T06:41:00+09:00"}}, {"type": "Feature", "geometry": {"type": "Point", "coordinates": [141.366577, 43.02739]}, "properties": {"action": "救急隊支援出動", "address": "豊平区平岸2条13丁目", "time": "2019-07-14T05:38:00+09:00"}}]}