{"type": "FeatureCollection", "crs": {"type": "name", "properties": {"name": "urn:ogc:def:crs:OGC:1.3:CRS84"}}, "features": [{"type": "Feature", "geometry": {"type": "Point", "coordinates": [141.355698, 43.055874]}, "properties": {"action": "救助出動", "address": "中央区南4条西2丁目", "time": "2019-07-15T16:40:00+09:00"}}, {"type": "Feature", "geometry": {"type": "Point", "coordinates": [141.365189, 43.084717]}, "properties": {"action": "救助出動", "address": "東区北18条東9丁目", "time": "2019-07-15T09:44:00+09:00"}}, {"type": "Feature", "geometry": {"type": "Point", "coordinates": [141.351028, 43.080448]}, "properties": {"action": "救助出動", "address": "北区北16条西1丁目", "time": "2019-07-15T07:34:00+09:00"}}, {"type": "Feature", "geometry": {"type": "Point", "coordinates": [141.362091, 43.104118]}, "properties": {"action": "救助出動", "address": "東区北34条東10丁目", "time": "2019-07-15T00:28:00+09:00"}}, {"type": "Feature", "geometry": {"type": "Point", "coordinates": [141.282043, 43.091339]}, "properties": {"action": "警戒出動", "address": "西区発寒7条9丁目", "time": "2019-07-15T16:22:00+09:00"}}, {"type": "Feature", "geometry": {"type": "Point", "coordinates": [141.484375, 43.021381]}, "properties": {"action": "警戒出動", "address": "厚別区青葉町16丁目", "time": "2019-07-15T09:10:00+09:00"}}, {"type": "Feature", "geometry": {"type": "Point", "coordinates": [141.325974, 43.053078]}, "properties": {"action": "警戒出動", "address": "中央区南4条西21丁目", "time": "2019-07-15T02:44:00+09:00"}}, {"type": "Feature", "geometry": {"type": "Point", "coordinates": [141.341446, 43.053013]}, "properties": {"action": "警戒出動", "address": "中央区南5条西11丁目", "time": "2019-07-15T01:27:00+09:00"}}, {"type": "Feature", "geometry": {"type": "Point", "coordinates": [141.284103, 43.077271]}, "properties": {"action": "警戒出動", "address": "西区西野1条3丁目", "time": "2019-07-15T00:55:00+09:00"}}, {"type": "Feature", "geometry": {"type": "Point", "coordinates": [141.362122, 43.012741]}, "properties": {"action": "警戒出動", "address": "南区澄川2条4丁目", "time": "2019-07-15T00:42:00+09:00"}}, {"type": "Feature", "geometry": {"type": "Point", "coordinates": [141.397369, 43.065907]}, "properties": {"action": "救急隊支援出動", "address": "白石区菊水元町1条2丁目", "time": "2019-07-15T02:04:00+09:00"}}]}