{"type": "FeatureCollection", "crs": {"type": "name", "properties": {"name": "urn:ogc:def:crs:OGC:1.3:CRS84"}}, "features": [{"type": "Feature", "geometry": {"type": "Point", "coordinates": [141.32222, 43.089672]}, "properties": {"action": "火災出動", "address": "西区八軒10条東2丁目", "time": "2019-07-06T13:30:00+09:00"}}, {"type": "Feature", "geometry": {"type": "Point", "coordinates": [141.350342, 43.098743]}, "properties": {"action": "火災出動", "address": "東区北31条東2丁目", "time": "2019-07-06T08:01:00+09:00"}}, {"type": "Feature", "geometry": {"type": "Point", "coordinates": [141.358307, 43.031158]}, "properties": {"action": "救助出動", "address": "豊平区中の島1条5丁目", "time": "2019-07-06T11:14:00+09:00"}}, {"type": "Feature", "geometry": {"type": "Point", "coordinates": [141.299454, 42.95837]}, "properties": {"action": "警戒出動", "address": "南区藤野4条5丁目", "time": "2019-07-06T21:14:00+09:00"}}, {"type": "Feature", "geometry": {"type": "Point", "coordinates": [141.410416, 43.04335]}, "properties": {"action": "警戒出動", "address": "白石区本郷通6丁目", "time": "2019-07-06T14:42:00+09:00"}}, {"type": "Feature", "geometry": {"type": "Point", "coordinates": [141.453873, 43.0868]}, "properties": {"action": "警戒出動", "address": "白石区東米里 付近", "time": "2019-07-06T08:25:00+09:00"}}, {"type": "Feature", "geometry": {"type": "Point", "coordinates": [141.312775, 43.071877]}, "properties": {"action": "警戒出動", "address": "西区二十四軒2条4丁目", "time": "2019-07-06T01:17:00+09:00"}}, {"type": "Feature", "geometry": {"type": "Point", "coordinates": [141.341888, 42.974037]}, "properties": {"action": "救急隊支援出動", "address": "南区石山1条2丁目", "time": "2019-07-06T13:56:00+09:00"}}, {"type": "Feature", "geometry": {"type": "Point", "coordinates": [141.380264, 42.996513]}, "properties": {"action": "航空隊支援出動", "address": "豊平区西岡4条12丁目", "time": "2019-07-06T12:49:00+09:00"}}]}