{"type": "FeatureCollection", "crs": {"type": "name", "properties": {"name": "urn:ogc:def:crs:OGC:1.3:CRS84"}}, "features": [{"type": "Feature", "geometry": {"type": "Point", "coordinates": [141.25293, 43.13398]}, "properties": {"action": "火災出動", "address": "手稲区前田8条14丁目", "time": "2019-07-23T05:50:00+09:00"}}, {"type": "Feature", "geometry": {"type": "Point", "coordinates": [141.279877, 43.089577]}, "properties": {"action": "車両火災出動", "address": "西区発寒6条9丁目", "time": "2019-07-23T13:43:00+09:00"}}, {"type": "Feature", "geometry": {"type": "Point", "coordinates": [141.368225, 43.042244]}, "properties": {"action": "救助出動", "address": "豊平区平岸2条1丁目", "time": "2019-07-23T21:20:00+09:00"}}, {"type": "Feature", "geometry": {"type": "Point", "coordinates": [141.377655, 43.036797]}, "properties": {"action": "救助出動", "address": "豊平区平岸5条6丁目", "time": "2019-07-23T16:25:00+09:00"}}, {"type": "Feature", "geometry": {"type": "Point", "coordinates": [141.299957, 43.077286]}, "properties": {"action": "救助出動", "address": "西区琴似3条5丁目", "time": "2019-07-23T14:13:00+09:00"}}, {"type": "Feature", "geometry": {"type": "Point", "coordinates": [141.310333, 43.081242]}, "properties": {"action": "救助出動", "address": "西区八軒1条東1丁目", "time": "2019-07-23T12:15:00+09:00"}}, {"type": "Feature", "geometry": {"type": "Point", "coordinates": [141.366821, 43.043488]}, "properties": {"action": "救助出動", "address": "豊平区旭町6丁目", "time": "2019-07-23T09:35:00+09:00"}}, {"type": "Feature", "geometry": {"type": "Point", "coordinates": [141.278473, 42.959827]}, "properties": {"action": "警戒出動", "address": "南区藤野3条11丁目", "time": "2019-07-23T23:30:00+09:00"}}, {"type": "Feature", "geometry": {"type": "Point", "coordinates": [141.288528, 43.111202]}, "properties": {"action": "警戒出動", "address": "西区発寒16条13丁目", "time": "2019-07-23T22:33:00+09:00"}}, {"type": "Feature", "geometry": {"type": "Point", "coordinates": [141.289215, 43.093292]}, "properties": {"action": "警戒出動", "address": "西区発寒10条5丁目", "time": "2019-07-23T21:48:00+09:00"}}, {"type": "Feature", "geometry": {"type": "Point", "coordinates": [141.257828, 43.126835]}, "properties": {"action": "警戒出動", "address": "手稲区前田7条10丁目", "time": "2019-07-23T21:34:00+09:00"}}, {"type": "Feature", "geometry": {"type": "Point", "coordinates": [141.369034, 43.164619]}, "properties": {"action": "救急隊支援出動", "address": "北区篠路町篠路 付近", "time": "2019-07-23T10:40:00+09:00"}}, {"type": "Feature", "geometry": {"type": "Point", "coordinates": [141.336121, 43.051247]}, "properties": {"action": "救急隊支援出動", "address": "中央区南6条西14丁目", "time": "2019-07-23T10:12:00+09:00"}}, {"type": "Feature", "geometry": {"type": "Point", "coordinates": [141.272461, 43.111778]}, "properties": {"action": "救急隊支援出動", "address": "手稲区新発寒4条3丁目", "time": "2019-07-23T01:49:00+09:00"}}, {"type": "Feature", "geometry": {"type": "Point", "coordinates": [141.361816, 43.153412]}, "properties": {"action": "航空隊支援出動", "address": "北区篠路8条5丁目", "time": "2019-07-23T10:46:00+09:00"}}]}