{"type": "FeatureCollection", "crs": {"type": "name", "properties": {"name": "urn:ogc:def:crs:OGC:1.3:CRS84"}}, "features": [{"type": "Feature", "geometry": {"type": "Point", "coordinates": [141.374954, 43.056213]}, "properties": {"action": "火災出動", "address": "白石区菊水3条3丁目", "time": "2019-07-08T08:23:00+09:00"}}, {"type": "Feature", "geometry": {"type": "Point", "coordinates": [141.219574, 43.139454]}, "properties": {"action": "救助出動", "address": "手稲区星置3条1丁目", "time": "2019-07-08T14:47:00+09:00"}}, {"type": "Feature", "geometry": {"type": "Point", "coordinates": [141.340134, 43.033909]}, "properties": {"action": "救助出動", "address": "中央区南19条西13丁目", "time": "2019-07-08T14:18:00+09:00"}}, {"type": "Feature", "geometry": {"type": "Point", "coordinates": [141.350464, 43.088734]}, "properties": {"action": "警戒出動", "address": "東区北22条東1丁目", "time": "2019-07-08T18:43:00+09:00"}}, {"type": "Feature", "geometry": {"type": "Point", "coordinates": [141.239136, 43.147003]}, "properties": {"action": "警戒出動", "address": "手稲区曙11条1丁目", "time": "2019-07-08T15:01:00+09:00"}}, {"type": "Feature", "geometry": {"type": "Point", "coordinates": [141.34285, 43.087704]}, "properties": {"action": "警戒出動", "address": "北区北22条西5丁目", "time": "2019-07-08T06:00:00+09:00"}}, {"type": "Feature", "geometry": {"type": "Point", "coordinates": [141.335159, 43.088161]}, "properties": {"action": "救急隊支援出動", "address": "北区北23条西10丁目", "time": "2019-07-08T21:44:00+09:00"}}, {"type": "Feature", "geometry": {"type": "Point", "coordinates": [141.40126, 43.153629]}, "properties": {"action": "救急隊支援出動", "address": "北区南あいの里6丁目", "time": "2019-07-08T13:45:00+09:00"}}, {"type": "Feature", "geometry": {"type": "Point", "coordinates": [141.330521, 43.087563]}, "properties": {"action": "救急隊支援出動", "address": "北区北23条西13丁目", "time": "2019-07-08T12:33:00+09:00"}}, {"type": "Feature", "geometry": {"type": "Point", "coordinates": [141.350739, 43.056423]}, "properties": {"action": "救急隊支援出動", "address": "中央区南3条西5丁目", "time": "2019-07-08T12:25:00+09:00"}}, {"type": "Feature", "geometry": {"type": "Point", "coordinates": [141.277328, 43.096287]}, "properties": {"action": "救急隊支援出動", "address": "西区発寒8条12丁目", "time": "2019-07-08T11:55:00+09:00"}}, {"type": "Feature", "geometry": {"type": "Point", "coordinates": [141.387039, 43.153893]}, "properties": {"action": "航空隊支援出動", "address": "北区拓北5条5丁目", "time": "2019-07-08T13:49:00+09:00"}}]}