{"type": "FeatureCollection", "crs": {"type": "name", "properties": {"name": "urn:ogc:def:crs:OGC:1.3:CRS84"}}, "features": [{"type": "Feature", "geometry": {"type": "Point", "coordinates": [141.350784, 43.0023]}, "properties": {"action": "火災出動", "address": "南区真駒内曙町1丁目", "time": "2019-07-18T21:17:00+09:00"}}, {"type": "Feature", "geometry": {"type": "Point", "coordinates": [141.439621, 42.982803]}, "properties": {"action": "救助出動", "address": "清田区真栄5条2丁目", "time": "2019-07-18T16:08:00+09:00"}}, {"type": "Feature", "geometry": {"type": "Point", "coordinates": [141.330536, 43.112293]}, "properties": {"action": "救助出動", "address": "北区新琴似7条3丁目", "time": "2019-07-18T00:15:00+09:00"}}, {"type": "Feature", "geometry": {"type": "Point", "coordinates": [141.354233, 42.99007]}, "properties": {"action": "警戒出動", "address": "南区真駒内幸町2丁目", "time": "2019-07-18T23:59:00+09:00"}}, {"type": "Feature", "geometry": {"type": "Point", "coordinates": [141.382004, 43.098137]}, "properties": {"action": "警戒出動", "address": "東区北26条東20丁目", "time": "2019-07-18T19:21:00+09:00"}}, {"type": "Feature", "geometry": {"type": "Point", "coordinates": [141.46637, 42.974842]}, "properties": {"action": "警戒出動", "address": "清田区美しが丘3条10丁目", "time": "2019-07-18T18:14:00+09:00"}}, {"type": "Feature", "geometry": {"type": "Point", "coordinates": [141.305023, 43.079296]}, "properties": {"action": "警戒出動", "address": "西区琴似2条2丁目", "time": "2019-07-18T14:55:00+09:00"}}, {"type": "Feature", "geometry": {"type": "Point", "coordinates": [141.354996, 43.052193]}, "properties": {"action": "警戒出動", "address": "中央区南7条西3丁目", "time": "2019-07-18T12:37:00+09:00"}}, {"type": "Feature", "geometry": {"type": "Point", "coordinates": [141.245178, 43.117725]}, "properties": {"action": "警戒出動", "address": "手稲区手稲本町1条2丁目", "time": "2019-07-18T05:32:00+09:00"}}, {"type": "Feature", "geometry": {"type": "Point", "coordinates": [141.11644, 42.952518]}, "properties": {"action": "警戒出動", "address": "南区定山渓 付近", "time": "2019-07-18T04:37:00+09:00"}}, {"type": "Feature", "geometry": {"type": "Point", "coordinates": [141.353134, 43.053185]}, "properties": {"action": "警戒出動", "address": "中央区南6条西4丁目", "time": "2019-07-18T02:41:00+09:00"}}, {"type": "Feature", "geometry": {"type": "Point", "coordinates": [141.358307, 43.058006]}, "properties": {"action": "警戒出動", "address": "中央区南3条東1丁目", "time": "2019-07-18T01:54:00+09:00"}}, {"type": "Feature", "geometry": {"type": "Point", "coordinates": [141.209457, 42.970699]}, "properties": {"action": "救急隊支援出動", "address": "南区小金湯 付近", "time": "2019-07-18T12:37:00+09:00"}}, {"type": "Feature", "geometry": {"type": "Point", "coordinates": [141.377884, 43.102909]}, "properties": {"action": "救急隊支援出動", "address": "東区北31条東19丁目", "time": "2019-07-18T12:02:00+09:00"}}, {"type": "Feature", "geometry": {"type": "Point", "coordinates": [141.353851, 43.062504]}, "properties": {"action": "救急隊支援出動", "address": "中央区北1条西2丁目", "time": "2019-07-18T11:56:00+09:00"}}, {"type": "Feature", "geometry": {"type": "Point", "coordinates": [141.367844, 43.1441]}, "properties": {"action": "救急隊支援出動", "address": "北区篠路3条8丁目", "time": "2019-07-18T01:29:00+09:00"}}, {"type": "Feature", "geometry": {"type": "Point", "coordinates": [141.218079, 42.928345]}, "properties": {"action": "航空隊支援出動", "address": "南区豊滝 付近", "time": "2019-07-18T12:43:00+09:00"}}]}