{"type": "FeatureCollection", "crs": {"type": "name", "properties": {"name": "urn:ogc:def:crs:OGC:1.3:CRS84"}}, "features": [{"type": "Feature", "geometry": {"type": "Point", "coordinates": [141.397003, 43.075924]}, "properties": {"action": "火災出動", "address": "東区本町2条9丁目", "time": "2019-03-02T00:35:00+09:00"}}, {"type": "Feature", "geometry": {"type": "Point", "coordinates": [141.36113, 43.034538]}, "properties": {"action": "救助出動", "address": "豊平区中の島2条3丁目", "time": "2019-03-02T22:20:00+09:00"}}, {"type": "Feature", "geometry": {"type": "Point", "coordinates": [141.496994, 43.026096]}, "properties": {"action": "救助出動", "address": "厚別区もみじ台南4丁目", "time": "2019-03-02T20:16:00+09:00"}}, {"type": "Feature", "geometry": {"type": "Point", "coordinates": [141.410492, 43.051991]}, "properties": {"action": "救助出動", "address": "白石区平和通3丁目", "time": "2019-03-02T18:52:00+09:00"}}, {"type": "Feature", "geometry": {"type": "Point", "coordinates": [141.33728, 43.040592]}, "properties": {"action": "救助出動", "address": "中央区南14条西14丁目", "time": "2019-03-02T10:52:00+09:00"}}, {"type": "Feature", "geometry": {"type": "Point", "coordinates": [141.289001, 43.098377]}, "properties": {"action": "救助出動", "address": "西区発寒12条5丁目", "time": "2019-03-02T07:38:00+09:00"}}, {"type": "Feature", "geometry": {"type": "Point", "coordinates": [141.362534, 43.043137]}, "properties": {"action": "警戒出動", "address": "豊平区水車町7丁目", "time": "2019-03-02T22:32:00+09:00"}}, {"type": "Feature", "geometry": {"type": "Point", "coordinates": [141.33992, 43.087341]}, "properties": {"action": "警戒出動", "address": "北区北22条西7丁目", "time": "2019-03-02T21:35:00+09:00"}}, {"type": "Feature", "geometry": {"type": "Point", "coordinates": [141.351669, 43.05172]}, "properties": {"action": "警戒出動", "address": "中央区南7条西5丁目", "time": "2019-03-02T20:39:00+09:00"}}, {"type": "Feature", "geometry": {"type": "Point", "coordinates": [141.368744, 43.039856]}, "properties": {"action": "警戒出動", "address": "豊平区平岸2条3丁目", "time": "2019-03-02T19:36:00+09:00"}}, {"type": "Feature", "geometry": {"type": "Point", "coordinates": [141.368744, 43.039856]}, "properties": {"action": "警戒出動", "address": "豊平区平岸2条3丁目", "time": "2019-03-02T18:32:00+09:00"}}, {"type": "Feature", "geometry": {"type": "Point", "coordinates": [141.365891, 43.112186]}, "properties": {"action": "警戒出動", "address": "東区北41条東15丁目", "time": "2019-03-02T18:25:00+09:00"}}, {"type": "Feature", "geometry": {"type": "Point", "coordinates": [141.328812, 43.050518]}, "properties": {"action": "警戒出動", "address": "中央区南6条西18丁目", "time": "2019-03-02T18:11:00+09:00"}}, {"type": "Feature", "geometry": {"type": "Point", "coordinates": [141.438416, 43.061981]}, "properties": {"action": "警戒出動", "address": "白石区川北3条3丁目", "time": "2019-03-02T13:05:00+09:00"}}, {"type": "Feature", "geometry": {"type": "Point", "coordinates": [141.410873, 43.0364]}, "properties": {"action": "警戒出動", "address": "白石区栄通8丁目", "time": "2019-03-02T10:31:00+09:00"}}, {"type": "Feature", "geometry": {"type": "Point", "coordinates": [141.410736, 43.059666]}, "properties": {"action": "警戒出動", "address": "白石区北郷2条3丁目", "time": "2019-03-02T08:20:00+09:00"}}, {"type": "Feature", "geometry": {"type": "Point", "coordinates": [141.472839, 43.03614]}, "properties": {"action": "警戒出動", "address": "厚別区厚別中央1条5丁目", "time": "2019-03-02T07:42:00+09:00"}}, {"type": "Feature", "geometry": {"type": "Point", "coordinates": [141.410812, 43.071934]}, "properties": {"action": "警戒出動", "address": "白石区菊水元町7条2丁目", "time": "2019-03-02T00:53:00+09:00"}}, {"type": "Feature", "geometry": {"type": "Point", "coordinates": [141.300079, 43.083523]}, "properties": {"action": "救急隊支援出動", "address": "西区発寒3条1丁目", "time": "2019-03-02T19:26:00+09:00"}}]}