{"type": "FeatureCollection", "crs": {"type": "name", "properties": {"name": "urn:ogc:def:crs:OGC:1.3:CRS84"}}, "features": [{"type": "Feature", "geometry": {"type": "Point", "coordinates": [141.304062, 43.061893]}, "properties": {"action": "火災出動", "address": "中央区宮の森3条7丁目", "time": "2019-03-18T17:48:00+09:00"}}, {"type": "Feature", "geometry": {"type": "Point", "coordinates": [141.267517, 43.02198]}, "properties": {"action": "火災出動", "address": "中央区盤渓 付近", "time": "2019-03-18T15:25:00+09:00"}}, {"type": "Feature", "geometry": {"type": "Point", "coordinates": [141.394089, 43.095989]}, "properties": {"action": "車両火災出動", "address": "東区伏古10条2丁目", "time": "2019-03-18T23:46:00+09:00"}}, {"type": "Feature", "geometry": {"type": "Point", "coordinates": [141.305069, 43.11253]}, "properties": {"action": "救助出動", "address": "北区新琴似1条13丁目", "time": "2019-03-18T20:37:00+09:00"}}, {"type": "Feature", "geometry": {"type": "Point", "coordinates": [141.398697, 43.090351]}, "properties": {"action": "救助出動", "address": "東区伏古8条5丁目", "time": "2019-03-18T11:53:00+09:00"}}, {"type": "Feature", "geometry": {"type": "Point", "coordinates": [141.356476, 43.059467]}, "properties": {"action": "救助出動", "address": "中央区南1条西1丁目", "time": "2019-03-18T06:02:00+09:00"}}, {"type": "Feature", "geometry": {"type": "Point", "coordinates": [141.195969, 43.100754]}, "properties": {"action": "山岳救助出動", "address": "手稲区手稲金山 付近", "time": "2019-03-18T13:15:00+09:00"}}, {"type": "Feature", "geometry": {"type": "Point", "coordinates": [141.477371, 43.006981]}, "properties": {"action": "警戒出動", "address": "清田区平岡公園東7丁目", "time": "2019-03-18T21:06:00+09:00"}}, {"type": "Feature", "geometry": {"type": "Point", "coordinates": [141.367401, 43.01226]}, "properties": {"action": "警戒出動", "address": "南区澄川4条4丁目", "time": "2019-03-18T20:41:00+09:00"}}, {"type": "Feature", "geometry": {"type": "Point", "coordinates": [141.300919, 43.087379]}, "properties": {"action": "救急隊支援出動", "address": "西区発寒10条1丁目", "time": "2019-03-18T20:28:00+09:00"}}, {"type": "Feature", "geometry": {"type": "Point", "coordinates": [141.358002, 43.06818]}, "properties": {"action": "救急隊支援出動", "address": "中央区北5条東2丁目", "time": "2019-03-18T18:31:00+09:00"}}, {"type": "Feature", "geometry": {"type": "Point", "coordinates": [141.449814, 42.997669]}, "properties": {"action": "救急隊支援出動", "address": "清田区平岡2条3丁目", "time": "2019-03-18T08:32:00+09:00"}}, {"type": "Feature", "geometry": {"type": "Point", "coordinates": [141.353867, 43.050583]}, "properties": {"action": "救急隊支援出動", "address": "中央区南8条西4丁目", "time": "2019-03-18T00:27:00+09:00"}}, {"type": "Feature", "geometry": {"type": "Point", "coordinates": [141.439896, 43.005226]}, "properties": {"action": "航空隊支援出動", "address": "清田区清田1条2丁目", "time": "2019-03-18T08:33:00+09:00"}}]}