{"type": "FeatureCollection", "crs": {"type": "name", "properties": {"name": "urn:ogc:def:crs:OGC:1.3:CRS84"}}, "features": [{"type": "Feature", "geometry": {"type": "Point", "coordinates": [141.303741, 43.078091]}, "properties": {"action": "火災出動", "address": "西区琴似2条3丁目", "time": "2019-03-15T09:37:00+09:00"}}, {"type": "Feature", "geometry": {"type": "Point", "coordinates": [141.466843, 43.015263]}, "properties": {"action": "火災出動", "address": "厚別区上野幌3条2丁目", "time": "2019-03-15T08:51:00+09:00"}}, {"type": "Feature", "geometry": {"type": "Point", "coordinates": [141.403549, 43.103703]}, "properties": {"action": "救助出動", "address": "東区伏古14条3丁目", "time": "2019-03-15T11:11:00+09:00"}}, {"type": "Feature", "geometry": {"type": "Point", "coordinates": [141.343323, 43.046413]}, "properties": {"action": "救助出動", "address": "中央区南10条西10丁目", "time": "2019-03-15T08:07:00+09:00"}}, {"type": "Feature", "geometry": {"type": "Point", "coordinates": [141.233246, 43.123306]}, "properties": {"action": "警戒出動", "address": "手稲区稲穂1条1丁目", "time": "2019-03-15T22:25:00+09:00"}}, {"type": "Feature", "geometry": {"type": "Point", "coordinates": [141.332611, 42.989025]}, "properties": {"action": "警戒出動", "address": "南区川沿7条2丁目", "time": "2019-03-15T19:33:00+09:00"}}, {"type": "Feature", "geometry": {"type": "Point", "coordinates": [141.325302, 43.0616]}, "properties": {"action": "警戒出動", "address": "中央区北3条西20丁目", "time": "2019-03-15T17:52:00+09:00"}}, {"type": "Feature", "geometry": {"type": "Point", "coordinates": [141.420166, 43.06736]}, "properties": {"action": "警戒出動", "address": "白石区北郷8条3丁目", "time": "2019-03-15T14:45:00+09:00"}}, {"type": "Feature", "geometry": {"type": "Point", "coordinates": [141.368591, 43.022026]}, "properties": {"action": "警戒出動", "address": "豊平区平岸3条17丁目", "time": "2019-03-15T13:52:00+09:00"}}, {"type": "Feature", "geometry": {"type": "Point", "coordinates": [141.344498, 43.093323]}, "properties": {"action": "警戒出動", "address": "北区北26条西3丁目", "time": "2019-03-15T13:41:00+09:00"}}, {"type": "Feature", "geometry": {"type": "Point", "coordinates": [141.339569, 43.094631]}, "properties": {"action": "警戒出動", "address": "北区北28条西6丁目", "time": "2019-03-15T13:05:00+09:00"}}, {"type": "Feature", "geometry": {"type": "Point", "coordinates": [141.384491, 43.154427]}, "properties": {"action": "救急隊支援出動", "address": "北区拓北5条4丁目", "time": "2019-03-15T21:31:00+09:00"}}, {"type": "Feature", "geometry": {"type": "Point", "coordinates": [141.414917, 43.037788]}, "properties": {"action": "救急隊支援出動", "address": "白石区南郷通9丁目", "time": "2019-03-15T15:04:00+09:00"}}, {"type": "Feature", "geometry": {"type": "Point", "coordinates": [141.33728, 42.982533]}, "properties": {"action": "救急隊支援出動", "address": "南区川沿11条1丁目", "time": "2019-03-15T13:30:00+09:00"}}, {"type": "Feature", "geometry": {"type": "Point", "coordinates": [141.385544, 43.011269]}, "properties": {"action": "救急隊支援出動", "address": "豊平区西岡3条7丁目", "time": "2019-03-15T11:20:00+09:00"}}, {"type": "Feature", "geometry": {"type": "Point", "coordinates": [141.365768, 43.107655]}, "properties": {"action": "救急隊支援出動", "address": "東区北37条東14丁目", "time": "2019-03-15T10:25:00+09:00"}}, {"type": "Feature", "geometry": {"type": "Point", "coordinates": [141.339661, 43.051979]}, "properties": {"action": "救急隊支援出動", "address": "中央区南6条西12丁目", "time": "2019-03-15T08:44:00+09:00"}}, {"type": "Feature", "geometry": {"type": "Point", "coordinates": [141.390778, 43.160347]}, "properties": {"action": "航空隊支援出動", "address": "北区あいの里2条3丁目", "time": "2019-03-15T16:45:00+09:00"}}, {"type": "Feature", "geometry": {"type": "Point", "coordinates": [141.390778, 43.160347]}, "properties": {"action": "航空隊支援出動", "address": "北区あいの里2条3丁目", "time": "2019-03-15T11:41:00+09:00"}}, {"type": "Feature", "geometry": {"type": "Point", "coordinates": [141.439896, 43.005226]}, "properties": {"action": "航空隊支援出動", "address": "清田区清田1条2丁目", "time": "2019-03-15T11:38:00+09:00"}}]}