{"type": "FeatureCollection", "crs": {"type": "name", "properties": {"name": "urn:ogc:def:crs:OGC:1.3:CRS84"}}, "features": [{"type": "Feature", "geometry": {"type": "Point", "coordinates": [141.381302, 43.060711]}, "properties": {"action": "火災出動", "address": "白石区菊水8条2丁目", "time": "2019-03-25T15:24:00+09:00"}}, {"type": "Feature", "geometry": {"type": "Point", "coordinates": [141.485916, 43.043743]}, "properties": {"action": "救助出動", "address": "厚別区厚別東2条4丁目", "time": "2019-03-25T17:34:00+09:00"}}, {"type": "Feature", "geometry": {"type": "Point", "coordinates": [141.431458, 43.035294]}, "properties": {"action": "救助出動", "address": "白石区本通16丁目", "time": "2019-03-25T17:24:00+09:00"}}, {"type": "Feature", "geometry": {"type": "Point", "coordinates": [141.41127, 43.046909]}, "properties": {"action": "救助出動", "address": "白石区本通5丁目", "time": "2019-03-25T04:28:00+09:00"}}, {"type": "Feature", "geometry": {"type": "Point", "coordinates": [141.354309, 43.063042]}, "properties": {"action": "救助出動", "address": "高速道路(札樽下り)", "time": "2019-03-25T00:36:00+09:00"}}, {"type": "Feature", "geometry": {"type": "Point", "coordinates": [141.255585, 43.110184]}, "properties": {"action": "警戒出動", "address": "手稲区富丘1条4丁目", "time": "2019-03-25T20:59:00+09:00"}}, {"type": "Feature", "geometry": {"type": "Point", "coordinates": [141.426849, 43.002483]}, "properties": {"action": "警戒出動", "address": "清田区清田3条1丁目", "time": "2019-03-25T20:09:00+09:00"}}, {"type": "Feature", "geometry": {"type": "Point", "coordinates": [141.355331, 43.057011]}, "properties": {"action": "警戒出動", "address": "中央区南3条西2丁目", "time": "2019-03-25T18:34:00+09:00"}}, {"type": "Feature", "geometry": {"type": "Point", "coordinates": [141.349045, 43.093922]}, "properties": {"action": "警戒出動", "address": "東区北26条東1丁目", "time": "2019-03-25T15:46:00+09:00"}}, {"type": "Feature", "geometry": {"type": "Point", "coordinates": [141.432266, 43.002758]}, "properties": {"action": "警戒出動", "address": "清田区清田2条2丁目", "time": "2019-03-25T13:57:00+09:00"}}, {"type": "Feature", "geometry": {"type": "Point", "coordinates": [141.306595, 43.099384]}, "properties": {"action": "警戒出動", "address": "西区八軒10条西10丁目", "time": "2019-03-25T13:18:00+09:00"}}, {"type": "Feature", "geometry": {"type": "Point", "coordinates": [141.375153, 43.035473]}, "properties": {"action": "警戒出動", "address": "豊平区平岸4条7丁目", "time": "2019-03-25T12:32:00+09:00"}}, {"type": "Feature", "geometry": {"type": "Point", "coordinates": [141.375748, 43.049583]}, "properties": {"action": "警戒出動", "address": "豊平区豊平3条8丁目", "time": "2019-03-25T10:56:00+09:00"}}, {"type": "Feature", "geometry": {"type": "Point", "coordinates": [141.456375, 42.977528]}, "properties": {"action": "救急隊支援出動", "address": "清田区美しが丘4条6丁目", "time": "2019-03-25T19:39:00+09:00"}}, {"type": "Feature", "geometry": {"type": "Point", "coordinates": [141.353867, 43.050583]}, "properties": {"action": "救急隊支援出動", "address": "中央区南8条西4丁目", "time": "2019-03-25T18:56:00+09:00"}}, {"type": "Feature", "geometry": {"type": "Point", "coordinates": [141.305939, 43.1231]}, "properties": {"action": "救急隊支援出動", "address": "北区新琴似6条16丁目", "time": "2019-03-25T18:35:00+09:00"}}, {"type": "Feature", "geometry": {"type": "Point", "coordinates": [141.349289, 43.068562]}, "properties": {"action": "救急隊支援出動", "address": "北区北6条西4丁目", "time": "2019-03-25T09:03:00+09:00"}}, {"type": "Feature", "geometry": {"type": "Point", "coordinates": [141.329483, 42.949112]}, "properties": {"action": "救急隊支援出動", "address": "南区石山 付近", "time": "2019-03-25T08:58:00+09:00"}}, {"type": "Feature", "geometry": {"type": "Point", "coordinates": [141.285995, 43.071655]}, "properties": {"action": "救急隊支援出動", "address": "西区山の手7条7丁目", "time": "2019-03-25T06:48:00+09:00"}}, {"type": "Feature", "geometry": {"type": "Point", "coordinates": [141.356781, 43.05695]}, "properties": {"action": "救急隊支援出動", "address": "中央区南3条西1丁目", "time": "2019-03-25T05:49:00+09:00"}}, {"type": "Feature", "geometry": {"type": "Point", "coordinates": [141.470673, 43.042297]}, "properties": {"action": "航空隊支援出動", "address": "厚別区厚別中央3条5丁目", "time": "2019-03-25T14:59:00+09:00"}}]}