{"type": "FeatureCollection", "crs": {"type": "name", "properties": {"name": "urn:ogc:def:crs:OGC:1.3:CRS84"}}, "features": [{"type": "Feature", "geometry": {"type": "Point", "coordinates": [141.342972, 43.054455]}, "properties": {"action": "火災出動", "address": "中央区南4条西10丁目", "time": "2019-03-21T04:08:00+09:00"}}, {"type": "Feature", "geometry": {"type": "Point", "coordinates": [141.21106, 43.123528]}, "properties": {"action": "車両火災出動", "address": "手稲区稲穂5条7丁目", "time": "2019-03-21T15:41:00+09:00"}}, {"type": "Feature", "geometry": {"type": "Point", "coordinates": [141.308472, 43.075912]}, "properties": {"action": "救助出動", "address": "西区二十四軒4条3丁目", "time": "2019-03-21T18:19:00+09:00"}}, {"type": "Feature", "geometry": {"type": "Point", "coordinates": [141.402802, 43.039326]}, "properties": {"action": "救助出動", "address": "白石区栄通5丁目", "time": "2019-03-21T14:50:00+09:00"}}, {"type": "Feature", "geometry": {"type": "Point", "coordinates": [141.480988, 43.031872]}, "properties": {"action": "救助出動", "address": "厚別区青葉町13丁目", "time": "2019-03-21T14:16:00+09:00"}}, {"type": "Feature", "geometry": {"type": "Point", "coordinates": [141.402863, 43.037457]}, "properties": {"action": "救助出動", "address": "豊平区月寒東3条4丁目", "time": "2019-03-21T09:04:00+09:00"}}, {"type": "Feature", "geometry": {"type": "Point", "coordinates": [141.40686, 43.029331]}, "properties": {"action": "警戒出動", "address": "豊平区月寒東3条10丁目", "time": "2019-03-21T22:38:00+09:00"}}, {"type": "Feature", "geometry": {"type": "Point", "coordinates": [141.443893, 42.991756]}, "properties": {"action": "警戒出動", "address": "清田区真栄2条2丁目", "time": "2019-03-21T21:11:00+09:00"}}, {"type": "Feature", "geometry": {"type": "Point", "coordinates": [141.379639, 43.027763]}, "properties": {"action": "警戒出動", "address": "豊平区平岸6条12丁目", "time": "2019-03-21T19:10:00+09:00"}}, {"type": "Feature", "geometry": {"type": "Point", "coordinates": [141.287796, 43.09729]}, "properties": {"action": "警戒出動", "address": "西区発寒11条6丁目", "time": "2019-03-21T18:04:00+09:00"}}, {"type": "Feature", "geometry": {"type": "Point", "coordinates": [141.437531, 43.052608]}, "properties": {"action": "警戒出動", "address": "白石区北郷4条12丁目", "time": "2019-03-21T17:59:00+09:00"}}, {"type": "Feature", "geometry": {"type": "Point", "coordinates": [141.311783, 43.041065]}, "properties": {"action": "警戒出動", "address": "中央区双子山4丁目", "time": "2019-03-21T16:02:00+09:00"}}, {"type": "Feature", "geometry": {"type": "Point", "coordinates": [141.24556, 43.117481]}, "properties": {"action": "警戒出動", "address": "手稲区手稲本町1条2丁目", "time": "2019-03-21T15:51:00+09:00"}}, {"type": "Feature", "geometry": {"type": "Point", "coordinates": [141.453873, 43.0868]}, "properties": {"action": "警戒出動", "address": "白石区東米里　 付近", "time": "2019-03-21T14:52:00+09:00"}}, {"type": "Feature", "geometry": {"type": "Point", "coordinates": [141.325348, 43.083633]}, "properties": {"action": "警戒出動", "address": "西区八軒7条東5丁目", "time": "2019-03-21T12:33:00+09:00"}}, {"type": "Feature", "geometry": {"type": "Point", "coordinates": [141.283279, 43.07991]}, "properties": {"action": "警戒出動", "address": "西区西町南11丁目", "time": "2019-03-21T03:09:00+09:00"}}, {"type": "Feature", "geometry": {"type": "Point", "coordinates": [141.353271, 43.051853]}, "properties": {"action": "警戒出動", "address": "中央区南7条西4丁目", "time": "2019-03-21T01:55:00+09:00"}}, {"type": "Feature", "geometry": {"type": "Point", "coordinates": [141.323059, 43.101646]}, "properties": {"action": "救急隊支援出動", "address": "北区新川5条3丁目", "time": "2019-03-21T18:31:00+09:00"}}, {"type": "Feature", "geometry": {"type": "Point", "coordinates": [141.226974, 43.117218]}, "properties": {"action": "救急隊支援出動", "address": "手稲区稲穂5条2丁目", "time": "2019-03-21T15:34:00+09:00"}}, {"type": "Feature", "geometry": {"type": "Point", "coordinates": [141.33728, 43.110828]}, "properties": {"action": "救急隊支援出動", "address": "北区麻生町5丁目", "time": "2019-03-21T10:54:00+09:00"}}, {"type": "Feature", "geometry": {"type": "Point", "coordinates": [141.360733, 43.147247]}, "properties": {"action": "救急隊支援出動", "address": "北区篠路4条5丁目", "time": "2019-03-21T03:47:00+09:00"}}]}