{"type": "FeatureCollection", "crs": {"type": "name", "properties": {"name": "urn:ogc:def:crs:OGC:1.3:CRS84"}}, "features": [{"type": "Feature", "geometry": {"type": "Point", "coordinates": [141.38916, 43.087437]}, "properties": {"action": "救助出動", "address": "東区伏古4条2丁目", "time": "2019-04-20T12:54:00+09:00"}}, {"type": "Feature", "geometry": {"type": "Point", "coordinates": [141.334991, 43.108418]}, "properties": {"action": "救助出動", "address": "北区北39条西7丁目", "time": "2019-04-20T12:29:00+09:00"}}, {"type": "Feature", "geometry": {"type": "Point", "coordinates": [141.344467, 43.039448]}, "properties": {"action": "救助出動", "address": "中央区南15条西10丁目", "time": "2019-04-20T10:11:00+09:00"}}, {"type": "Feature", "geometry": {"type": "Point", "coordinates": [141.384903, 42.997166]}, "properties": {"action": "救助出動", "address": "豊平区西岡5条11丁目", "time": "2019-04-20T08:19:00+09:00"}}, {"type": "Feature", "geometry": {"type": "Point", "coordinates": [141.338455, 43.066998]}, "properties": {"action": "救助出動", "address": "中央区北6条西11丁目", "time": "2019-04-20T03:32:00+09:00"}}, {"type": "Feature", "geometry": {"type": "Point", "coordinates": [141.379303, 43.024151]}, "properties": {"action": "警戒出動", "address": "豊平区平岸6条14丁目", "time": "2019-04-20T19:22:00+09:00"}}, {"type": "Feature", "geometry": {"type": "Point", "coordinates": [141.320786, 43.064407]}, "properties": {"action": "警戒出動", "address": "中央区北6条西23丁目", "time": "2019-04-20T18:05:00+09:00"}}, {"type": "Feature", "geometry": {"type": "Point", "coordinates": [141.355469, 42.943344]}, "properties": {"action": "警戒出動", "address": "南区真駒内 付近", "time": "2019-04-20T17:49:00+09:00"}}, {"type": "Feature", "geometry": {"type": "Point", "coordinates": [141.206345, 43.129051]}, "properties": {"action": "警戒出動", "address": "手稲区金山1条2丁目", "time": "2019-04-20T16:13:00+09:00"}}, {"type": "Feature", "geometry": {"type": "Point", "coordinates": [141.371185, 43.012299]}, "properties": {"action": "警戒出動", "address": "南区澄川5条4丁目", "time": "2019-04-20T15:38:00+09:00"}}, {"type": "Feature", "geometry": {"type": "Point", "coordinates": [141.428879, 42.99905]}, "properties": {"action": "警戒出動", "address": "清田区清田4条2丁目", "time": "2019-04-20T12:16:00+09:00"}}, {"type": "Feature", "geometry": {"type": "Point", "coordinates": [141.328354, 42.988918]}, "properties": {"action": "警戒出動", "address": "南区川沿7条4丁目", "time": "2019-04-20T11:36:00+09:00"}}, {"type": "Feature", "geometry": {"type": "Point", "coordinates": [141.221146, 43.143658]}, "properties": {"action": "警戒出動", "address": "手稲区手稲山口 付近", "time": "2019-04-20T07:12:00+09:00"}}, {"type": "Feature", "geometry": {"type": "Point", "coordinates": [141.314041, 43.058716]}, "properties": {"action": "救急隊支援出動", "address": "中央区北2条西28丁目", "time": "2019-04-20T23:03:00+09:00"}}, {"type": "Feature", "geometry": {"type": "Point", "coordinates": [141.427368, 43.125954]}, "properties": {"action": "救急隊支援出動", "address": "東区モエレ沼公園 付近", "time": "2019-04-20T15:49:00+09:00"}}, {"type": "Feature", "geometry": {"type": "Point", "coordinates": [141.394028, 43.029961]}, "properties": {"action": "救急隊支援出動", "address": "豊平区月寒西1条7丁目", "time": "2019-04-20T08:51:00+09:00"}}, {"type": "Feature", "geometry": {"type": "Point", "coordinates": [141.43251, 43.096806]}, "properties": {"action": "救急隊支援出動", "address": "東区東雁来11条4丁目", "time": "2019-04-20T07:58:00+09:00"}}, {"type": "Feature", "geometry": {"type": "Point", "coordinates": [141.299759, 42.94598]}, "properties": {"action": "航空隊支援出動", "address": "南区藤野 付近", "time": "2019-04-20T16:44:00+09:00"}}, {"type": "Feature", "geometry": {"type": "Point", "coordinates": [141.456223, 42.992607]}, "properties": {"action": "航空隊支援出動", "address": "清田区平岡2条6丁目", "time": "2019-04-20T14:43:00+09:00"}}]}