{"type": "FeatureCollection", "crs": {"type": "name", "properties": {"name": "urn:ogc:def:crs:OGC:1.3:CRS84"}}, "features": [{"type": "Feature", "geometry": {"type": "Point", "coordinates": [141.340424, 43.102245]}, "properties": {"action": "火災出動", "address": "北区北35条西4丁目", "time": "2019-04-04T20:16:00+09:00"}}, {"type": "Feature", "geometry": {"type": "Point", "coordinates": [141.276199, 43.087761]}, "properties": {"action": "火災出動", "address": "西区西町北20丁目", "time": "2019-04-04T20:00:00+09:00"}}, {"type": "Feature", "geometry": {"type": "Point", "coordinates": [141.37616, 43.087749]}, "properties": {"action": "火災出動", "address": "東区北19条東17丁目", "time": "2019-04-04T17:21:00+09:00"}}, {"type": "Feature", "geometry": {"type": "Point", "coordinates": [141.407288, 43.127087]}, "properties": {"action": "火災出動", "address": "東区北丘珠3条3丁目", "time": "2019-04-04T11:58:00+09:00"}}, {"type": "Feature", "geometry": {"type": "Point", "coordinates": [141.396622, 43.04475]}, "properties": {"action": "車両火災出動", "address": "白石区南郷通1丁目", "time": "2019-04-04T20:18:00+09:00"}}, {"type": "Feature", "geometry": {"type": "Point", "coordinates": [141.333008, 43.119297]}, "properties": {"action": "車両火災出動", "address": "北区新琴似11条5丁目", "time": "2019-04-04T19:55:00+09:00"}}, {"type": "Feature", "geometry": {"type": "Point", "coordinates": [141.281342, 43.07024]}, "properties": {"action": "救助出動", "address": "西区西野4条1丁目", "time": "2019-04-04T12:47:00+09:00"}}, {"type": "Feature", "geometry": {"type": "Point", "coordinates": [141.369873, 43.058556]}, "properties": {"action": "救助出動", "address": "白石区菊水2条1丁目", "time": "2019-04-04T09:35:00+09:00"}}, {"type": "Feature", "geometry": {"type": "Point", "coordinates": [141.370987, 43.033669]}, "properties": {"action": "救助出動", "address": "豊平区平岸3条8丁目", "time": "2019-04-04T09:12:00+09:00"}}, {"type": "Feature", "geometry": {"type": "Point", "coordinates": [141.442795, 42.989708]}, "properties": {"action": "救助出動", "address": "清田区真栄3条2丁目", "time": "2019-04-04T09:04:00+09:00"}}, {"type": "Feature", "geometry": {"type": "Point", "coordinates": [141.35704, 43.084957]}, "properties": {"action": "救助出動", "address": "東区北19条東4丁目", "time": "2019-04-04T08:12:00+09:00"}}, {"type": "Feature", "geometry": {"type": "Point", "coordinates": [141.347183, 43.01046]}, "properties": {"action": "水難救助出動", "address": "南区南35条西10丁目", "time": "2019-04-04T10:08:00+09:00"}}, {"type": "Feature", "geometry": {"type": "Point", "coordinates": [141.302261, 43.106457]}, "properties": {"action": "警戒出動", "address": "北区新川2条12丁目", "time": "2019-04-04T20:36:00+09:00"}}, {"type": "Feature", "geometry": {"type": "Point", "coordinates": [141.339813, 43.105892]}, "properties": {"action": "警戒出動", "address": "北区北38条西4丁目", "time": "2019-04-04T14:57:00+09:00"}}, {"type": "Feature", "geometry": {"type": "Point", "coordinates": [141.441086, 43.037571]}, "properties": {"action": "警戒出動", "address": "白石区流通ｾﾝﾀｰ1丁目", "time": "2019-04-04T11:59:00+09:00"}}, {"type": "Feature", "geometry": {"type": "Point", "coordinates": [141.433853, 43.033978]}, "properties": {"action": "警戒出動", "address": "白石区本通17丁目", "time": "2019-04-04T09:54:00+09:00"}}, {"type": "Feature", "geometry": {"type": "Point", "coordinates": [141.252258, 43.107674]}, "properties": {"action": "警戒出動", "address": "手稲区富丘2条4丁目", "time": "2019-04-04T07:04:00+09:00"}}, {"type": "Feature", "geometry": {"type": "Point", "coordinates": [141.334579, 43.120834]}, "properties": {"action": "救急隊支援出動", "address": "北区新琴似12条5丁目", "time": "2019-04-04T19:07:00+09:00"}}, {"type": "Feature", "geometry": {"type": "Point", "coordinates": [141.330429, 43.066959]}, "properties": {"action": "救急隊支援出動", "address": "中央区北7条西16丁目", "time": "2019-04-04T12:31:00+09:00"}}]}