{"type": "FeatureCollection", "crs": {"type": "name", "properties": {"name": "urn:ogc:def:crs:OGC:1.3:CRS84"}}, "features": [{"type": "Feature", "geometry": {"type": "Point", "coordinates": [141.34137, 43.039139]}, "properties": {"action": "火災出動", "address": "中央区南15条西12丁目", "time": "2019-04-03T21:06:00+09:00"}}, {"type": "Feature", "geometry": {"type": "Point", "coordinates": [141.252258, 43.107674]}, "properties": {"action": "救助出動", "address": "手稲区富丘2条4丁目", "time": "2019-04-03T23:47:00+09:00"}}, {"type": "Feature", "geometry": {"type": "Point", "coordinates": [141.343628, 43.127686]}, "properties": {"action": "救助出動", "address": "北区屯田4条1丁目", "time": "2019-04-03T22:58:00+09:00"}}, {"type": "Feature", "geometry": {"type": "Point", "coordinates": [141.338867, 42.969452]}, "properties": {"action": "救助出動", "address": "南区石山2条2丁目", "time": "2019-04-03T19:51:00+09:00"}}, {"type": "Feature", "geometry": {"type": "Point", "coordinates": [141.469681, 43.021145]}, "properties": {"action": "救助出動", "address": "厚別区上野幌1条2丁目", "time": "2019-04-03T17:41:00+09:00"}}, {"type": "Feature", "geometry": {"type": "Point", "coordinates": [141.362793, 43.016705]}, "properties": {"action": "救助出動", "address": "南区澄川2条2丁目", "time": "2019-04-03T11:08:00+09:00"}}, {"type": "Feature", "geometry": {"type": "Point", "coordinates": [141.456039, 43.031551]}, "properties": {"action": "警戒出動", "address": "厚別区厚別中央2条1丁目", "time": "2019-04-03T22:27:00+09:00"}}, {"type": "Feature", "geometry": {"type": "Point", "coordinates": [141.281921, 43.104954]}, "properties": {"action": "警戒出動", "address": "西区発寒13条13丁目", "time": "2019-04-03T12:04:00+09:00"}}, {"type": "Feature", "geometry": {"type": "Point", "coordinates": [141.361526, 43.058399]}, "properties": {"action": "警戒出動", "address": "中央区南3条東3丁目", "time": "2019-04-03T10:19:00+09:00"}}, {"type": "Feature", "geometry": {"type": "Point", "coordinates": [141.355865, 43.132511]}, "properties": {"action": "警戒出動", "address": "北区太平8条5丁目", "time": "2019-04-03T08:00:00+09:00"}}, {"type": "Feature", "geometry": {"type": "Point", "coordinates": [141.254074, 43.102226]}, "properties": {"action": "警戒出動", "address": "手稲区富丘2条2丁目", "time": "2019-04-03T01:11:00+09:00"}}, {"type": "Feature", "geometry": {"type": "Point", "coordinates": [141.246216, 43.111523]}, "properties": {"action": "救急隊支援出動", "address": "手稲区富丘3条6丁目", "time": "2019-04-03T16:43:00+09:00"}}, {"type": "Feature", "geometry": {"type": "Point", "coordinates": [141.266006, 43.062405]}, "properties": {"action": "救急隊支援出動", "address": "西区西野9条4丁目", "time": "2019-04-03T16:24:00+09:00"}}, {"type": "Feature", "geometry": {"type": "Point", "coordinates": [141.426758, 43.097301]}, "properties": {"action": "救急隊支援出動", "address": "東区東雁来10条2丁目", "time": "2019-04-03T15:12:00+09:00"}}, {"type": "Feature", "geometry": {"type": "Point", "coordinates": [141.373154, 43.06673]}, "properties": {"action": "救急隊支援出動", "address": "中央区北2条東11丁目", "time": "2019-04-03T14:38:00+09:00"}}, {"type": "Feature", "geometry": {"type": "Point", "coordinates": [141.307388, 43.111187]}, "properties": {"action": "救急隊支援出動", "address": "北区新琴似1条12丁目", "time": "2019-04-03T11:48:00+09:00"}}, {"type": "Feature", "geometry": {"type": "Point", "coordinates": [141.37114, 43.023659]}, "properties": {"action": "救急隊支援出動", "address": "豊平区平岸4条16丁目", "time": "2019-04-03T08:44:00+09:00"}}, {"type": "Feature", "geometry": {"type": "Point", "coordinates": [141.368942, 43.000587]}, "properties": {"action": "救急隊支援出動", "address": "南区澄川5条10丁目", "time": "2019-04-03T03:37:00+09:00"}}]}