{"type": "FeatureCollection", "crs": {"type": "name", "properties": {"name": "urn:ogc:def:crs:OGC:1.3:CRS84"}}, "features": [{"type": "Feature", "geometry": {"type": "Point", "coordinates": [141.381042, 43.081879]}, "properties": {"action": "車両火災出動", "address": "東区本町2条1丁目", "time": "2019-04-25T16:11:00+09:00"}}, {"type": "Feature", "geometry": {"type": "Point", "coordinates": [141.261932, 43.119438]}, "properties": {"action": "車両火災出動", "address": "手稲区前田5条6丁目", "time": "2019-04-25T11:34:00+09:00"}}, {"type": "Feature", "geometry": {"type": "Point", "coordinates": [141.385956, 43.045403]}, "properties": {"action": "救助出動", "address": "豊平区美園1条2丁目", "time": "2019-04-25T13:31:00+09:00"}}, {"type": "Feature", "geometry": {"type": "Point", "coordinates": [141.296417, 43.069214]}, "properties": {"action": "救助出動", "address": "西区山の手3条5丁目", "time": "2019-04-25T09:19:00+09:00"}}, {"type": "Feature", "geometry": {"type": "Point", "coordinates": [141.367981, 43.086468]}, "properties": {"action": "救助出動", "address": "東区北19条東12丁目", "time": "2019-04-25T09:19:00+09:00"}}, {"type": "Feature", "geometry": {"type": "Point", "coordinates": [141.369629, 43.098976]}, "properties": {"action": "警戒出動", "address": "東区北28条東15丁目", "time": "2019-04-25T19:18:00+09:00"}}, {"type": "Feature", "geometry": {"type": "Point", "coordinates": [141.395294, 43.032024]}, "properties": {"action": "警戒出動", "address": "豊平区月寒中央通6丁目", "time": "2019-04-25T18:53:00+09:00"}}, {"type": "Feature", "geometry": {"type": "Point", "coordinates": [141.352997, 43.067493]}, "properties": {"action": "警戒出動", "address": "中央区北5条西2丁目", "time": "2019-04-25T18:11:00+09:00"}}, {"type": "Feature", "geometry": {"type": "Point", "coordinates": [141.395294, 43.032024]}, "properties": {"action": "警戒出動", "address": "豊平区月寒中央通6丁目", "time": "2019-04-25T07:59:00+09:00"}}, {"type": "Feature", "geometry": {"type": "Point", "coordinates": [141.409637, 43.04821]}, "properties": {"action": "ガス漏れ出動", "address": "白石区本通4丁目", "time": "2019-04-25T08:50:00+09:00"}}, {"type": "Feature", "geometry": {"type": "Point", "coordinates": [141.428497, 43.004543]}, "properties": {"action": "ガス漏れ出動", "address": "清田区清田2条1丁目", "time": "2019-04-25T02:57:00+09:00"}}, {"type": "Feature", "geometry": {"type": "Point", "coordinates": [141.388367, 43.010651]}, "properties": {"action": "救急隊支援出動", "address": "豊平区西岡4条7丁目", "time": "2019-04-25T20:01:00+09:00"}}, {"type": "Feature", "geometry": {"type": "Point", "coordinates": [141.274094, 43.061867]}, "properties": {"action": "救急隊支援出動", "address": "西区西野8条2丁目", "time": "2019-04-25T07:06:00+09:00"}}, {"type": "Feature", "geometry": {"type": "Point", "coordinates": [141.425125, 43.033173]}, "properties": {"action": "航空隊支援出動", "address": "白石区南郷通15丁目", "time": "2019-04-25T11:32:00+09:00"}}]}