{"type": "FeatureCollection", "crs": {"type": "name", "properties": {"name": "urn:ogc:def:crs:OGC:1.3:CRS84"}}, "features": [{"type": "Feature", "geometry": {"type": "Point", "coordinates": [141.496185, 43.037735]}, "properties": {"action": "火災出動", "address": "厚別区もみじ台北3丁目", "time": "2019-04-11T18:47:00+09:00"}}, {"type": "Feature", "geometry": {"type": "Point", "coordinates": [141.47702, 43.055874]}, "properties": {"action": "火災出動", "address": "厚別区厚別北2条3丁目", "time": "2019-04-11T16:55:00+09:00"}}, {"type": "Feature", "geometry": {"type": "Point", "coordinates": [141.370132, 43.10384]}, "properties": {"action": "火災出動", "address": "東区北33条東16丁目", "time": "2019-04-11T13:59:00+09:00"}}, {"type": "Feature", "geometry": {"type": "Point", "coordinates": [141.343536, 43.091133]}, "properties": {"action": "警戒出動", "address": "北区北24条西4丁目", "time": "2019-04-11T21:17:00+09:00"}}, {"type": "Feature", "geometry": {"type": "Point", "coordinates": [141.453522, 43.025478]}, "properties": {"action": "警戒出動", "address": "厚別区大谷地東3丁目", "time": "2019-04-11T18:06:00+09:00"}}, {"type": "Feature", "geometry": {"type": "Point", "coordinates": [141.381348, 43.154522]}, "properties": {"action": "警戒出動", "address": "北区拓北5条3丁目", "time": "2019-04-11T16:29:00+09:00"}}, {"type": "Feature", "geometry": {"type": "Point", "coordinates": [141.365509, 43.094921]}, "properties": {"action": "警戒出動", "address": "東区北25条東12丁目", "time": "2019-04-11T14:31:00+09:00"}}, {"type": "Feature", "geometry": {"type": "Point", "coordinates": [141.328201, 43.102753]}, "properties": {"action": "警戒出動", "address": "北区新琴似2条1丁目", "time": "2019-04-11T13:50:00+09:00"}}, {"type": "Feature", "geometry": {"type": "Point", "coordinates": [141.339188, 43.039204]}, "properties": {"action": "警戒出動", "address": "中央区南15条西13丁目", "time": "2019-04-11T13:16:00+09:00"}}, {"type": "Feature", "geometry": {"type": "Point", "coordinates": [141.350784, 43.129436]}, "properties": {"action": "警戒出動", "address": "北区太平5条3丁目", "time": "2019-04-11T11:57:00+09:00"}}, {"type": "Feature", "geometry": {"type": "Point", "coordinates": [141.374191, 43.032158]}, "properties": {"action": "警戒出動", "address": "豊平区平岸4条9丁目", "time": "2019-04-11T08:49:00+09:00"}}, {"type": "Feature", "geometry": {"type": "Point", "coordinates": [141.344742, 43.05341]}, "properties": {"action": "警戒出動", "address": "中央区南5条西9丁目", "time": "2019-04-11T03:26:00+09:00"}}, {"type": "Feature", "geometry": {"type": "Point", "coordinates": [141.368942, 43.000587]}, "properties": {"action": "警戒出動", "address": "南区澄川5条10丁目", "time": "2019-04-11T03:08:00+09:00"}}, {"type": "Feature", "geometry": {"type": "Point", "coordinates": [141.383057, 43.048058]}, "properties": {"action": "警戒出動", "address": "白石区東札幌1条3丁目", "time": "2019-04-11T02:07:00+09:00"}}, {"type": "Feature", "geometry": {"type": "Point", "coordinates": [141.355576, 43.023277]}, "properties": {"action": "ガス漏れ出動", "address": "豊平区中の島1条9丁目", "time": "2019-04-11T23:11:00+09:00"}}, {"type": "Feature", "geometry": {"type": "Point", "coordinates": [141.269302, 43.065868]}, "properties": {"action": "ガス漏れ出動", "address": "西区西野7条4丁目", "time": "2019-04-11T21:55:00+09:00"}}, {"type": "Feature", "geometry": {"type": "Point", "coordinates": [141.37114, 43.023659]}, "properties": {"action": "救急隊支援出動", "address": "豊平区平岸4条16丁目", "time": "2019-04-11T23:08:00+09:00"}}, {"type": "Feature", "geometry": {"type": "Point", "coordinates": [141.301895, 43.081654]}, "properties": {"action": "救急隊支援出動", "address": "西区琴似4条2丁目", "time": "2019-04-11T16:20:00+09:00"}}, {"type": "Feature", "geometry": {"type": "Point", "coordinates": [141.426651, 43.037872]}, "properties": {"action": "救急隊支援出動", "address": "白石区本通14丁目", "time": "2019-04-11T16:02:00+09:00"}}, {"type": "Feature", "geometry": {"type": "Point", "coordinates": [141.402847, 43.161797]}, "properties": {"action": "救急隊支援出動", "address": "北区あいの里3条6丁目", "time": "2019-04-11T12:05:00+09:00"}}, {"type": "Feature", "geometry": {"type": "Point", "coordinates": [141.365417, 43.018402]}, "properties": {"action": "救急隊支援出動", "address": "南区澄川3条1丁目", "time": "2019-04-11T11:18:00+09:00"}}, {"type": "Feature", "geometry": {"type": "Point", "coordinates": [141.294052, 43.089153]}, "properties": {"action": "救急隊支援出動", "address": "西区発寒6条3丁目", "time": "2019-04-11T11:06:00+09:00"}}, {"type": "Feature", "geometry": {"type": "Point", "coordinates": [141.406921, 43.158485]}, "properties": {"action": "航空隊支援出動", "address": "北区あいの里2条7丁目", "time": "2019-04-11T17:02:00+09:00"}}, {"type": "Feature", "geometry": {"type": "Point", "coordinates": [141.425125, 43.033173]}, "properties": {"action": "航空隊支援出動", "address": "白石区南郷通15丁目", "time": "2019-04-11T16:03:00+09:00"}}, {"type": "Feature", "geometry": {"type": "Point", "coordinates": [141.245468, 43.124142]}, "properties": {"action": "航空隊支援出動", "address": "手稲区前田2条12丁目", "time": "2019-04-11T14:04:00+09:00"}}, {"type": "Feature", "geometry": {"type": "Point", "coordinates": [141.473953, 43.023293]}, "properties": {"action": "航空隊支援出動", "address": "厚別区厚別南5丁目", "time": "2019-04-11T13:47:00+09:00"}}]}