{"type": "FeatureCollection", "crs": {"type": "name", "properties": {"name": "urn:ogc:def:crs:OGC:1.3:CRS84"}}, "features": [{"type": "Feature", "geometry": {"type": "Point", "coordinates": [141.346649, 43.036961]}, "properties": {"action": "火災出動", "address": "中央区南17条西9丁目", "time": "2019-04-17T18:59:00+09:00"}}, {"type": "Feature", "geometry": {"type": "Point", "coordinates": [141.321472, 42.960457]}, "properties": {"action": "火災出動", "address": "南区石山2条7丁目", "time": "2019-04-17T12:31:00+09:00"}}, {"type": "Feature", "geometry": {"type": "Point", "coordinates": [141.402817, 43.025993]}, "properties": {"action": "救助出動", "address": "豊平区月寒東1条11丁目", "time": "2019-04-17T16:08:00+09:00"}}, {"type": "Feature", "geometry": {"type": "Point", "coordinates": [141.453522, 43.025478]}, "properties": {"action": "救助出動", "address": "厚別区大谷地東3丁目", "time": "2019-04-17T00:42:00+09:00"}}, {"type": "Feature", "geometry": {"type": "Point", "coordinates": [141.347061, 43.047951]}, "properties": {"action": "警戒出動", "address": "中央区南9条西8丁目", "time": "2019-04-17T18:41:00+09:00"}}, {"type": "Feature", "geometry": {"type": "Point", "coordinates": [141.434708, 43.068935]}, "properties": {"action": "警戒出動", "address": "白石区川北 付近", "time": "2019-04-17T17:35:00+09:00"}}, {"type": "Feature", "geometry": {"type": "Point", "coordinates": [141.363144, 43.1339]}, "properties": {"action": "警戒出動", "address": "北区百合が原7丁目", "time": "2019-04-17T16:50:00+09:00"}}, {"type": "Feature", "geometry": {"type": "Point", "coordinates": [141.460388, 43.046261]}, "properties": {"action": "警戒出動", "address": "厚別区厚別西2条2丁目", "time": "2019-04-17T16:30:00+09:00"}}, {"type": "Feature", "geometry": {"type": "Point", "coordinates": [141.406342, 43.089012]}, "properties": {"action": "警戒出動", "address": "東区東苗穂5条2丁目", "time": "2019-04-17T16:06:00+09:00"}}, {"type": "Feature", "geometry": {"type": "Point", "coordinates": [141.271042, 43.095078]}, "properties": {"action": "警戒出動", "address": "西区発寒6条13丁目", "time": "2019-04-17T14:24:00+09:00"}}, {"type": "Feature", "geometry": {"type": "Point", "coordinates": [141.375046, 43.070389]}, "properties": {"action": "警戒出動", "address": "東区北5条東13丁目", "time": "2019-04-17T10:36:00+09:00"}}, {"type": "Feature", "geometry": {"type": "Point", "coordinates": [141.437195, 43.048981]}, "properties": {"action": "警戒出動", "address": "白石区北郷2条12丁目", "time": "2019-04-17T03:18:00+09:00"}}, {"type": "Feature", "geometry": {"type": "Point", "coordinates": [141.365555, 43.017174]}, "properties": {"action": "警戒出動", "address": "南区澄川3条2丁目", "time": "2019-04-17T00:26:00+09:00"}}, {"type": "Feature", "geometry": {"type": "Point", "coordinates": [141.260605, 43.118385]}, "properties": {"action": "ガス漏れ出動", "address": "手稲区前田4条6丁目", "time": "2019-04-17T18:10:00+09:00"}}, {"type": "Feature", "geometry": {"type": "Point", "coordinates": [141.340942, 43.113808]}, "properties": {"action": "ガス漏れ出動", "address": "北区麻生町7丁目", "time": "2019-04-17T13:17:00+09:00"}}, {"type": "Feature", "geometry": {"type": "Point", "coordinates": [141.478012, 43.01791]}, "properties": {"action": "救急隊支援出動", "address": "厚別区上野幌1条5丁目", "time": "2019-04-17T11:58:00+09:00"}}, {"type": "Feature", "geometry": {"type": "Point", "coordinates": [141.358337, 43.126511]}, "properties": {"action": "救急隊支援出動", "address": "北区百合が原3丁目", "time": "2019-04-17T11:56:00+09:00"}}, {"type": "Feature", "geometry": {"type": "Point", "coordinates": [141.234634, 42.956623]}, "properties": {"action": "航空隊支援出動", "address": "南区豊滝 付近", "time": "2019-04-17T14:26:00+09:00"}}, {"type": "Feature", "geometry": {"type": "Point", "coordinates": [141.474258, 43.014866]}, "properties": {"action": "航空隊支援出動", "address": "厚別区上野幌2条4丁目", "time": "2019-04-17T11:59:00+09:00"}}]}