{"type": "FeatureCollection", "crs": {"type": "name", "properties": {"name": "urn:ogc:def:crs:OGC:1.3:CRS84"}}, "features": [{"type": "Feature", "geometry": {"type": "Point", "coordinates": [141.454544, 42.981537]}, "properties": {"action": "火災出動", "address": "清田区美しが丘3条5丁目", "time": "2019-04-12T20:45:00+09:00"}}, {"type": "Feature", "geometry": {"type": "Point", "coordinates": [141.34816, 42.978539]}, "properties": {"action": "火災出動", "address": "南区真駒内南町5丁目", "time": "2019-04-12T16:55:00+09:00"}}, {"type": "Feature", "geometry": {"type": "Point", "coordinates": [141.382141, 43.055668]}, "properties": {"action": "救助出動", "address": "白石区菊水7条4丁目", "time": "2019-04-12T21:57:00+09:00"}}, {"type": "Feature", "geometry": {"type": "Point", "coordinates": [141.400925, 43.032463]}, "properties": {"action": "救助出動", "address": "豊平区月寒東2条7丁目", "time": "2019-04-12T11:25:00+09:00"}}, {"type": "Feature", "geometry": {"type": "Point", "coordinates": [141.347412, 43.088314]}, "properties": {"action": "警戒出動", "address": "北区北22条西2丁目", "time": "2019-04-12T21:47:00+09:00"}}, {"type": "Feature", "geometry": {"type": "Point", "coordinates": [141.246643, 43.059525]}, "properties": {"action": "警戒出動", "address": "西区西野14条8丁目", "time": "2019-04-12T14:39:00+09:00"}}, {"type": "Feature", "geometry": {"type": "Point", "coordinates": [141.340179, 43.032452]}, "properties": {"action": "警戒出動", "address": "中央区南20条西13丁目", "time": "2019-04-12T03:50:00+09:00"}}, {"type": "Feature", "geometry": {"type": "Point", "coordinates": [141.28241, 42.958069]}, "properties": {"action": "救急隊支援出動", "address": "南区藤野4条10丁目", "time": "2019-04-12T10:22:00+09:00"}}, {"type": "Feature", "geometry": {"type": "Point", "coordinates": [141.299759, 42.94598]}, "properties": {"action": "航空隊支援出動", "address": "南区藤野 付近", "time": "2019-04-12T10:32:00+09:00"}}]}