{"type": "FeatureCollection", "crs": {"type": "name", "properties": {"name": "urn:ogc:def:crs:OGC:1.3:CRS84"}}, "features": [{"type": "Feature", "geometry": {"type": "Point", "coordinates": [141.37088, 43.010349]}, "properties": {"action": "救助出動", "address": "南区澄川5条5丁目", "time": "2019-04-01T18:42:00+09:00"}}, {"type": "Feature", "geometry": {"type": "Point", "coordinates": [141.364883, 43.078796]}, "properties": {"action": "救助出動", "address": "東区北13条東8丁目", "time": "2019-04-01T16:11:00+09:00"}}, {"type": "Feature", "geometry": {"type": "Point", "coordinates": [141.355469, 42.943344]}, "properties": {"action": "救助出動", "address": "南区真駒内 付近", "time": "2019-04-01T15:51:00+09:00"}}, {"type": "Feature", "geometry": {"type": "Point", "coordinates": [141.307709, 43.122375]}, "properties": {"action": "救助出動", "address": "北区新琴似6条15丁目", "time": "2019-04-01T00:01:00+09:00"}}, {"type": "Feature", "geometry": {"type": "Point", "coordinates": [141.398392, 43.053108]}, "properties": {"action": "警戒出動", "address": "白石区中央1条5丁目", "time": "2019-04-01T21:31:00+09:00"}}, {"type": "Feature", "geometry": {"type": "Point", "coordinates": [141.368668, 43.020176]}, "properties": {"action": "警戒出動", "address": "豊平区平岸3条18丁目", "time": "2019-04-01T21:06:00+09:00"}}, {"type": "Feature", "geometry": {"type": "Point", "coordinates": [141.264618, 43.076244]}, "properties": {"action": "警戒出動", "address": "西区西野5条10丁目", "time": "2019-04-01T20:13:00+09:00"}}, {"type": "Feature", "geometry": {"type": "Point", "coordinates": [141.355469, 42.943344]}, "properties": {"action": "警戒出動", "address": "南区真駒内 付近", "time": "2019-04-01T17:52:00+09:00"}}, {"type": "Feature", "geometry": {"type": "Point", "coordinates": [141.237183, 43.129215]}, "properties": {"action": "警戒出動", "address": "手稲区曙3条2丁目", "time": "2019-04-01T14:37:00+09:00"}}, {"type": "Feature", "geometry": {"type": "Point", "coordinates": [141.368042, 43.147823]}, "properties": {"action": "警戒出動", "address": "北区篠路5条8丁目", "time": "2019-04-01T14:32:00+09:00"}}, {"type": "Feature", "geometry": {"type": "Point", "coordinates": [141.405014, 43.04652]}, "properties": {"action": "警戒出動", "address": "白石区本郷通3丁目", "time": "2019-04-01T14:26:00+09:00"}}, {"type": "Feature", "geometry": {"type": "Point", "coordinates": [141.317139, 43.079723]}, "properties": {"action": "警戒出動", "address": "西区八軒2条東4丁目", "time": "2019-04-01T07:05:00+09:00"}}, {"type": "Feature", "geometry": {"type": "Point", "coordinates": [141.400421, 43.048569]}, "properties": {"action": "ガス漏れ出動", "address": "白石区本郷通1丁目", "time": "2019-04-01T09:05:00+09:00"}}, {"type": "Feature", "geometry": {"type": "Point", "coordinates": [141.294098, 43.067619]}, "properties": {"action": "救急隊支援出動", "address": "西区山の手3条7丁目", "time": "2019-04-01T17:43:00+09:00"}}, {"type": "Feature", "geometry": {"type": "Point", "coordinates": [141.415787, 43.08733]}, "properties": {"action": "救急隊支援出動", "address": "東区東雁来6条2丁目", "time": "2019-04-01T16:25:00+09:00"}}, {"type": "Feature", "geometry": {"type": "Point", "coordinates": [141.297562, 43.08984]}, "properties": {"action": "救急隊支援出動", "address": "西区発寒10条2丁目", "time": "2019-04-01T16:19:00+09:00"}}, {"type": "Feature", "geometry": {"type": "Point", "coordinates": [141.417877, 43.043697]}, "properties": {"action": "救急隊支援出動", "address": "白石区本通8丁目", "time": "2019-04-01T12:02:00+09:00"}}, {"type": "Feature", "geometry": {"type": "Point", "coordinates": [141.450226, 43.018303]}, "properties": {"action": "救急隊支援出動", "address": "清田区北野7条5丁目", "time": "2019-04-01T11:09:00+09:00"}}, {"type": "Feature", "geometry": {"type": "Point", "coordinates": [141.333557, 42.968487]}, "properties": {"action": "航空隊支援出動", "address": "南区石山1条3丁目", "time": "2019-04-01T16:15:00+09:00"}}, {"type": "Feature", "geometry": {"type": "Point", "coordinates": [141.439896, 43.005226]}, "properties": {"action": "航空隊支援出動", "address": "清田区清田1条2丁目", "time": "2019-04-01T11:13:00+09:00"}}]}