{"type": "FeatureCollection", "crs": {"type": "name", "properties": {"name": "urn:ogc:def:crs:OGC:1.3:CRS84"}}, "features": [{"type": "Feature", "geometry": {"type": "Point", "coordinates": [141.433105, 43.014267]}, "properties": {"action": "火災出動", "address": "清田区北野3条2丁目", "time": "2019-04-22T08:55:00+09:00"}}, {"type": "Feature", "geometry": {"type": "Point", "coordinates": [141.303055, 43.11462]}, "properties": {"action": "車両火災出動", "address": "北区新川6条14丁目", "time": "2019-04-22T19:48:00+09:00"}}, {"type": "Feature", "geometry": {"type": "Point", "coordinates": [141.355469, 42.943344]}, "properties": {"action": "救助出動", "address": "南区真駒内 付近", "time": "2019-04-22T15:28:00+09:00"}}, {"type": "Feature", "geometry": {"type": "Point", "coordinates": [141.391083, 43.036121]}, "properties": {"action": "救助出動", "address": "豊平区月寒西1条2丁目", "time": "2019-04-22T13:16:00+09:00"}}, {"type": "Feature", "geometry": {"type": "Point", "coordinates": [141.395294, 43.032024]}, "properties": {"action": "警戒出動", "address": "豊平区月寒中央通6丁目", "time": "2019-04-22T19:30:00+09:00"}}, {"type": "Feature", "geometry": {"type": "Point", "coordinates": [141.394226, 43.012756]}, "properties": {"action": "警戒出動", "address": "豊平区福住1条6丁目", "time": "2019-04-22T16:24:00+09:00"}}, {"type": "Feature", "geometry": {"type": "Point", "coordinates": [141.32814, 43.063095]}, "properties": {"action": "警戒出動", "address": "中央区北4条西18丁目", "time": "2019-04-22T02:36:00+09:00"}}, {"type": "Feature", "geometry": {"type": "Point", "coordinates": [141.215057, 43.124325]}, "properties": {"action": "救急隊支援出動", "address": "手稲区稲穂4条6丁目", "time": "2019-04-22T15:25:00+09:00"}}, {"type": "Feature", "geometry": {"type": "Point", "coordinates": [141.421982, 43.040577]}, "properties": {"action": "救急隊支援出動", "address": "白石区本通11丁目", "time": "2019-04-22T09:22:00+09:00"}}, {"type": "Feature", "geometry": {"type": "Point", "coordinates": [141.414383, 43.020748]}, "properties": {"action": "救急隊支援出動", "address": "豊平区月寒東2条16丁目", "time": "2019-04-22T04:12:00+09:00"}}]}