{"type": "FeatureCollection", "crs": {"type": "name", "properties": {"name": "urn:ogc:def:crs:OGC:1.3:CRS84"}}, "features": [{"type": "Feature", "geometry": {"type": "Point", "coordinates": [141.416473, 43.039856]}, "properties": {"action": "救助出動", "address": "白石区本郷通9丁目", "time": "2019-04-24T22:05:00+09:00"}}, {"type": "Feature", "geometry": {"type": "Point", "coordinates": [141.385147, 43.021416]}, "properties": {"action": "救助出動", "address": "豊平区西岡2条2丁目", "time": "2019-04-24T19:39:00+09:00"}}, {"type": "Feature", "geometry": {"type": "Point", "coordinates": [141.372009, 43.051682]}, "properties": {"action": "救助出動", "address": "豊平区豊平3条5丁目", "time": "2019-04-24T17:09:00+09:00"}}, {"type": "Feature", "geometry": {"type": "Point", "coordinates": [141.378189, 42.963326]}, "properties": {"action": "救助出動", "address": "豊平区西岡 付近", "time": "2019-04-24T04:52:00+09:00"}}, {"type": "Feature", "geometry": {"type": "Point", "coordinates": [141.349136, 43.047939]}, "properties": {"action": "救助出動", "address": "中央区南9条西7丁目", "time": "2019-04-24T01:27:00+09:00"}}, {"type": "Feature", "geometry": {"type": "Point", "coordinates": [141.423401, 43.031597]}, "properties": {"action": "警戒出動", "address": "白石区栄通15丁目", "time": "2019-04-24T23:13:00+09:00"}}, {"type": "Feature", "geometry": {"type": "Point", "coordinates": [141.372559, 43.054642]}, "properties": {"action": "警戒出動", "address": "白石区菊水1条3丁目", "time": "2019-04-24T21:19:00+09:00"}}, {"type": "Feature", "geometry": {"type": "Point", "coordinates": [141.36496, 43.086086]}, "properties": {"action": "警戒出動", "address": "東区北19条東9丁目", "time": "2019-04-24T20:05:00+09:00"}}, {"type": "Feature", "geometry": {"type": "Point", "coordinates": [141.456833, 43.047791]}, "properties": {"action": "警戒出動", "address": "厚別区厚別西3条1丁目", "time": "2019-04-24T16:57:00+09:00"}}, {"type": "Feature", "geometry": {"type": "Point", "coordinates": [141.352997, 43.067493]}, "properties": {"action": "警戒出動", "address": "中央区北5条西2丁目", "time": "2019-04-24T15:54:00+09:00"}}, {"type": "Feature", "geometry": {"type": "Point", "coordinates": [141.409195, 43.166019]}, "properties": {"action": "警戒出動", "address": "北区あいの里4条8丁目", "time": "2019-04-24T14:11:00+09:00"}}, {"type": "Feature", "geometry": {"type": "Point", "coordinates": [141.350128, 42.98848]}, "properties": {"action": "警戒出動", "address": "南区真駒内柏丘3丁目", "time": "2019-04-24T14:07:00+09:00"}}, {"type": "Feature", "geometry": {"type": "Point", "coordinates": [141.343124, 43.068546]}, "properties": {"action": "警戒出動", "address": "北区北7条西8丁目", "time": "2019-04-24T13:04:00+09:00"}}, {"type": "Feature", "geometry": {"type": "Point", "coordinates": [141.34259, 43.101322]}, "properties": {"action": "警戒出動", "address": "北区北34条西3丁目", "time": "2019-04-24T10:18:00+09:00"}}, {"type": "Feature", "geometry": {"type": "Point", "coordinates": [141.423111, 42.99614]}, "properties": {"action": "警戒出動", "address": "清田区清田6条1丁目", "time": "2019-04-24T00:02:00+09:00"}}, {"type": "Feature", "geometry": {"type": "Point", "coordinates": [141.400635, 43.028183]}, "properties": {"action": "ガス漏れ出動", "address": "豊平区月寒東1条9丁目", "time": "2019-04-24T20:13:00+09:00"}}, {"type": "Feature", "geometry": {"type": "Point", "coordinates": [141.352905, 43.054379]}, "properties": {"action": "ガス漏れ出動", "address": "中央区南5条西4丁目", "time": "2019-04-24T03:56:00+09:00"}}, {"type": "Feature", "geometry": {"type": "Point", "coordinates": [141.332016, 43.037178]}, "properties": {"action": "救急隊支援出動", "address": "中央区南16条西18丁目", "time": "2019-04-24T23:30:00+09:00"}}, {"type": "Feature", "geometry": {"type": "Point", "coordinates": [141.265015, 43.08606]}, "properties": {"action": "救急隊支援出動", "address": "西区宮の沢3条3丁目", "time": "2019-04-24T22:27:00+09:00"}}, {"type": "Feature", "geometry": {"type": "Point", "coordinates": [141.380402, 43.150772]}, "properties": {"action": "救急隊支援出動", "address": "北区拓北3条3丁目", "time": "2019-04-24T18:17:00+09:00"}}, {"type": "Feature", "geometry": {"type": "Point", "coordinates": [141.304321, 43.105335]}, "properties": {"action": "救急隊支援出動", "address": "北区新川2条11丁目", "time": "2019-04-24T07:44:00+09:00"}}, {"type": "Feature", "geometry": {"type": "Point", "coordinates": [141.353882, 43.138668]}, "properties": {"action": "航空隊支援出動", "address": "北区太平12条3丁目", "time": "2019-04-24T17:01:00+09:00"}}]}