{"type": "FeatureCollection", "crs": {"type": "name", "properties": {"name": "urn:ogc:def:crs:OGC:1.3:CRS84"}}, "features": [{"type": "Feature", "geometry": {"type": "Point", "coordinates": [141.367798, 43.056225]}, "properties": {"action": "火災出動", "address": "豊平区豊平1条1丁目", "time": "2019-04-27T18:24:00+09:00"}}, {"type": "Feature", "geometry": {"type": "Point", "coordinates": [141.387253, 43.053112]}, "properties": {"action": "救助出動", "address": "白石区東札幌4条2丁目", "time": "2019-04-27T19:32:00+09:00"}}, {"type": "Feature", "geometry": {"type": "Point", "coordinates": [141.266495, 43.091064]}, "properties": {"action": "救助出動", "address": "西区宮の沢2条4丁目", "time": "2019-04-27T13:05:00+09:00"}}, {"type": "Feature", "geometry": {"type": "Point", "coordinates": [141.389053, 43.025635]}, "properties": {"action": "救助出動", "address": "豊平区月寒西4条9丁目", "time": "2019-04-27T12:20:00+09:00"}}, {"type": "Feature", "geometry": {"type": "Point", "coordinates": [141.377808, 43.062824]}, "properties": {"action": "救助出動", "address": "白石区菊水7条1丁目", "time": "2019-04-27T09:53:00+09:00"}}, {"type": "Feature", "geometry": {"type": "Point", "coordinates": [141.380402, 43.150772]}, "properties": {"action": "救助出動", "address": "北区拓北3条3丁目", "time": "2019-04-27T05:06:00+09:00"}}, {"type": "Feature", "geometry": {"type": "Point", "coordinates": [141.311478, 43.044365]}, "properties": {"action": "救助出動", "address": "中央区円山西町9丁目", "time": "2019-04-27T03:21:00+09:00"}}, {"type": "Feature", "geometry": {"type": "Point", "coordinates": [141.281921, 43.104954]}, "properties": {"action": "警戒出動", "address": "西区発寒13条13丁目", "time": "2019-04-27T15:57:00+09:00"}}, {"type": "Feature", "geometry": {"type": "Point", "coordinates": [141.495834, 43.028484]}, "properties": {"action": "警戒出動", "address": "厚別区もみじ台東3丁目", "time": "2019-04-27T14:28:00+09:00"}}, {"type": "Feature", "geometry": {"type": "Point", "coordinates": [141.415314, 43.064262]}, "properties": {"action": "警戒出動", "address": "白石区北郷5条3丁目", "time": "2019-04-27T12:56:00+09:00"}}, {"type": "Feature", "geometry": {"type": "Point", "coordinates": [141.413986, 43.041321]}, "properties": {"action": "警戒出動", "address": "白石区本郷通8丁目", "time": "2019-04-27T11:42:00+09:00"}}, {"type": "Feature", "geometry": {"type": "Point", "coordinates": [141.428497, 43.004543]}, "properties": {"action": "警戒出動", "address": "清田区清田2条1丁目", "time": "2019-04-27T11:17:00+09:00"}}, {"type": "Feature", "geometry": {"type": "Point", "coordinates": [141.364777, 43.044682]}, "properties": {"action": "警戒出動", "address": "豊平区水車町6丁目", "time": "2019-04-27T06:38:00+09:00"}}, {"type": "Feature", "geometry": {"type": "Point", "coordinates": [141.357056, 43.043262]}, "properties": {"action": "警戒出動", "address": "中央区南13条西1丁目", "time": "2019-04-27T00:07:00+09:00"}}, {"type": "Feature", "geometry": {"type": "Point", "coordinates": [141.3965, 43.021908]}, "properties": {"action": "ガス漏れ出動", "address": "豊平区西岡5条1丁目", "time": "2019-04-27T23:37:00+09:00"}}, {"type": "Feature", "geometry": {"type": "Point", "coordinates": [141.410721, 43.034035]}, "properties": {"action": "ガス漏れ出動", "address": "豊平区月寒東5条9丁目", "time": "2019-04-27T10:51:00+09:00"}}, {"type": "Feature", "geometry": {"type": "Point", "coordinates": [141.344727, 43.086555]}, "properties": {"action": "ガス漏れ出動", "address": "北区北21条西4丁目", "time": "2019-04-27T02:37:00+09:00"}}, {"type": "Feature", "geometry": {"type": "Point", "coordinates": [141.357452, 43.109631]}, "properties": {"action": "救急隊支援出動", "address": "東区北40条東8丁目", "time": "2019-04-27T23:54:00+09:00"}}, {"type": "Feature", "geometry": {"type": "Point", "coordinates": [141.499237, 43.026897]}, "properties": {"action": "救急隊支援出動", "address": "厚別区もみじ台東5丁目", "time": "2019-04-27T22:18:00+09:00"}}, {"type": "Feature", "geometry": {"type": "Point", "coordinates": [141.315491, 43.06144]}, "properties": {"action": "救急隊支援出動", "address": "中央区北4条西27丁目", "time": "2019-04-27T16:47:00+09:00"}}, {"type": "Feature", "geometry": {"type": "Point", "coordinates": [141.36937, 43.053352]}, "properties": {"action": "救急隊支援出動", "address": "豊平区豊平3条3丁目", "time": "2019-04-27T15:05:00+09:00"}}, {"type": "Feature", "geometry": {"type": "Point", "coordinates": [141.385956, 43.045403]}, "properties": {"action": "救急隊支援出動", "address": "豊平区美園1条2丁目", "time": "2019-04-27T13:00:00+09:00"}}, {"type": "Feature", "geometry": {"type": "Point", "coordinates": [141.325928, 42.985222]}, "properties": {"action": "救急隊支援出動", "address": "南区南沢2条1丁目", "time": "2019-04-27T11:15:00+09:00"}}, {"type": "Feature", "geometry": {"type": "Point", "coordinates": [141.434631, 43.040035]}, "properties": {"action": "救急隊支援出動", "address": "白石区平和通16丁目", "time": "2019-04-27T10:04:00+09:00"}}, {"type": "Feature", "geometry": {"type": "Point", "coordinates": [141.325928, 42.985222]}, "properties": {"action": "航空隊支援出動", "address": "南区南沢2条1丁目", "time": "2019-04-27T11:20:00+09:00"}}, {"type": "Feature", "geometry": {"type": "Point", "coordinates": [141.455078, 43.03817]}, "properties": {"action": "航空隊支援出動", "address": "白石区流通ｾﾝﾀｰ7丁目", "time": "2019-04-27T10:06:00+09:00"}}, {"type": "Feature", "geometry": {"type": "Point", "coordinates": [141.411575, 43.103004]}, "properties": {"action": "航空隊支援出動", "address": "東区東苗穂10条1丁目", "time": "2019-04-27T09:14:00+09:00"}}]}