{"type": "FeatureCollection", "crs": {"type": "name", "properties": {"name": "urn:ogc:def:crs:OGC:1.3:CRS84"}}, "features": [{"type": "Feature", "geometry": {"type": "Point", "coordinates": [141.342484, 43.095016]}, "properties": {"action": "火災出動", "address": "北区北28条西4丁目", "time": "2017-11-05T16:40:00+09:00"}}, {"type": "Feature", "geometry": {"type": "Point", "coordinates": [141.49292, 43.027172]}, "properties": {"action": "火災出動", "address": "厚別区もみじ台南2丁目", "time": "2017-11-05T09:11:00+09:00"}}, {"type": "Feature", "geometry": {"type": "Point", "coordinates": [141.34082, 43.107002]}, "properties": {"action": "救助出動", "address": "北区北39条西3丁目", "time": "2017-11-05T17:52:00+09:00"}}, {"type": "Feature", "geometry": {"type": "Point", "coordinates": [141.346344, 43.038231]}, "properties": {"action": "救助出動", "address": "中央区南16条西9丁目", "time": "2017-11-05T17:27:00+09:00"}}, {"type": "Feature", "geometry": {"type": "Point", "coordinates": [141.435165, 43.005089]}, "properties": {"action": "救助出動", "address": "清田区清田1条1丁目", "time": "2017-11-05T17:14:00+09:00"}}, {"type": "Feature", "geometry": {"type": "Point", "coordinates": [141.364273, 43.033752]}, "properties": {"action": "救助出動", "address": "豊平区平岸1条8丁目", "time": "2017-11-05T05:41:00+09:00"}}, {"type": "Feature", "geometry": {"type": "Point", "coordinates": [141.337952, 43.050423]}, "properties": {"action": "警戒出動", "address": "中央区南7条西13丁目", "time": "2017-11-05T09:20:00+09:00"}}, {"type": "Feature", "geometry": {"type": "Point", "coordinates": [141.240204, 43.12661]}, "properties": {"action": "警戒出動", "address": "手稲区曙2条1丁目", "time": "2017-11-05T07:27:00+09:00"}}, {"type": "Feature", "geometry": {"type": "Point", "coordinates": [141.377975, 43.089382]}, "properties": {"action": "ガス漏れ出動", "address": "東区北20条東18丁目", "time": "2017-11-05T20:44:00+09:00"}}, {"type": "Feature", "geometry": {"type": "Point", "coordinates": [141.364731, 43.010494]}, "properties": {"action": "ガス漏れ出動", "address": "南区澄川3条5丁目", "time": "2017-11-05T11:53:00+09:00"}}, {"type": "Feature", "geometry": {"type": "Point", "coordinates": [141.416733, 43.078747]}, "properties": {"action": "救急隊支援出動", "address": "白石区菊水元町10条1丁目", "time": "2017-11-05T15:07:00+09:00"}}, {"type": "Feature", "geometry": {"type": "Point", "coordinates": [141.497467, 43.024048]}, "properties": {"action": "航空隊支援出動", "address": "厚別区もみじ台南5丁目", "time": "2017-11-05T09:29:00+09:00"}}]}