{"type": "FeatureCollection", "crs": {"type": "name", "properties": {"name": "urn:ogc:def:crs:OGC:1.3:CRS84"}}, "features": [{"type": "Feature", "geometry": {"type": "Point", "coordinates": [141.344421, 43.0522]}, "properties": {"action": "火災出動", "address": "中央区南6条西9丁目", "time": "2017-11-14T06:19:00+09:00"}}, {"type": "Feature", "geometry": {"type": "Point", "coordinates": [141.34787, 43.054886]}, "properties": {"action": "救助出動", "address": "中央区南4条西7丁目", "time": "2017-11-14T16:58:00+09:00"}}, {"type": "Feature", "geometry": {"type": "Point", "coordinates": [141.368286, 43.083908]}, "properties": {"action": "救助出動", "address": "東区北17条東12丁目", "time": "2017-11-14T13:14:00+09:00"}}, {"type": "Feature", "geometry": {"type": "Point", "coordinates": [141.340942, 43.113808]}, "properties": {"action": "救助出動", "address": "北区麻生町7丁目", "time": "2017-11-14T11:15:00+09:00"}}, {"type": "Feature", "geometry": {"type": "Point", "coordinates": [141.324905, 43.039684]}, "properties": {"action": "救助出動", "address": "中央区南13条西23丁目", "time": "2017-11-14T00:52:00+09:00"}}, {"type": "Feature", "geometry": {"type": "Point", "coordinates": [141.36293, 43.146984]}, "properties": {"action": "警戒出動", "address": "北区篠路4条6丁目", "time": "2017-11-14T22:16:00+09:00"}}, {"type": "Feature", "geometry": {"type": "Point", "coordinates": [141.365921, 43.089363]}, "properties": {"action": "警戒出動", "address": "東区北21条東10丁目", "time": "2017-11-14T19:20:00+09:00"}}, {"type": "Feature", "geometry": {"type": "Point", "coordinates": [141.406616, 43.064377]}, "properties": {"action": "警戒出動", "address": "白石区北郷3条1丁目", "time": "2017-11-14T09:26:00+09:00"}}, {"type": "Feature", "geometry": {"type": "Point", "coordinates": [141.336975, 43.092312]}, "properties": {"action": "警戒出動", "address": "北区北26条西8丁目", "time": "2017-11-14T08:06:00+09:00"}}, {"type": "Feature", "geometry": {"type": "Point", "coordinates": [141.245468, 43.124142]}, "properties": {"action": "警戒出動", "address": "手稲区前田2条12丁目", "time": "2017-11-14T01:36:00+09:00"}}, {"type": "Feature", "geometry": {"type": "Point", "coordinates": [141.169678, 42.968746]}, "properties": {"action": "救急隊支援出動", "address": "南区定山渓温泉東2丁目", "time": "2017-11-14T17:25:00+09:00"}}, {"type": "Feature", "geometry": {"type": "Point", "coordinates": [141.471573, 43.046825]}, "properties": {"action": "救急隊支援出動", "address": "厚別区厚別中央5条6丁目", "time": "2017-11-14T15:21:00+09:00"}}, {"type": "Feature", "geometry": {"type": "Point", "coordinates": [141.38913, 43.003265]}, "properties": {"action": "救急隊支援出動", "address": "豊平区福住2条10丁目", "time": "2017-11-14T09:36:00+09:00"}}, {"type": "Feature", "geometry": {"type": "Point", "coordinates": [141.341537, 43.11224]}, "properties": {"action": "救急隊支援出動", "address": "北区麻生町6丁目", "time": "2017-11-14T08:18:00+09:00"}}, {"type": "Feature", "geometry": {"type": "Point", "coordinates": [141.34584, 43.056629]}, "properties": {"action": "救急隊支援出動", "address": "中央区南2条西8丁目", "time": "2017-11-14T06:58:00+09:00"}}, {"type": "Feature", "geometry": {"type": "Point", "coordinates": [141.470673, 43.042297]}, "properties": {"action": "航空隊支援出動", "address": "厚別区厚別中央3条5丁目", "time": "2017-11-14T15:25:00+09:00"}}, {"type": "Feature", "geometry": {"type": "Point", "coordinates": [141.390778, 43.160347]}, "properties": {"action": "航空隊支援出動", "address": "北区あいの里2条3丁目", "time": "2017-11-14T10:29:00+09:00"}}, {"type": "Feature", "geometry": {"type": "Point", "coordinates": [141.393677, 43.004295]}, "properties": {"action": "航空隊支援出動", "address": "豊平区福住3条9丁目", "time": "2017-11-14T09:41:00+09:00"}}, {"type": "Feature", "geometry": {"type": "Point", "coordinates": [141.378784, 43.01181]}, "properties": {"action": "航空隊支援出動", "address": "豊平区西岡1条7丁目", "time": "2017-11-14T08:32:00+09:00"}}]}