{"type": "FeatureCollection", "crs": {"type": "name", "properties": {"name": "urn:ogc:def:crs:OGC:1.3:CRS84"}}, "features": [{"type": "Feature", "geometry": {"type": "Point", "coordinates": [141.373291, 43.026875]}, "properties": {"action": "火災出動", "address": "豊平区平岸4条13丁目", "time": "2017-12-23T00:02:00+09:00"}}, {"type": "Feature", "geometry": {"type": "Point", "coordinates": [141.308472, 43.079727]}, "properties": {"action": "救助出動", "address": "西区琴似1条1丁目", "time": "2017-12-23T15:41:00+09:00"}}, {"type": "Feature", "geometry": {"type": "Point", "coordinates": [141.334183, 43.118538]}, "properties": {"action": "救助出動", "address": "北区新琴似11条4丁目", "time": "2017-12-23T10:44:00+09:00"}}, {"type": "Feature", "geometry": {"type": "Point", "coordinates": [141.432571, 43.137402]}, "properties": {"action": "救助出動", "address": "東区中沼町　 付近", "time": "2017-12-23T07:08:00+09:00"}}, {"type": "Feature", "geometry": {"type": "Point", "coordinates": [141.294983, 43.073395]}, "properties": {"action": "警戒出動", "address": "西区山の手5条2丁目", "time": "2017-12-23T22:03:00+09:00"}}, {"type": "Feature", "geometry": {"type": "Point", "coordinates": [141.437531, 43.052608]}, "properties": {"action": "警戒出動", "address": "白石区北郷4条12丁目", "time": "2017-12-23T20:45:00+09:00"}}, {"type": "Feature", "geometry": {"type": "Point", "coordinates": [141.379303, 43.024151]}, "properties": {"action": "警戒出動", "address": "豊平区平岸6条14丁目", "time": "2017-12-23T20:18:00+09:00"}}, {"type": "Feature", "geometry": {"type": "Point", "coordinates": [141.345688, 43.044022]}, "properties": {"action": "警戒出動", "address": "中央区南12条西9丁目", "time": "2017-12-23T18:04:00+09:00"}}, {"type": "Feature", "geometry": {"type": "Point", "coordinates": [141.3806, 43.101486]}, "properties": {"action": "警戒出動", "address": "東区北30条東20丁目", "time": "2017-12-23T17:52:00+09:00"}}, {"type": "Feature", "geometry": {"type": "Point", "coordinates": [141.423691, 43.054466]}, "properties": {"action": "警戒出動", "address": "白石区北郷3条7丁目", "time": "2017-12-23T16:21:00+09:00"}}, {"type": "Feature", "geometry": {"type": "Point", "coordinates": [141.345749, 43.082226]}, "properties": {"action": "警戒出動", "address": "北区北18条西4丁目", "time": "2017-12-23T15:26:00+09:00"}}, {"type": "Feature", "geometry": {"type": "Point", "coordinates": [141.359543, 43.05455]}, "properties": {"action": "警戒出動", "address": "中央区南6条東1丁目", "time": "2017-12-23T01:18:00+09:00"}}, {"type": "Feature", "geometry": {"type": "Point", "coordinates": [141.394882, 43.045612]}, "properties": {"action": "警戒出動", "address": "白石区東札幌2条6丁目", "time": "2017-12-23T00:11:00+09:00"}}, {"type": "Feature", "geometry": {"type": "Point", "coordinates": [141.33168, 43.107391]}, "properties": {"action": "警戒出動", "address": "北区新琴似5条1丁目", "time": "2017-12-23T00:06:00+09:00"}}, {"type": "Feature", "geometry": {"type": "Point", "coordinates": [141.272797, 42.95639]}, "properties": {"action": "救急隊支援出動", "address": "南区簾舞5条2丁目", "time": "2017-12-23T22:03:00+09:00"}}, {"type": "Feature", "geometry": {"type": "Point", "coordinates": [141.323273, 43.13604]}, "properties": {"action": "救急隊支援出動", "address": "北区屯田6条9丁目", "time": "2017-12-23T21:35:00+09:00"}}, {"type": "Feature", "geometry": {"type": "Point", "coordinates": [141.246429, 43.141968]}, "properties": {"action": "救急隊支援出動", "address": "手稲区前田9条18丁目", "time": "2017-12-23T19:04:00+09:00"}}, {"type": "Feature", "geometry": {"type": "Point", "coordinates": [141.391891, 43.163052]}, "properties": {"action": "救急隊支援出動", "address": "北区あいの里3条3丁目", "time": "2017-12-23T17:21:00+09:00"}}, {"type": "Feature", "geometry": {"type": "Point", "coordinates": [141.414307, 43.130249]}, "properties": {"action": "救急隊支援出動", "address": "東区中沼西3条2丁目", "time": "2017-12-23T16:34:00+09:00"}}, {"type": "Feature", "geometry": {"type": "Point", "coordinates": [141.419662, 43.038395]}, "properties": {"action": "救急隊支援出動", "address": "白石区本郷通11丁目", "time": "2017-12-23T16:09:00+09:00"}}, {"type": "Feature", "geometry": {"type": "Point", "coordinates": [141.354446, 43.060818]}, "properties": {"action": "救急隊支援出動", "address": "中央区大通西2丁目", "time": "2017-12-23T15:52:00+09:00"}}, {"type": "Feature", "geometry": {"type": "Point", "coordinates": [141.326828, 43.138363]}, "properties": {"action": "航空隊支援出動", "address": "北区屯田7条8丁目", "time": "2017-12-23T13:51:00+09:00"}}]}