{"type": "FeatureCollection", "crs": {"type": "name", "properties": {"name": "urn:ogc:def:crs:OGC:1.3:CRS84"}}, "features": [{"type": "Feature", "geometry": {"type": "Point", "coordinates": [141.350418, 43.00288]}, "properties": {"action": "火災出動", "address": "南区真駒内曙町1丁目", "time": "2017-11-01T13:37:00+09:00"}}, {"type": "Feature", "geometry": {"type": "Point", "coordinates": [141.251144, 43.062943]}, "properties": {"action": "救助出動", "address": "西区西野11条9丁目", "time": "2017-11-01T22:11:00+09:00"}}, {"type": "Feature", "geometry": {"type": "Point", "coordinates": [141.331009, 43.075253]}, "properties": {"action": "救助出動", "address": "中央区北14条西15丁目", "time": "2017-11-01T10:34:00+09:00"}}, {"type": "Feature", "geometry": {"type": "Point", "coordinates": [141.36113, 43.128738]}, "properties": {"action": "救助出動", "address": "北区百合が原4丁目", "time": "2017-11-01T09:39:00+09:00"}}, {"type": "Feature", "geometry": {"type": "Point", "coordinates": [141.398071, 43.156963]}, "properties": {"action": "救助出動", "address": "北区あいの里1条5丁目", "time": "2017-11-01T02:01:00+09:00"}}, {"type": "Feature", "geometry": {"type": "Point", "coordinates": [141.359039, 43.07082]}, "properties": {"action": "警戒出動", "address": "東区北7条東3丁目", "time": "2017-11-01T23:59:00+09:00"}}, {"type": "Feature", "geometry": {"type": "Point", "coordinates": [141.396835, 43.050892]}, "properties": {"action": "警戒出動", "address": "白石区東札幌6条5丁目", "time": "2017-11-01T20:52:00+09:00"}}, {"type": "Feature", "geometry": {"type": "Point", "coordinates": [141.379715, 43.095367]}, "properties": {"action": "警戒出動", "address": "東区北24条東19丁目", "time": "2017-11-01T18:43:00+09:00"}}, {"type": "Feature", "geometry": {"type": "Point", "coordinates": [141.35437, 43.140873]}, "properties": {"action": "警戒出動", "address": "北区篠路1条3丁目", "time": "2017-11-01T13:52:00+09:00"}}, {"type": "Feature", "geometry": {"type": "Point", "coordinates": [141.357864, 43.121384]}, "properties": {"action": "警戒出動", "address": "東区北49条東10丁目", "time": "2017-11-01T12:20:00+09:00"}}, {"type": "Feature", "geometry": {"type": "Point", "coordinates": [141.34906, 43.007088]}, "properties": {"action": "警戒出動", "address": "南区真駒内本町3丁目", "time": "2017-11-01T12:11:00+09:00"}}, {"type": "Feature", "geometry": {"type": "Point", "coordinates": [141.405975, 43.054249]}, "properties": {"action": "警戒出動", "address": "白石区平和通1丁目", "time": "2017-11-01T08:39:00+09:00"}}, {"type": "Feature", "geometry": {"type": "Point", "coordinates": [141.423401, 43.031597]}, "properties": {"action": "警戒出動", "address": "白石区栄通15丁目", "time": "2017-11-01T07:21:00+09:00"}}]}