{"type": "FeatureCollection", "crs": {"type": "name", "properties": {"name": "urn:ogc:def:crs:OGC:1.3:CRS84"}}, "features": [{"type": "Feature", "geometry": {"type": "Point", "coordinates": [141.346725, 43.113419]}, "properties": {"action": "火災出動", "address": "東区北44条東2丁目", "time": "2017-12-13T20:38:00+09:00"}}, {"type": "Feature", "geometry": {"type": "Point", "coordinates": [141.318436, 43.054024]}, "properties": {"action": "火災出動", "address": "中央区南2条西26丁目", "time": "2017-12-13T17:46:00+09:00"}}, {"type": "Feature", "geometry": {"type": "Point", "coordinates": [141.353912, 43.056599]}, "properties": {"action": "火災出動", "address": "中央区南3条西3丁目", "time": "2017-12-13T08:41:00+09:00"}}, {"type": "Feature", "geometry": {"type": "Point", "coordinates": [141.328598, 43.060665]}, "properties": {"action": "救助出動", "address": "中央区北2条西18丁目", "time": "2017-12-13T17:02:00+09:00"}}, {"type": "Feature", "geometry": {"type": "Point", "coordinates": [141.335739, 43.053699]}, "properties": {"action": "警戒出動", "address": "中央区南4条西14丁目", "time": "2017-12-13T23:07:00+09:00"}}, {"type": "Feature", "geometry": {"type": "Point", "coordinates": [141.373703, 43.098431]}, "properties": {"action": "警戒出動", "address": "東区北27条東17丁目", "time": "2017-12-13T21:46:00+09:00"}}, {"type": "Feature", "geometry": {"type": "Point", "coordinates": [141.397751, 43.146748]}, "properties": {"action": "警戒出動", "address": "北区篠路町拓北 付近", "time": "2017-12-13T19:23:00+09:00"}}, {"type": "Feature", "geometry": {"type": "Point", "coordinates": [141.369873, 43.058556]}, "properties": {"action": "警戒出動", "address": "白石区菊水2条1丁目", "time": "2017-12-13T18:18:00+09:00"}}, {"type": "Feature", "geometry": {"type": "Point", "coordinates": [141.367798, 43.056225]}, "properties": {"action": "警戒出動", "address": "豊平区豊平1条1丁目", "time": "2017-12-13T14:00:00+09:00"}}, {"type": "Feature", "geometry": {"type": "Point", "coordinates": [141.441086, 43.037571]}, "properties": {"action": "救急隊支援出動", "address": "白石区流通ｾﾝﾀｰ1丁目", "time": "2017-12-13T14:30:00+09:00"}}, {"type": "Feature", "geometry": {"type": "Point", "coordinates": [141.394073, 43.079563]}, "properties": {"action": "救急隊支援出動", "address": "東区東苗穂1条1丁目", "time": "2017-12-13T06:16:00+09:00"}}]}