{"type": "FeatureCollection", "crs": {"type": "name", "properties": {"name": "urn:ogc:def:crs:OGC:1.3:CRS84"}}, "features": [{"type": "Feature", "geometry": {"type": "Point", "coordinates": [141.374344, 43.08902]}, "properties": {"action": "火災出動", "address": "東区北20条東16丁目", "time": "2017-12-25T18:14:00+09:00"}}, {"type": "Feature", "geometry": {"type": "Point", "coordinates": [141.368179, 43.09288]}, "properties": {"action": "火災出動", "address": "東区北23条東13丁目", "time": "2017-12-25T17:45:00+09:00"}}, {"type": "Feature", "geometry": {"type": "Point", "coordinates": [141.334259, 43.033497]}, "properties": {"action": "火災出動", "address": "中央区南19条西16丁目", "time": "2017-12-25T09:49:00+09:00"}}, {"type": "Feature", "geometry": {"type": "Point", "coordinates": [141.409637, 43.04821]}, "properties": {"action": "救助出動", "address": "白石区本通4丁目", "time": "2017-12-25T15:48:00+09:00"}}, {"type": "Feature", "geometry": {"type": "Point", "coordinates": [141.375107, 43.013584]}, "properties": {"action": "救助出動", "address": "南区澄川6条3丁目", "time": "2017-12-25T10:21:00+09:00"}}, {"type": "Feature", "geometry": {"type": "Point", "coordinates": [141.34697, 43.052361]}, "properties": {"action": "救助出動", "address": "中央区南6条西8丁目", "time": "2017-12-25T09:16:00+09:00"}}, {"type": "Feature", "geometry": {"type": "Point", "coordinates": [141.345093, 43.111965]}, "properties": {"action": "救助出動", "address": "東区北43条東1丁目", "time": "2017-12-25T00:51:00+09:00"}}, {"type": "Feature", "geometry": {"type": "Point", "coordinates": [141.347595, 43.075165]}, "properties": {"action": "警戒出動", "address": "北区北12条西4丁目", "time": "2017-12-25T22:19:00+09:00"}}, {"type": "Feature", "geometry": {"type": "Point", "coordinates": [141.307205, 43.078465]}, "properties": {"action": "警戒出動", "address": "西区琴似1条2丁目", "time": "2017-12-25T21:06:00+09:00"}}, {"type": "Feature", "geometry": {"type": "Point", "coordinates": [141.348892, 43.076656]}, "properties": {"action": "警戒出動", "address": "北区北13条西3丁目", "time": "2017-12-25T20:50:00+09:00"}}, {"type": "Feature", "geometry": {"type": "Point", "coordinates": [141.274323, 43.074005]}, "properties": {"action": "警戒出動", "address": "西区西野4条5丁目", "time": "2017-12-25T09:09:00+09:00"}}, {"type": "Feature", "geometry": {"type": "Point", "coordinates": [141.301895, 43.081654]}, "properties": {"action": "警戒出動", "address": "西区琴似4条2丁目", "time": "2017-12-25T07:36:00+09:00"}}, {"type": "Feature", "geometry": {"type": "Point", "coordinates": [141.465439, 42.97953]}, "properties": {"action": "警戒出動", "address": "清田区美しが丘1条8丁目", "time": "2017-12-25T07:12:00+09:00"}}, {"type": "Feature", "geometry": {"type": "Point", "coordinates": [141.29805, 43.131783]}, "properties": {"action": "警戒出動", "address": "北区新琴似町 付近", "time": "2017-12-25T07:09:00+09:00"}}, {"type": "Feature", "geometry": {"type": "Point", "coordinates": [141.375259, 43.15107]}, "properties": {"action": "警戒出動", "address": "北区拓北3条1丁目", "time": "2017-12-25T05:59:00+09:00"}}, {"type": "Feature", "geometry": {"type": "Point", "coordinates": [141.318649, 43.052227]}, "properties": {"action": "警戒出動", "address": "中央区南4条西26丁目", "time": "2017-12-25T02:35:00+09:00"}}, {"type": "Feature", "geometry": {"type": "Point", "coordinates": [141.205719, 43.12606]}, "properties": {"action": "ガス漏れ出動", "address": "手稲区金山2条2丁目", "time": "2017-12-25T12:03:00+09:00"}}, {"type": "Feature", "geometry": {"type": "Point", "coordinates": [141.169678, 42.968746]}, "properties": {"action": "救急隊支援出動", "address": "南区定山渓温泉東2丁目", "time": "2017-12-25T23:26:00+09:00"}}, {"type": "Feature", "geometry": {"type": "Point", "coordinates": [141.298981, 43.091763]}, "properties": {"action": "救急隊支援出動", "address": "西区発寒11条1丁目", "time": "2017-12-25T17:20:00+09:00"}}, {"type": "Feature", "geometry": {"type": "Point", "coordinates": [141.366959, 43.077847]}, "properties": {"action": "救急隊支援出動", "address": "東区北12条東9丁目", "time": "2017-12-25T15:37:00+09:00"}}, {"type": "Feature", "geometry": {"type": "Point", "coordinates": [141.352234, 43.141205]}, "properties": {"action": "救急隊支援出動", "address": "北区篠路1条2丁目", "time": "2017-12-25T14:01:00+09:00"}}, {"type": "Feature", "geometry": {"type": "Point", "coordinates": [141.357346, 43.142895]}, "properties": {"action": "救急隊支援出動", "address": "北区篠路2条4丁目", "time": "2017-12-25T13:11:00+09:00"}}, {"type": "Feature", "geometry": {"type": "Point", "coordinates": [141.385864, 43.054806]}, "properties": {"action": "救急隊支援出動", "address": "白石区東札幌4条1丁目", "time": "2017-12-25T12:47:00+09:00"}}, {"type": "Feature", "geometry": {"type": "Point", "coordinates": [141.165527, 42.971519]}, "properties": {"action": "救急隊支援出動", "address": "南区定山渓温泉西2丁目", "time": "2017-12-25T09:32:00+09:00"}}, {"type": "Feature", "geometry": {"type": "Point", "coordinates": [141.239136, 43.147003]}, "properties": {"action": "救急隊支援出動", "address": "手稲区曙11条1丁目", "time": "2017-12-25T09:11:00+09:00"}}, {"type": "Feature", "geometry": {"type": "Point", "coordinates": [141.255585, 43.110184]}, "properties": {"action": "救急隊支援出動", "address": "手稲区富丘1条4丁目", "time": "2017-12-25T07:23:00+09:00"}}, {"type": "Feature", "geometry": {"type": "Point", "coordinates": [141.338913, 43.042175]}, "properties": {"action": "救急隊支援出動", "address": "中央区南13条西13丁目", "time": "2017-12-25T05:02:00+09:00"}}, {"type": "Feature", "geometry": {"type": "Point", "coordinates": [141.157349, 42.966698]}, "properties": {"action": "航空隊支援出動", "address": "南区定山渓 付近", "time": "2017-12-25T09:35:00+09:00"}}]}