{"type": "FeatureCollection", "crs": {"type": "name", "properties": {"name": "urn:ogc:def:crs:OGC:1.3:CRS84"}}, "features": [{"type": "Feature", "geometry": {"type": "Point", "coordinates": [141.472137, 43.033001]}, "properties": {"action": "火災出動", "address": "厚別区青葉町1丁目", "time": "2018-02-24T11:17:00+09:00"}}, {"type": "Feature", "geometry": {"type": "Point", "coordinates": [141.336594, 43.086849]}, "properties": {"action": "火災出動", "address": "北区北22条西9丁目", "time": "2018-02-24T09:51:00+09:00"}}, {"type": "Feature", "geometry": {"type": "Point", "coordinates": [141.36113, 43.034538]}, "properties": {"action": "救助出動", "address": "豊平区中の島2条3丁目", "time": "2018-02-24T17:36:00+09:00"}}, {"type": "Feature", "geometry": {"type": "Point", "coordinates": [141.330322, 43.101421]}, "properties": {"action": "救助出動", "address": "北区北33条西11丁目", "time": "2018-02-24T10:15:00+09:00"}}, {"type": "Feature", "geometry": {"type": "Point", "coordinates": [141.169678, 42.968746]}, "properties": {"action": "救助出動", "address": "南区定山渓温泉東2丁目", "time": "2018-02-24T07:47:00+09:00"}}, {"type": "Feature", "geometry": {"type": "Point", "coordinates": [141.431656, 43.011425]}, "properties": {"action": "警戒出動", "address": "清田区北野2条2丁目", "time": "2018-02-24T15:51:00+09:00"}}, {"type": "Feature", "geometry": {"type": "Point", "coordinates": [141.303436, 43.07531]}, "properties": {"action": "警戒出動", "address": "西区琴似1条5丁目", "time": "2018-02-24T12:25:00+09:00"}}, {"type": "Feature", "geometry": {"type": "Point", "coordinates": [141.473083, 43.020004]}, "properties": {"action": "警戒出動", "address": "厚別区上野幌1条3丁目", "time": "2018-02-24T12:23:00+09:00"}}, {"type": "Feature", "geometry": {"type": "Point", "coordinates": [141.346115, 43.106972]}, "properties": {"action": "警戒出動", "address": "東区北39条東1丁目", "time": "2018-02-24T09:15:00+09:00"}}, {"type": "Feature", "geometry": {"type": "Point", "coordinates": [141.346115, 43.106972]}, "properties": {"action": "警戒出動", "address": "東区北39条東1丁目", "time": "2018-02-24T08:15:00+09:00"}}, {"type": "Feature", "geometry": {"type": "Point", "coordinates": [141.429626, 43.008102]}, "properties": {"action": "警戒出動", "address": "清田区北野1条2丁目", "time": "2018-02-24T07:52:00+09:00"}}, {"type": "Feature", "geometry": {"type": "Point", "coordinates": [141.347076, 43.032982]}, "properties": {"action": "警戒出動", "address": "中央区南20条西9丁目", "time": "2018-02-24T05:58:00+09:00"}}, {"type": "Feature", "geometry": {"type": "Point", "coordinates": [141.375351, 43.06229]}, "properties": {"action": "警戒出動", "address": "白石区菊水6条1丁目", "time": "2018-02-24T03:34:00+09:00"}}, {"type": "Feature", "geometry": {"type": "Point", "coordinates": [141.392914, 43.040001]}, "properties": {"action": "警戒出動", "address": "豊平区美園2条8丁目", "time": "2018-02-24T03:03:00+09:00"}}, {"type": "Feature", "geometry": {"type": "Point", "coordinates": [141.408386, 43.033493]}, "properties": {"action": "警戒出動", "address": "豊平区月寒東4条8丁目", "time": "2018-02-24T01:09:00+09:00"}}, {"type": "Feature", "geometry": {"type": "Point", "coordinates": [141.329483, 42.949112]}, "properties": {"action": "救急隊支援出動", "address": "南区石山 付近", "time": "2018-02-24T20:40:00+09:00"}}, {"type": "Feature", "geometry": {"type": "Point", "coordinates": [141.237122, 43.141346]}, "properties": {"action": "救急隊支援出動", "address": "手稲区曙8条2丁目", "time": "2018-02-24T18:13:00+09:00"}}, {"type": "Feature", "geometry": {"type": "Point", "coordinates": [141.226974, 43.117218]}, "properties": {"action": "救急隊支援出動", "address": "手稲区稲穂5条2丁目", "time": "2018-02-24T15:37:00+09:00"}}, {"type": "Feature", "geometry": {"type": "Point", "coordinates": [141.28009, 43.085842]}, "properties": {"action": "救急隊支援出動", "address": "西区西町北17丁目", "time": "2018-02-24T11:07:00+09:00"}}, {"type": "Feature", "geometry": {"type": "Point", "coordinates": [141.275101, 42.956631]}, "properties": {"action": "救急隊支援出動", "address": "南区簾舞5条1丁目", "time": "2018-02-24T09:47:00+09:00"}}, {"type": "Feature", "geometry": {"type": "Point", "coordinates": [141.306381, 42.960247]}, "properties": {"action": "航空隊支援出動", "address": "南区藤野3条3丁目", "time": "2018-02-24T09:51:00+09:00"}}]}