{"type": "FeatureCollection", "crs": {"type": "name", "properties": {"name": "urn:ogc:def:crs:OGC:1.3:CRS84"}}, "features": [{"type": "Feature", "geometry": {"type": "Point", "coordinates": [141.477386, 43.011402]}, "properties": {"action": "救助出動", "address": "厚別区上野幌3条5丁目", "time": "2018-07-26T14:54:00+09:00"}}, {"type": "Feature", "geometry": {"type": "Point", "coordinates": [141.360092, 43.01844]}, "properties": {"action": "救助出動", "address": "南区澄川1条1丁目", "time": "2018-07-26T13:45:00+09:00"}}, {"type": "Feature", "geometry": {"type": "Point", "coordinates": [141.350418, 43.00288]}, "properties": {"action": "救助出動", "address": "南区真駒内曙町1丁目", "time": "2018-07-26T10:33:00+09:00"}}, {"type": "Feature", "geometry": {"type": "Point", "coordinates": [141.342316, 43.145321]}, "properties": {"action": "警戒出動", "address": "北区屯田10条3丁目", "time": "2018-07-26T17:52:00+09:00"}}, {"type": "Feature", "geometry": {"type": "Point", "coordinates": [141.368958, 43.054848]}, "properties": {"action": "警戒出動", "address": "豊平区豊平2条2丁目", "time": "2018-07-26T16:03:00+09:00"}}, {"type": "Feature", "geometry": {"type": "Point", "coordinates": [141.305634, 43.073524]}, "properties": {"action": "警戒出動", "address": "西区二十四軒4条5丁目", "time": "2018-07-26T15:14:00+09:00"}}, {"type": "Feature", "geometry": {"type": "Point", "coordinates": [141.389648, 43.04034]}, "properties": {"action": "警戒出動", "address": "豊平区美園3条6丁目", "time": "2018-07-26T12:17:00+09:00"}}, {"type": "Feature", "geometry": {"type": "Point", "coordinates": [141.350037, 43.051384]}, "properties": {"action": "警戒出動", "address": "中央区南7条西6丁目", "time": "2018-07-26T08:10:00+09:00"}}, {"type": "Feature", "geometry": {"type": "Point", "coordinates": [141.454056, 43.003387]}, "properties": {"action": "警戒出動", "address": "清田区平岡4条3丁目", "time": "2018-07-26T06:15:00+09:00"}}, {"type": "Feature", "geometry": {"type": "Point", "coordinates": [141.454056, 43.003387]}, "properties": {"action": "警戒出動", "address": "清田区平岡4条3丁目", "time": "2018-07-26T05:31:00+09:00"}}, {"type": "Feature", "geometry": {"type": "Point", "coordinates": [141.346725, 43.113419]}, "properties": {"action": "警戒出動", "address": "東区北44条東2丁目", "time": "2018-07-26T03:04:00+09:00"}}, {"type": "Feature", "geometry": {"type": "Point", "coordinates": [141.383057, 43.048058]}, "properties": {"action": "救急隊支援出動", "address": "白石区東札幌1条3丁目", "time": "2018-07-26T11:57:00+09:00"}}, {"type": "Feature", "geometry": {"type": "Point", "coordinates": [141.374039, 43.027985]}, "properties": {"action": "救急隊支援出動", "address": "豊平区平岸4条12丁目", "time": "2018-07-26T06:42:00+09:00"}}]}