{"type": "FeatureCollection", "crs": {"type": "name", "properties": {"name": "urn:ogc:def:crs:OGC:1.3:CRS84"}}, "features": [{"type": "Feature", "geometry": {"type": "Point", "coordinates": [141.363907, 43.0611]}, "properties": {"action": "火災出動", "address": "中央区南1条東5丁目", "time": "2018-01-22T15:22:00+09:00"}}, {"type": "Feature", "geometry": {"type": "Point", "coordinates": [141.362152, 43.131355]}, "properties": {"action": "火災出動", "address": "北区百合が原5丁目", "time": "2018-01-22T06:24:00+09:00"}}, {"type": "Feature", "geometry": {"type": "Point", "coordinates": [141.366959, 43.077847]}, "properties": {"action": "救助出動", "address": "東区北12条東9丁目", "time": "2018-01-22T23:25:00+09:00"}}, {"type": "Feature", "geometry": {"type": "Point", "coordinates": [141.336334, 43.050018]}, "properties": {"action": "救助出動", "address": "中央区南7条西14丁目", "time": "2018-01-22T19:47:00+09:00"}}, {"type": "Feature", "geometry": {"type": "Point", "coordinates": [141.391083, 43.06702]}, "properties": {"action": "救助出動", "address": "白石区菊水上町4条1丁目", "time": "2018-01-22T10:20:00+09:00"}}, {"type": "Feature", "geometry": {"type": "Point", "coordinates": [141.416916, 42.948112]}, "properties": {"action": "救助出動", "address": "清田区有明 付近", "time": "2018-01-22T05:54:00+09:00"}}, {"type": "Feature", "geometry": {"type": "Point", "coordinates": [141.443893, 42.991756]}, "properties": {"action": "救助出動", "address": "清田区真栄2条2丁目", "time": "2018-01-22T01:28:00+09:00"}}, {"type": "Feature", "geometry": {"type": "Point", "coordinates": [141.338501, 43.09251]}, "properties": {"action": "警戒出動", "address": "北区北26条西7丁目", "time": "2018-01-22T20:42:00+09:00"}}, {"type": "Feature", "geometry": {"type": "Point", "coordinates": [141.356888, 43.049458]}, "properties": {"action": "警戒出動", "address": "中央区南9条西2丁目", "time": "2018-01-22T17:01:00+09:00"}}, {"type": "Feature", "geometry": {"type": "Point", "coordinates": [141.31987, 43.055325]}, "properties": {"action": "警戒出動", "address": "中央区南1条西25丁目", "time": "2018-01-22T16:47:00+09:00"}}, {"type": "Feature", "geometry": {"type": "Point", "coordinates": [141.379684, 43.076054]}, "properties": {"action": "警戒出動", "address": "東区北8条東17丁目", "time": "2018-01-22T13:21:00+09:00"}}, {"type": "Feature", "geometry": {"type": "Point", "coordinates": [141.338501, 43.09251]}, "properties": {"action": "警戒出動", "address": "北区北26条西7丁目", "time": "2018-01-22T12:31:00+09:00"}}, {"type": "Feature", "geometry": {"type": "Point", "coordinates": [141.389618, 43.012421]}, "properties": {"action": "警戒出動", "address": "豊平区西岡4条6丁目", "time": "2018-01-22T11:47:00+09:00"}}, {"type": "Feature", "geometry": {"type": "Point", "coordinates": [141.278076, 43.123772]}, "properties": {"action": "警戒出動", "address": "北区新川西1条4丁目", "time": "2018-01-22T11:14:00+09:00"}}, {"type": "Feature", "geometry": {"type": "Point", "coordinates": [141.357635, 43.021824]}, "properties": {"action": "警戒出動", "address": "豊平区中の島2条10丁目", "time": "2018-01-22T10:10:00+09:00"}}, {"type": "Feature", "geometry": {"type": "Point", "coordinates": [141.319061, 43.109974]}, "properties": {"action": "警戒出動", "address": "北区新琴似3条7丁目", "time": "2018-01-22T07:22:00+09:00"}}, {"type": "Feature", "geometry": {"type": "Point", "coordinates": [141.393478, 43.038586]}, "properties": {"action": "警戒出動", "address": "豊平区月寒東1条1丁目", "time": "2018-01-22T05:00:00+09:00"}}, {"type": "Feature", "geometry": {"type": "Point", "coordinates": [141.235428, 43.145813]}, "properties": {"action": "警戒出動", "address": "手稲区曙11条2丁目", "time": "2018-01-22T03:59:00+09:00"}}, {"type": "Feature", "geometry": {"type": "Point", "coordinates": [141.426468, 43.010101]}, "properties": {"action": "救急隊支援出動", "address": "清田区北野1条1丁目", "time": "2018-01-22T12:15:00+09:00"}}, {"type": "Feature", "geometry": {"type": "Point", "coordinates": [141.349289, 43.068562]}, "properties": {"action": "救急隊支援出動", "address": "北区北6条西4丁目", "time": "2018-01-22T09:44:00+09:00"}}, {"type": "Feature", "geometry": {"type": "Point", "coordinates": [141.398529, 43.009712]}, "properties": {"action": "救急隊支援出動", "address": "豊平区福住3条7丁目", "time": "2018-01-22T08:21:00+09:00"}}]}