{"type": "FeatureCollection", "crs": {"type": "name", "properties": {"name": "urn:ogc:def:crs:OGC:1.3:CRS84"}}, "features": [{"type": "Feature", "geometry": {"type": "Point", "coordinates": [141.250656, 43.057087]}, "properties": {"action": "救助出動", "address": "西区平和2条8丁目", "time": "2018-01-02T23:08:00+09:00"}}, {"type": "Feature", "geometry": {"type": "Point", "coordinates": [141.419144, 43.023518]}, "properties": {"action": "救助出動", "address": "豊平区月寒東3条16丁目", "time": "2018-01-02T16:19:00+09:00"}}, {"type": "Feature", "geometry": {"type": "Point", "coordinates": [141.24617, 43.116768]}, "properties": {"action": "救助出動", "address": "手稲区手稲本町1条1丁目", "time": "2018-01-02T03:14:00+09:00"}}, {"type": "Feature", "geometry": {"type": "Point", "coordinates": [141.410156, 43.094749]}, "properties": {"action": "警戒出動", "address": "東区東苗穂7条2丁目", "time": "2018-01-02T21:09:00+09:00"}}, {"type": "Feature", "geometry": {"type": "Point", "coordinates": [141.340775, 43.10894]}, "properties": {"action": "警戒出動", "address": "北区麻生町2丁目", "time": "2018-01-02T19:44:00+09:00"}}, {"type": "Feature", "geometry": {"type": "Point", "coordinates": [141.346848, 43.078693]}, "properties": {"action": "警戒出動", "address": "北区北15条西4丁目", "time": "2018-01-02T18:28:00+09:00"}}, {"type": "Feature", "geometry": {"type": "Point", "coordinates": [141.342316, 43.031403]}, "properties": {"action": "警戒出動", "address": "中央区南21条西12丁目", "time": "2018-01-02T16:45:00+09:00"}}, {"type": "Feature", "geometry": {"type": "Point", "coordinates": [141.361328, 43.099087]}, "properties": {"action": "警戒出動", "address": "東区北30条東9丁目", "time": "2018-01-02T15:06:00+09:00"}}, {"type": "Feature", "geometry": {"type": "Point", "coordinates": [141.368927, 43.150665]}, "properties": {"action": "警戒出動", "address": "北区篠路7条7丁目", "time": "2018-01-02T13:15:00+09:00"}}, {"type": "Feature", "geometry": {"type": "Point", "coordinates": [141.325638, 43.089581]}, "properties": {"action": "警戒出動", "address": "北区北24条西15丁目", "time": "2018-01-02T12:58:00+09:00"}}, {"type": "Feature", "geometry": {"type": "Point", "coordinates": [141.24263, 43.141605]}, "properties": {"action": "警戒出動", "address": "手稲区前田8条19丁目", "time": "2018-01-02T12:30:00+09:00"}}, {"type": "Feature", "geometry": {"type": "Point", "coordinates": [141.24263, 43.141605]}, "properties": {"action": "警戒出動", "address": "手稲区前田8条19丁目", "time": "2018-01-02T08:50:00+09:00"}}, {"type": "Feature", "geometry": {"type": "Point", "coordinates": [141.24263, 43.141605]}, "properties": {"action": "警戒出動", "address": "手稲区前田8条19丁目", "time": "2018-01-02T06:10:00+09:00"}}, {"type": "Feature", "geometry": {"type": "Point", "coordinates": [141.347137, 43.046803]}, "properties": {"action": "警戒出動", "address": "中央区南10条西8丁目", "time": "2018-01-02T00:26:00+09:00"}}, {"type": "Feature", "geometry": {"type": "Point", "coordinates": [141.290283, 43.079784]}, "properties": {"action": "救急隊支援出動", "address": "西区西町北6丁目", "time": "2018-01-02T23:58:00+09:00"}}, {"type": "Feature", "geometry": {"type": "Point", "coordinates": [141.362625, 43.144566]}, "properties": {"action": "救急隊支援出動", "address": "北区篠路3条6丁目", "time": "2018-01-02T21:06:00+09:00"}}, {"type": "Feature", "geometry": {"type": "Point", "coordinates": [141.375595, 43.042049]}, "properties": {"action": "救急隊支援出動", "address": "豊平区豊平8条12丁目", "time": "2018-01-02T17:16:00+09:00"}}, {"type": "Feature", "geometry": {"type": "Point", "coordinates": [141.426849, 43.002483]}, "properties": {"action": "救急隊支援出動", "address": "清田区清田3条1丁目", "time": "2018-01-02T17:05:00+09:00"}}, {"type": "Feature", "geometry": {"type": "Point", "coordinates": [141.432129, 42.985027]}, "properties": {"action": "救急隊支援出動", "address": "清田区清田8条3丁目", "time": "2018-01-02T16:00:00+09:00"}}, {"type": "Feature", "geometry": {"type": "Point", "coordinates": [141.34343, 43.024494]}, "properties": {"action": "救急隊支援出動", "address": "中央区南26条西12丁目", "time": "2018-01-02T15:45:00+09:00"}}, {"type": "Feature", "geometry": {"type": "Point", "coordinates": [141.359131, 43.108971]}, "properties": {"action": "救急隊支援出動", "address": "東区北39条東9丁目", "time": "2018-01-02T13:02:00+09:00"}}, {"type": "Feature", "geometry": {"type": "Point", "coordinates": [141.310883, 43.118439]}, "properties": {"action": "救急隊支援出動", "address": "北区新琴似5条13丁目", "time": "2018-01-02T13:02:00+09:00"}}, {"type": "Feature", "geometry": {"type": "Point", "coordinates": [141.342972, 43.054455]}, "properties": {"action": "救急隊支援出動", "address": "中央区南4条西10丁目", "time": "2018-01-02T12:26:00+09:00"}}, {"type": "Feature", "geometry": {"type": "Point", "coordinates": [141.263977, 43.051659]}, "properties": {"action": "救急隊支援出動", "address": "西区福井8丁目", "time": "2018-01-02T12:08:00+09:00"}}, {"type": "Feature", "geometry": {"type": "Point", "coordinates": [141.339661, 43.051979]}, "properties": {"action": "救急隊支援出動", "address": "中央区南6条西12丁目", "time": "2018-01-02T11:29:00+09:00"}}, {"type": "Feature", "geometry": {"type": "Point", "coordinates": [141.327103, 43.072311]}, "properties": {"action": "救急隊支援出動", "address": "中央区北12条西17丁目", "time": "2018-01-02T09:30:00+09:00"}}]}