{"type": "FeatureCollection", "crs": {"type": "name", "properties": {"name": "urn:ogc:def:crs:OGC:1.3:CRS84"}}, "features": [{"type": "Feature", "geometry": {"type": "Point", "coordinates": [141.398697, 43.043926]}, "properties": {"action": "救助出動", "address": "白石区南郷通2丁目", "time": "2018-06-05T19:49:00+09:00"}}, {"type": "Feature", "geometry": {"type": "Point", "coordinates": [141.365417, 43.018402]}, "properties": {"action": "救助出動", "address": "南区澄川3条1丁目", "time": "2018-06-05T10:05:00+09:00"}}, {"type": "Feature", "geometry": {"type": "Point", "coordinates": [141.362534, 43.043137]}, "properties": {"action": "救助出動", "address": "豊平区水車町7丁目", "time": "2018-06-05T06:01:00+09:00"}}, {"type": "Feature", "geometry": {"type": "Point", "coordinates": [141.348038, 43.053852]}, "properties": {"action": "警戒出動", "address": "中央区南5条西7丁目", "time": "2018-06-05T22:45:00+09:00"}}, {"type": "Feature", "geometry": {"type": "Point", "coordinates": [141.298523, 43.109951]}, "properties": {"action": "警戒出動", "address": "北区新川3条14丁目", "time": "2018-06-05T19:49:00+09:00"}}, {"type": "Feature", "geometry": {"type": "Point", "coordinates": [141.337143, 43.122856]}, "properties": {"action": "警戒出動", "address": "北区屯田2条3丁目", "time": "2018-06-05T14:11:00+09:00"}}, {"type": "Feature", "geometry": {"type": "Point", "coordinates": [141.259644, 43.132416]}, "properties": {"action": "警戒出動", "address": "手稲区前田9条11丁目", "time": "2018-06-05T13:55:00+09:00"}}, {"type": "Feature", "geometry": {"type": "Point", "coordinates": [141.468521, 43.030453]}, "properties": {"action": "警戒出動", "address": "厚別区厚別南2丁目", "time": "2018-06-05T04:24:00+09:00"}}, {"type": "Feature", "geometry": {"type": "Point", "coordinates": [141.340363, 43.125374]}, "properties": {"action": "警戒出動", "address": "北区屯田3条2丁目", "time": "2018-06-05T00:06:00+09:00"}}, {"type": "Feature", "geometry": {"type": "Point", "coordinates": [141.261978, 43.074409]}, "properties": {"action": "救急隊支援出動", "address": "西区西野6条10丁目", "time": "2018-06-05T08:58:00+09:00"}}, {"type": "Feature", "geometry": {"type": "Point", "coordinates": [141.323227, 43.114132]}, "properties": {"action": "救急隊支援出動", "address": "北区新琴似6条7丁目", "time": "2018-06-05T08:10:00+09:00"}}, {"type": "Feature", "geometry": {"type": "Point", "coordinates": [141.503311, 43.026466]}, "properties": {"action": "救急隊支援出動", "address": "厚別区もみじ台東7丁目", "time": "2018-06-05T00:46:00+09:00"}}]}