{"type": "FeatureCollection", "crs": {"type": "name", "properties": {"name": "urn:ogc:def:crs:OGC:1.3:CRS84"}}, "features": [{"type": "Feature", "geometry": {"type": "Point", "coordinates": [141.461075, 43.05175]}, "properties": {"action": "火災出動", "address": "厚別区厚別西4条3丁目", "time": "2018-05-07T19:24:00+09:00"}}, {"type": "Feature", "geometry": {"type": "Point", "coordinates": [141.463577, 42.988224]}, "properties": {"action": "救助出動", "address": "清田区里塚2条3丁目", "time": "2018-05-07T14:22:00+09:00"}}, {"type": "Feature", "geometry": {"type": "Point", "coordinates": [141.354218, 43.076069]}, "properties": {"action": "救助出動", "address": "東区北12条東1丁目", "time": "2018-05-07T10:24:00+09:00"}}, {"type": "Feature", "geometry": {"type": "Point", "coordinates": [141.347977, 42.952274]}, "properties": {"action": "救助出動", "address": "南区常盤1条2丁目", "time": "2018-05-07T06:56:00+09:00"}}, {"type": "Feature", "geometry": {"type": "Point", "coordinates": [141.30603, 43.07732]}, "properties": {"action": "警戒出動", "address": "西区琴似1条3丁目", "time": "2018-05-07T21:50:00+09:00"}}, {"type": "Feature", "geometry": {"type": "Point", "coordinates": [141.42807, 43.032047]}, "properties": {"action": "警戒出動", "address": "白石区南郷通16丁目", "time": "2018-05-07T13:44:00+09:00"}}, {"type": "Feature", "geometry": {"type": "Point", "coordinates": [141.308151, 43.069351]}, "properties": {"action": "警戒出動", "address": "西区二十四軒3条7丁目", "time": "2018-05-07T03:32:00+09:00"}}, {"type": "Feature", "geometry": {"type": "Point", "coordinates": [141.457672, 42.998371]}, "properties": {"action": "警戒出動", "address": "清田区平岡3条5丁目", "time": "2018-05-07T00:41:00+09:00"}}, {"type": "Feature", "geometry": {"type": "Point", "coordinates": [141.364059, 43.062714]}, "properties": {"action": "警戒出動", "address": "中央区大通東5丁目", "time": "2018-05-07T00:15:00+09:00"}}, {"type": "Feature", "geometry": {"type": "Point", "coordinates": [141.302948, 43.076698]}, "properties": {"action": "救急隊支援出動", "address": "西区琴似2条4丁目", "time": "2018-05-07T13:08:00+09:00"}}, {"type": "Feature", "geometry": {"type": "Point", "coordinates": [141.479034, 43.039322]}, "properties": {"action": "救急隊支援出動", "address": "厚別区厚別中央1条7丁目", "time": "2018-05-07T09:28:00+09:00"}}, {"type": "Feature", "geometry": {"type": "Point", "coordinates": [141.398361, 43.082935]}, "properties": {"action": "救急隊支援出動", "address": "東区東苗穂2条1丁目", "time": "2018-05-07T07:32:00+09:00"}}, {"type": "Feature", "geometry": {"type": "Point", "coordinates": [141.486298, 43.032185]}, "properties": {"action": "航空隊支援出動", "address": "厚別区もみじ台西3丁目", "time": "2018-05-07T09:35:00+09:00"}}]}