{"type": "FeatureCollection", "crs": {"type": "name", "properties": {"name": "urn:ogc:def:crs:OGC:1.3:CRS84"}}, "features": [{"type": "Feature", "geometry": {"type": "Point", "coordinates": [141.372147, 43.1035]}, "properties": {"action": "火災出動", "address": "東区北33条東17丁目", "time": "2018-01-07T10:11:00+09:00"}}, {"type": "Feature", "geometry": {"type": "Point", "coordinates": [141.350128, 43.053825]}, "properties": {"action": "警戒出動", "address": "中央区南5条西6丁目", "time": "2018-01-07T21:44:00+09:00"}}, {"type": "Feature", "geometry": {"type": "Point", "coordinates": [141.388382, 43.090622]}, "properties": {"action": "警戒出動", "address": "東区北22条東23丁目", "time": "2018-01-07T17:34:00+09:00"}}, {"type": "Feature", "geometry": {"type": "Point", "coordinates": [141.347122, 43.112099]}, "properties": {"action": "警戒出動", "address": "東区北43条東2丁目", "time": "2018-01-07T15:59:00+09:00"}}, {"type": "Feature", "geometry": {"type": "Point", "coordinates": [141.355988, 43.082279]}, "properties": {"action": "警戒出動", "address": "東区北17条東3丁目", "time": "2018-01-07T12:07:00+09:00"}}, {"type": "Feature", "geometry": {"type": "Point", "coordinates": [141.369843, 43.049984]}, "properties": {"action": "警戒出動", "address": "豊平区豊平5条5丁目", "time": "2018-01-07T08:19:00+09:00"}}, {"type": "Feature", "geometry": {"type": "Point", "coordinates": [141.341003, 43.089001]}, "properties": {"action": "警戒出動", "address": "北区北23条西6丁目", "time": "2018-01-07T05:14:00+09:00"}}, {"type": "Feature", "geometry": {"type": "Point", "coordinates": [141.323196, 43.051537]}, "properties": {"action": "警戒出動", "address": "中央区南5条西23丁目", "time": "2018-01-07T02:18:00+09:00"}}, {"type": "Feature", "geometry": {"type": "Point", "coordinates": [141.365189, 43.014172]}, "properties": {"action": "救急隊支援出動", "address": "南区澄川3条3丁目", "time": "2018-01-07T18:44:00+09:00"}}, {"type": "Feature", "geometry": {"type": "Point", "coordinates": [141.435303, 43.021778]}, "properties": {"action": "救急隊支援出動", "address": "清田区北野6条2丁目", "time": "2018-01-07T16:40:00+09:00"}}, {"type": "Feature", "geometry": {"type": "Point", "coordinates": [141.412216, 43.042377]}, "properties": {"action": "救急隊支援出動", "address": "白石区本郷通7丁目", "time": "2018-01-07T16:30:00+09:00"}}, {"type": "Feature", "geometry": {"type": "Point", "coordinates": [141.286942, 42.963581]}, "properties": {"action": "救急隊支援出動", "address": "南区藤野2条9丁目", "time": "2018-01-07T14:22:00+09:00"}}, {"type": "Feature", "geometry": {"type": "Point", "coordinates": [141.172394, 42.971851]}, "properties": {"action": "救急隊支援出動", "address": "南区定山渓温泉西1丁目", "time": "2018-01-07T14:10:00+09:00"}}, {"type": "Feature", "geometry": {"type": "Point", "coordinates": [141.333282, 43.09317]}, "properties": {"action": "救急隊支援出動", "address": "北区北27条西10丁目", "time": "2018-01-07T11:28:00+09:00"}}, {"type": "Feature", "geometry": {"type": "Point", "coordinates": [141.305023, 43.043095]}, "properties": {"action": "救急隊支援出動", "address": "中央区円山西町3丁目", "time": "2018-01-07T02:53:00+09:00"}}, {"type": "Feature", "geometry": {"type": "Point", "coordinates": [141.36911, 43.141823]}, "properties": {"action": "救急隊支援出動", "address": "北区篠路2条9丁目", "time": "2018-01-07T02:21:00+09:00"}}, {"type": "Feature", "geometry": {"type": "Point", "coordinates": [141.493118, 43.024426]}, "properties": {"action": "救急隊支援出動", "address": "厚別区もみじ台南3丁目", "time": "2018-01-07T00:42:00+09:00"}}]}