{"type": "FeatureCollection", "crs": {"type": "name", "properties": {"name": "urn:ogc:def:crs:OGC:1.3:CRS84"}}, "features": [{"type": "Feature", "geometry": {"type": "Point", "coordinates": [141.346542, 43.127975]}, "properties": {"action": "火災出動", "address": "北区太平3条1丁目", "time": "2018-02-02T14:58:00+09:00"}}, {"type": "Feature", "geometry": {"type": "Point", "coordinates": [141.279816, 43.082054]}, "properties": {"action": "車両火災出動", "address": "西区西町南14丁目", "time": "2018-02-02T10:23:00+09:00"}}, {"type": "Feature", "geometry": {"type": "Point", "coordinates": [141.444748, 43.007584]}, "properties": {"action": "車両火災出動", "address": "清田区北野3条5丁目", "time": "2018-02-02T08:19:00+09:00"}}, {"type": "Feature", "geometry": {"type": "Point", "coordinates": [141.24617, 43.116768]}, "properties": {"action": "救助出動", "address": "手稲区手稲本町1条1丁目", "time": "2018-02-02T23:42:00+09:00"}}, {"type": "Feature", "geometry": {"type": "Point", "coordinates": [141.308151, 43.069351]}, "properties": {"action": "救助出動", "address": "西区二十四軒3条7丁目", "time": "2018-02-02T13:13:00+09:00"}}, {"type": "Feature", "geometry": {"type": "Point", "coordinates": [141.259445, 43.108479]}, "properties": {"action": "救助出動", "address": "手稲区西宮の沢1条5丁目", "time": "2018-02-02T12:30:00+09:00"}}, {"type": "Feature", "geometry": {"type": "Point", "coordinates": [141.359985, 43.121616]}, "properties": {"action": "救助出動", "address": "東区北49条東13丁目", "time": "2018-02-02T05:43:00+09:00"}}, {"type": "Feature", "geometry": {"type": "Point", "coordinates": [141.278595, 42.959984]}, "properties": {"action": "警戒出動", "address": "南区藤野3条11丁目", "time": "2018-02-02T22:28:00+09:00"}}, {"type": "Feature", "geometry": {"type": "Point", "coordinates": [141.493118, 43.024426]}, "properties": {"action": "警戒出動", "address": "厚別区もみじ台南3丁目", "time": "2018-02-02T21:14:00+09:00"}}, {"type": "Feature", "geometry": {"type": "Point", "coordinates": [141.320267, 43.124012]}, "properties": {"action": "警戒出動", "address": "北区新琴似10条12丁目", "time": "2018-02-02T20:48:00+09:00"}}, {"type": "Feature", "geometry": {"type": "Point", "coordinates": [141.289337, 43.089333]}, "properties": {"action": "警戒出動", "address": "西区発寒6条5丁目", "time": "2018-02-02T18:12:00+09:00"}}, {"type": "Feature", "geometry": {"type": "Point", "coordinates": [141.353882, 43.090866]}, "properties": {"action": "警戒出動", "address": "東区北23条東3丁目", "time": "2018-02-02T18:07:00+09:00"}}, {"type": "Feature", "geometry": {"type": "Point", "coordinates": [141.41713, 43.047264]}, "properties": {"action": "警戒出動", "address": "白石区平和通7丁目", "time": "2018-02-02T16:54:00+09:00"}}, {"type": "Feature", "geometry": {"type": "Point", "coordinates": [141.371368, 43.039398]}, "properties": {"action": "警戒出動", "address": "豊平区平岸3条3丁目", "time": "2018-02-02T15:43:00+09:00"}}, {"type": "Feature", "geometry": {"type": "Point", "coordinates": [141.368271, 43.023815]}, "properties": {"action": "警戒出動", "address": "豊平区平岸3条16丁目", "time": "2018-02-02T09:27:00+09:00"}}, {"type": "Feature", "geometry": {"type": "Point", "coordinates": [141.34967, 42.996372]}, "properties": {"action": "警戒出動", "address": "南区真駒内上町1丁目", "time": "2018-02-02T09:20:00+09:00"}}, {"type": "Feature", "geometry": {"type": "Point", "coordinates": [141.365463, 43.038197]}, "properties": {"action": "警戒出動", "address": "豊平区平岸1条5丁目", "time": "2018-02-02T02:39:00+09:00"}}, {"type": "Feature", "geometry": {"type": "Point", "coordinates": [141.334335, 43.039341]}, "properties": {"action": "警戒出動", "address": "中央区南15条西16丁目", "time": "2018-02-02T00:52:00+09:00"}}, {"type": "Feature", "geometry": {"type": "Point", "coordinates": [141.31572, 43.065224]}, "properties": {"action": "警戒出動", "address": "中央区北7条西26丁目", "time": "2018-02-02T00:30:00+09:00"}}, {"type": "Feature", "geometry": {"type": "Point", "coordinates": [141.276199, 43.087761]}, "properties": {"action": "救急隊支援出動", "address": "西区西町北20丁目", "time": "2018-02-02T21:39:00+09:00"}}, {"type": "Feature", "geometry": {"type": "Point", "coordinates": [141.463852, 43.029846]}, "properties": {"action": "救急隊支援出動", "address": "厚別区厚別南1丁目", "time": "2018-02-02T17:24:00+09:00"}}, {"type": "Feature", "geometry": {"type": "Point", "coordinates": [141.401077, 43.038338]}, "properties": {"action": "救急隊支援出動", "address": "豊平区月寒東3条3丁目", "time": "2018-02-02T07:43:00+09:00"}}, {"type": "Feature", "geometry": {"type": "Point", "coordinates": [141.380035, 43.01582]}, "properties": {"action": "救急隊支援出動", "address": "豊平区西岡1条5丁目", "time": "2018-02-02T05:26:00+09:00"}}, {"type": "Feature", "geometry": {"type": "Point", "coordinates": [141.366394, 43.092548]}, "properties": {"action": "救急隊支援出動", "address": "東区北23条東12丁目", "time": "2018-02-02T01:00:00+09:00"}}]}