{"type": "FeatureCollection", "crs": {"type": "name", "properties": {"name": "urn:ogc:def:crs:OGC:1.3:CRS84"}}, "features": [{"type": "Feature", "geometry": {"type": "Point", "coordinates": [141.358337, 43.072983]}, "properties": {"action": "救助出動", "address": "東区北9条東3丁目", "time": "2018-04-22T23:16:00+09:00"}}, {"type": "Feature", "geometry": {"type": "Point", "coordinates": [141.321945, 43.058254]}, "properties": {"action": "救助出動", "address": "中央区北1条西23丁目", "time": "2018-04-22T10:46:00+09:00"}}, {"type": "Feature", "geometry": {"type": "Point", "coordinates": [141.312363, 43.058258]}, "properties": {"action": "山岳救助出動", "address": "中央区宮ケ丘 付近", "time": "2018-04-22T11:41:00+09:00"}}, {"type": "Feature", "geometry": {"type": "Point", "coordinates": [141.353928, 43.057743]}, "properties": {"action": "警戒出動", "address": "中央区南2条西3丁目", "time": "2018-04-22T15:17:00+09:00"}}, {"type": "Feature", "geometry": {"type": "Point", "coordinates": [141.172394, 42.971851]}, "properties": {"action": "警戒出動", "address": "南区定山渓温泉西1丁目", "time": "2018-04-22T10:36:00+09:00"}}, {"type": "Feature", "geometry": {"type": "Point", "coordinates": [141.412216, 43.042377]}, "properties": {"action": "警戒出動", "address": "白石区本郷通7丁目", "time": "2018-04-22T02:50:00+09:00"}}, {"type": "Feature", "geometry": {"type": "Point", "coordinates": [141.334763, 43.047005]}, "properties": {"action": "救急隊支援出動", "address": "中央区南9条西15丁目", "time": "2018-04-22T22:02:00+09:00"}}, {"type": "Feature", "geometry": {"type": "Point", "coordinates": [141.341675, 43.051956]}, "properties": {"action": "救急隊支援出動", "address": "中央区南6条西11丁目", "time": "2018-04-22T19:48:00+09:00"}}, {"type": "Feature", "geometry": {"type": "Point", "coordinates": [141.205551, 43.136448]}, "properties": {"action": "救急隊支援出動", "address": "手稲区星置2条5丁目", "time": "2018-04-22T18:43:00+09:00"}}, {"type": "Feature", "geometry": {"type": "Point", "coordinates": [141.378403, 42.993889]}, "properties": {"action": "救急隊支援出動", "address": "豊平区西岡4条13丁目", "time": "2018-04-22T13:52:00+09:00"}}, {"type": "Feature", "geometry": {"type": "Point", "coordinates": [141.467957, 43.036476]}, "properties": {"action": "救急隊支援出動", "address": "厚別区厚別中央2条4丁目", "time": "2018-04-22T13:33:00+09:00"}}, {"type": "Feature", "geometry": {"type": "Point", "coordinates": [141.488037, 43.036308]}, "properties": {"action": "救急隊支援出動", "address": "厚別区もみじ台北4丁目", "time": "2018-04-22T10:53:00+09:00"}}, {"type": "Feature", "geometry": {"type": "Point", "coordinates": [141.464661, 42.976456]}, "properties": {"action": "救急隊支援出動", "address": "清田区美しが丘2条9丁目", "time": "2018-04-22T09:38:00+09:00"}}, {"type": "Feature", "geometry": {"type": "Point", "coordinates": [141.380264, 42.996513]}, "properties": {"action": "航空隊支援出動", "address": "豊平区西岡4条12丁目", "time": "2018-04-22T13:57:00+09:00"}}, {"type": "Feature", "geometry": {"type": "Point", "coordinates": [141.461594, 42.97887]}, "properties": {"action": "航空隊支援出動", "address": "清田区美しが丘2条7丁目", "time": "2018-04-22T09:41:00+09:00"}}]}