{"type": "FeatureCollection", "crs": {"type": "name", "properties": {"name": "urn:ogc:def:crs:OGC:1.3:CRS84"}}, "features": [{"type": "Feature", "geometry": {"type": "Point", "coordinates": [141.246429, 43.141968]}, "properties": {"action": "火災出動", "address": "手稲区前田9条18丁目", "time": "2018-05-20T19:15:00+09:00"}}, {"type": "Feature", "geometry": {"type": "Point", "coordinates": [141.34465, 43.144863]}, "properties": {"action": "救助出動", "address": "北区屯田10条2丁目", "time": "2018-05-20T12:02:00+09:00"}}, {"type": "Feature", "geometry": {"type": "Point", "coordinates": [141.157349, 42.966698]}, "properties": {"action": "山岳救助出動", "address": "南区定山渓 付近", "time": "2018-05-20T12:40:00+09:00"}}, {"type": "Feature", "geometry": {"type": "Point", "coordinates": [141.286118, 43.089096]}, "properties": {"action": "警戒出動", "address": "西区発寒6条7丁目", "time": "2018-05-20T18:51:00+09:00"}}, {"type": "Feature", "geometry": {"type": "Point", "coordinates": [141.332626, 43.099472]}, "properties": {"action": "警戒出動", "address": "北区北32条西10丁目", "time": "2018-05-20T13:31:00+09:00"}}, {"type": "Feature", "geometry": {"type": "Point", "coordinates": [141.431656, 42.982258]}, "properties": {"action": "警戒出動", "address": "清田区清田9条3丁目", "time": "2018-05-20T13:13:00+09:00"}}, {"type": "Feature", "geometry": {"type": "Point", "coordinates": [141.361298, 43.111458]}, "properties": {"action": "警戒出動", "address": "東区北41条東12丁目", "time": "2018-05-20T11:57:00+09:00"}}, {"type": "Feature", "geometry": {"type": "Point", "coordinates": [141.428925, 43.100636]}, "properties": {"action": "警戒出動", "address": "東区東雁来12条2丁目", "time": "2018-05-20T01:15:00+09:00"}}, {"type": "Feature", "geometry": {"type": "Point", "coordinates": [141.443085, 43.029205]}, "properties": {"action": "救急隊支援出動", "address": "白石区本通21丁目", "time": "2018-05-20T18:10:00+09:00"}}, {"type": "Feature", "geometry": {"type": "Point", "coordinates": [141.409348, 43.032269]}, "properties": {"action": "救急隊支援出動", "address": "豊平区月寒東4条9丁目", "time": "2018-05-20T14:18:00+09:00"}}]}