{"type": "FeatureCollection", "crs": {"type": "name", "properties": {"name": "urn:ogc:def:crs:OGC:1.3:CRS84"}}, "features": [{"type": "Feature", "geometry": {"type": "Point", "coordinates": [141.34259, 43.05328]}, "properties": {"action": "救助出動", "address": "中央区南5条西10丁目", "time": "2018-08-07T18:29:00+09:00"}}, {"type": "Feature", "geometry": {"type": "Point", "coordinates": [141.467422, 43.040726]}, "properties": {"action": "救助出動", "address": "厚別区厚別中央3条4丁目", "time": "2018-08-07T08:46:00+09:00"}}, {"type": "Feature", "geometry": {"type": "Point", "coordinates": [141.24617, 43.116768]}, "properties": {"action": "救助出動", "address": "手稲区手稲本町1条1丁目", "time": "2018-08-07T06:43:00+09:00"}}, {"type": "Feature", "geometry": {"type": "Point", "coordinates": [141.390579, 43.041451]}, "properties": {"action": "警戒出動", "address": "豊平区美園2条6丁目", "time": "2018-08-07T20:06:00+09:00"}}, {"type": "Feature", "geometry": {"type": "Point", "coordinates": [141.423599, 43.039837]}, "properties": {"action": "警戒出動", "address": "白石区本通12丁目", "time": "2018-08-07T16:07:00+09:00"}}, {"type": "Feature", "geometry": {"type": "Point", "coordinates": [141.376343, 43.059143]}, "properties": {"action": "警戒出動", "address": "白石区菊水5条2丁目", "time": "2018-08-07T02:47:00+09:00"}}, {"type": "Feature", "geometry": {"type": "Point", "coordinates": [141.297714, 43.115452]}, "properties": {"action": "救急隊支援出動", "address": "北区新川5条16丁目", "time": "2018-08-07T16:32:00+09:00"}}, {"type": "Feature", "geometry": {"type": "Point", "coordinates": [141.364883, 43.078796]}, "properties": {"action": "救急隊支援出動", "address": "東区北13条東8丁目", "time": "2018-08-07T07:48:00+09:00"}}]}