{"type": "FeatureCollection", "crs": {"type": "name", "properties": {"name": "urn:ogc:def:crs:OGC:1.3:CRS84"}}, "features": [{"type": "Feature", "geometry": {"type": "Point", "coordinates": [141.400421, 43.048569]}, "properties": {"action": "火災出動", "address": "白石区本郷通1丁目", "time": "2018-02-25T16:54:00+09:00"}}, {"type": "Feature", "geometry": {"type": "Point", "coordinates": [141.353928, 43.057743]}, "properties": {"action": "火災出動", "address": "中央区南2条西3丁目", "time": "2018-02-25T01:12:00+09:00"}}, {"type": "Feature", "geometry": {"type": "Point", "coordinates": [141.287704, 43.074982]}, "properties": {"action": "救助出動", "address": "西区西野1条1丁目", "time": "2018-02-25T10:51:00+09:00"}}, {"type": "Feature", "geometry": {"type": "Point", "coordinates": [141.303696, 42.957058]}, "properties": {"action": "救助出動", "address": "南区藤野4条4丁目", "time": "2018-02-25T01:40:00+09:00"}}, {"type": "Feature", "geometry": {"type": "Point", "coordinates": [141.232391, 43.139217]}, "properties": {"action": "警戒出動", "address": "手稲区明日風1丁目", "time": "2018-02-25T20:48:00+09:00"}}, {"type": "Feature", "geometry": {"type": "Point", "coordinates": [141.376709, 43.038994]}, "properties": {"action": "警戒出動", "address": "豊平区美園9条1丁目", "time": "2018-02-25T20:30:00+09:00"}}, {"type": "Feature", "geometry": {"type": "Point", "coordinates": [141.358521, 43.05809]}, "properties": {"action": "警戒出動", "address": "中央区南3条東1丁目", "time": "2018-02-25T20:21:00+09:00"}}, {"type": "Feature", "geometry": {"type": "Point", "coordinates": [141.400421, 43.048569]}, "properties": {"action": "警戒出動", "address": "白石区本郷通1丁目", "time": "2018-02-25T17:08:00+09:00"}}, {"type": "Feature", "geometry": {"type": "Point", "coordinates": [141.354385, 43.054474]}, "properties": {"action": "警戒出動", "address": "中央区南5条西3丁目", "time": "2018-02-25T12:07:00+09:00"}}, {"type": "Feature", "geometry": {"type": "Point", "coordinates": [141.373291, 43.111992]}, "properties": {"action": "警戒出動", "address": "東区北40条東19丁目", "time": "2018-02-25T09:54:00+09:00"}}, {"type": "Feature", "geometry": {"type": "Point", "coordinates": [141.169678, 42.968746]}, "properties": {"action": "警戒出動", "address": "南区定山渓温泉東2丁目", "time": "2018-02-25T02:31:00+09:00"}}, {"type": "Feature", "geometry": {"type": "Point", "coordinates": [141.3582, 43.033218]}, "properties": {"action": "警戒出動", "address": "豊平区中の島1条4丁目", "time": "2018-02-25T00:49:00+09:00"}}, {"type": "Feature", "geometry": {"type": "Point", "coordinates": [141.369873, 43.058556]}, "properties": {"action": "ガス漏れ出動", "address": "白石区菊水2条1丁目", "time": "2018-02-25T11:52:00+09:00"}}, {"type": "Feature", "geometry": {"type": "Point", "coordinates": [141.450302, 42.977768]}, "properties": {"action": "救急隊支援出動", "address": "清田区美しが丘5条5丁目", "time": "2018-02-25T20:15:00+09:00"}}, {"type": "Feature", "geometry": {"type": "Point", "coordinates": [141.330765, 42.991123]}, "properties": {"action": "救急隊支援出動", "address": "南区川沿6条3丁目", "time": "2018-02-25T06:29:00+09:00"}}]}