{"type": "FeatureCollection", "crs": {"type": "name", "properties": {"name": "urn:ogc:def:crs:OGC:1.3:CRS84"}}, "features": [{"type": "Feature", "geometry": {"type": "Point", "coordinates": [141.423401, 43.031597]}, "properties": {"action": "火災出動", "address": "白石区栄通15丁目", "time": "2018-06-14T21:23:00+09:00"}}, {"type": "Feature", "geometry": {"type": "Point", "coordinates": [141.388885, 43.037819]}, "properties": {"action": "火災出動", "address": "豊平区美園5条7丁目", "time": "2018-06-14T02:31:00+09:00"}}, {"type": "Feature", "geometry": {"type": "Point", "coordinates": [141.329025, 43.059235]}, "properties": {"action": "火災出動", "address": "中央区北1条西18丁目", "time": "2018-06-14T00:56:00+09:00"}}, {"type": "Feature", "geometry": {"type": "Point", "coordinates": [141.324692, 43.111095]}, "properties": {"action": "救助出動", "address": "北区新琴似5条5丁目", "time": "2018-06-14T16:22:00+09:00"}}, {"type": "Feature", "geometry": {"type": "Point", "coordinates": [141.400635, 43.028183]}, "properties": {"action": "救助出動", "address": "豊平区月寒東1条9丁目", "time": "2018-06-14T12:48:00+09:00"}}, {"type": "Feature", "geometry": {"type": "Point", "coordinates": [141.309937, 43.076813]}, "properties": {"action": "救助出動", "address": "西区二十四軒4条2丁目", "time": "2018-06-14T05:07:00+09:00"}}, {"type": "Feature", "geometry": {"type": "Point", "coordinates": [141.347397, 43.100018]}, "properties": {"action": "警戒出動", "address": "東区北32条東1丁目", "time": "2018-06-14T21:08:00+09:00"}}, {"type": "Feature", "geometry": {"type": "Point", "coordinates": [141.401077, 43.038338]}, "properties": {"action": "警戒出動", "address": "豊平区月寒東3条3丁目", "time": "2018-06-14T20:52:00+09:00"}}, {"type": "Feature", "geometry": {"type": "Point", "coordinates": [141.354218, 43.161018]}, "properties": {"action": "警戒出動", "address": "北区東茨戸1条1丁目", "time": "2018-06-14T19:14:00+09:00"}}, {"type": "Feature", "geometry": {"type": "Point", "coordinates": [141.456223, 42.992607]}, "properties": {"action": "警戒出動", "address": "清田区平岡2条6丁目", "time": "2018-06-14T08:56:00+09:00"}}, {"type": "Feature", "geometry": {"type": "Point", "coordinates": [141.40155, 43.077579]}, "properties": {"action": "救急隊支援出動", "address": "東区東苗穂1条3丁目", "time": "2018-06-14T16:43:00+09:00"}}]}