{"type": "FeatureCollection", "crs": {"type": "name", "properties": {"name": "urn:ogc:def:crs:OGC:1.3:CRS84"}}, "features": [{"type": "Feature", "geometry": {"type": "Point", "coordinates": [141.385132, 43.034466]}, "properties": {"action": "火災出動", "address": "豊平区美園9条7丁目", "time": "2018-08-15T19:27:00+09:00"}}, {"type": "Feature", "geometry": {"type": "Point", "coordinates": [141.339218, 43.110077]}, "properties": {"action": "火災出動", "address": "北区麻生町3丁目", "time": "2018-08-15T16:33:00+09:00"}}, {"type": "Feature", "geometry": {"type": "Point", "coordinates": [141.448654, 43.014317]}, "properties": {"action": "火災出動", "address": "清田区北野5条5丁目", "time": "2018-08-15T10:09:00+09:00"}}, {"type": "Feature", "geometry": {"type": "Point", "coordinates": [141.457626, 43.025242]}, "properties": {"action": "車両火災出動", "address": "厚別区大谷地東5丁目", "time": "2018-08-15T09:32:00+09:00"}}, {"type": "Feature", "geometry": {"type": "Point", "coordinates": [141.33728, 43.110828]}, "properties": {"action": "救助出動", "address": "北区麻生町5丁目", "time": "2018-08-15T23:33:00+09:00"}}, {"type": "Feature", "geometry": {"type": "Point", "coordinates": [141.352234, 43.075855]}, "properties": {"action": "救助出動", "address": "北区北12条西1丁目", "time": "2018-08-15T23:06:00+09:00"}}, {"type": "Feature", "geometry": {"type": "Point", "coordinates": [141.354309, 43.063042]}, "properties": {"action": "救助出動", "address": "高速道路(札樽下り)", "time": "2018-08-15T21:21:00+09:00"}}, {"type": "Feature", "geometry": {"type": "Point", "coordinates": [141.343231, 43.09837]}, "properties": {"action": "救助出動", "address": "北区北31条西3丁目", "time": "2018-08-15T18:54:00+09:00"}}, {"type": "Feature", "geometry": {"type": "Point", "coordinates": [141.340714, 43.083069]}, "properties": {"action": "救助出動", "address": "北区北19条西7丁目", "time": "2018-08-15T12:13:00+09:00"}}, {"type": "Feature", "geometry": {"type": "Point", "coordinates": [141.284988, 42.957123]}, "properties": {"action": "救助出動", "address": "南区藤野5条9丁目", "time": "2018-08-15T12:10:00+09:00"}}, {"type": "Feature", "geometry": {"type": "Point", "coordinates": [141.366959, 43.077847]}, "properties": {"action": "救助出動", "address": "東区北12条東9丁目", "time": "2018-08-15T11:07:00+09:00"}}, {"type": "Feature", "geometry": {"type": "Point", "coordinates": [141.403549, 43.103703]}, "properties": {"action": "救助出動", "address": "東区伏古14条3丁目", "time": "2018-08-15T09:43:00+09:00"}}, {"type": "Feature", "geometry": {"type": "Point", "coordinates": [141.374039, 43.113319]}, "properties": {"action": "救助出動", "address": "東区北41条東20丁目", "time": "2018-08-15T08:13:00+09:00"}}, {"type": "Feature", "geometry": {"type": "Point", "coordinates": [141.463852, 43.029846]}, "properties": {"action": "警戒出動", "address": "厚別区厚別南1丁目", "time": "2018-08-15T19:45:00+09:00"}}, {"type": "Feature", "geometry": {"type": "Point", "coordinates": [141.381439, 43.078018]}, "properties": {"action": "警戒出動", "address": "東区北8条東19丁目", "time": "2018-08-15T18:19:00+09:00"}}, {"type": "Feature", "geometry": {"type": "Point", "coordinates": [141.377625, 43.059795]}, "properties": {"action": "警戒出動", "address": "白石区菊水6条2丁目", "time": "2018-08-15T16:06:00+09:00"}}, {"type": "Feature", "geometry": {"type": "Point", "coordinates": [141.381439, 43.078018]}, "properties": {"action": "警戒出動", "address": "東区北8条東19丁目", "time": "2018-08-15T13:22:00+09:00"}}, {"type": "Feature", "geometry": {"type": "Point", "coordinates": [141.404724, 43.080769]}, "properties": {"action": "警戒出動", "address": "東区東苗穂2条3丁目", "time": "2018-08-15T09:17:00+09:00"}}, {"type": "Feature", "geometry": {"type": "Point", "coordinates": [141.340485, 43.046291]}, "properties": {"action": "警戒出動", "address": "中央区南10条西12丁目", "time": "2018-08-15T09:16:00+09:00"}}, {"type": "Feature", "geometry": {"type": "Point", "coordinates": [141.360153, 43.066124]}, "properties": {"action": "警戒出動", "address": "中央区北3条東3丁目", "time": "2018-08-15T02:26:00+09:00"}}, {"type": "Feature", "geometry": {"type": "Point", "coordinates": [141.479141, 43.057274]}, "properties": {"action": "警戒出動", "address": "厚別区厚別北2条4丁目", "time": "2018-08-15T01:30:00+09:00"}}, {"type": "Feature", "geometry": {"type": "Point", "coordinates": [141.288284, 43.110737]}, "properties": {"action": "警戒出動", "address": "西区発寒16条13丁目", "time": "2018-08-15T00:37:00+09:00"}}, {"type": "Feature", "geometry": {"type": "Point", "coordinates": [141.331467, 42.984348]}, "properties": {"action": "救急隊支援出動", "address": "南区川沿10条3丁目", "time": "2018-08-15T11:59:00+09:00"}}, {"type": "Feature", "geometry": {"type": "Point", "coordinates": [141.427933, 42.996925]}, "properties": {"action": "救急隊支援出動", "address": "清田区清田5条2丁目", "time": "2018-08-15T05:03:00+09:00"}}]}