{"type": "FeatureCollection", "crs": {"type": "name", "properties": {"name": "urn:ogc:def:crs:OGC:1.3:CRS84"}}, "features": [{"type": "Feature", "geometry": {"type": "Point", "coordinates": [141.347122, 43.056934]}, "properties": {"action": "火災出動", "address": "中央区南2条西7丁目", "time": "2018-02-18T22:01:00+09:00"}}, {"type": "Feature", "geometry": {"type": "Point", "coordinates": [141.356781, 43.05695]}, "properties": {"action": "火災出動", "address": "中央区南3条西1丁目", "time": "2018-02-18T20:31:00+09:00"}}, {"type": "Feature", "geometry": {"type": "Point", "coordinates": [141.362625, 43.068993]}, "properties": {"action": "車両火災出動", "address": "東区北5条東5丁目", "time": "2018-02-18T03:59:00+09:00"}}, {"type": "Feature", "geometry": {"type": "Point", "coordinates": [141.339661, 43.051979]}, "properties": {"action": "救助出動", "address": "中央区南6条西12丁目", "time": "2018-02-18T15:49:00+09:00"}}, {"type": "Feature", "geometry": {"type": "Point", "coordinates": [141.329514, 43.004574]}, "properties": {"action": "山岳救助出動", "address": "南区北ノ沢 付近", "time": "2018-02-18T23:33:00+09:00"}}, {"type": "Feature", "geometry": {"type": "Point", "coordinates": [141.363968, 43.094742]}, "properties": {"action": "警戒出動", "address": "東区北25条東10丁目", "time": "2018-02-18T22:51:00+09:00"}}, {"type": "Feature", "geometry": {"type": "Point", "coordinates": [141.3311, 43.049469]}, "properties": {"action": "警戒出動", "address": "中央区南7条西17丁目", "time": "2018-02-18T21:57:00+09:00"}}, {"type": "Feature", "geometry": {"type": "Point", "coordinates": [141.400421, 43.048569]}, "properties": {"action": "警戒出動", "address": "白石区本郷通1丁目", "time": "2018-02-18T21:45:00+09:00"}}, {"type": "Feature", "geometry": {"type": "Point", "coordinates": [141.394424, 43.071419]}, "properties": {"action": "警戒出動", "address": "東区苗穂町13丁目", "time": "2018-02-18T20:56:00+09:00"}}, {"type": "Feature", "geometry": {"type": "Point", "coordinates": [141.478668, 43.043091]}, "properties": {"action": "警戒出動", "address": "厚別区厚別東3条1丁目", "time": "2018-02-18T20:41:00+09:00"}}, {"type": "Feature", "geometry": {"type": "Point", "coordinates": [141.328094, 43.041153]}, "properties": {"action": "警戒出動", "address": "中央区南13条西21丁目", "time": "2018-02-18T12:24:00+09:00"}}, {"type": "Feature", "geometry": {"type": "Point", "coordinates": [141.330338, 43.041866]}, "properties": {"action": "警戒出動", "address": "中央区南13条西18丁目", "time": "2018-02-18T12:19:00+09:00"}}, {"type": "Feature", "geometry": {"type": "Point", "coordinates": [141.380371, 43.108868]}, "properties": {"action": "警戒出動", "address": "東区北37条東22丁目", "time": "2018-02-18T07:08:00+09:00"}}, {"type": "Feature", "geometry": {"type": "Point", "coordinates": [141.377747, 43.037815]}, "properties": {"action": "警戒出動", "address": "豊平区美園9条2丁目", "time": "2018-02-18T03:04:00+09:00"}}, {"type": "Feature", "geometry": {"type": "Point", "coordinates": [141.305283, 43.076008]}, "properties": {"action": "警戒出動", "address": "西区琴似1条4丁目", "time": "2018-02-18T00:06:00+09:00"}}, {"type": "Feature", "geometry": {"type": "Point", "coordinates": [141.41481, 43.125942]}, "properties": {"action": "救急隊支援出動", "address": "東区中沼西1条1丁目", "time": "2018-02-18T23:30:00+09:00"}}, {"type": "Feature", "geometry": {"type": "Point", "coordinates": [141.305313, 43.063156]}, "properties": {"action": "救急隊支援出動", "address": "中央区宮の森3条6丁目", "time": "2018-02-18T22:31:00+09:00"}}, {"type": "Feature", "geometry": {"type": "Point", "coordinates": [141.450211, 43.060905]}, "properties": {"action": "救急隊支援出動", "address": "厚別区厚別西 付近", "time": "2018-02-18T22:11:00+09:00"}}, {"type": "Feature", "geometry": {"type": "Point", "coordinates": [141.494507, 43.031677]}, "properties": {"action": "救急隊支援出動", "address": "厚別区もみじ台東1丁目", "time": "2018-02-18T12:45:00+09:00"}}, {"type": "Feature", "geometry": {"type": "Point", "coordinates": [141.349442, 43.055042]}, "properties": {"action": "救急隊支援出動", "address": "中央区南4条西6丁目", "time": "2018-02-18T11:34:00+09:00"}}, {"type": "Feature", "geometry": {"type": "Point", "coordinates": [141.287659, 42.965919]}, "properties": {"action": "救急隊支援出動", "address": "南区藤野1条9丁目", "time": "2018-02-18T10:10:00+09:00"}}, {"type": "Feature", "geometry": {"type": "Point", "coordinates": [141.289246, 43.080673]}, "properties": {"action": "救急隊支援出動", "address": "西区西町北7丁目", "time": "2018-02-18T06:50:00+09:00"}}, {"type": "Feature", "geometry": {"type": "Point", "coordinates": [141.486298, 43.032185]}, "properties": {"action": "救急隊支援出動", "address": "厚別区もみじ台西3丁目", "time": "2018-02-18T03:08:00+09:00"}}, {"type": "Feature", "geometry": {"type": "Point", "coordinates": [141.293747, 42.95565]}, "properties": {"action": "航空隊支援出動", "address": "南区藤野5条6丁目", "time": "2018-02-18T10:12:00+09:00"}}]}