{"type": "FeatureCollection", "crs": {"type": "name", "properties": {"name": "urn:ogc:def:crs:OGC:1.3:CRS84"}}, "features": [{"type": "Feature", "geometry": {"type": "Point", "coordinates": [141.337799, 43.051735]}, "properties": {"action": "火災出動", "address": "中央区南6条西13丁目", "time": "2018-07-03T22:28:00+09:00"}}, {"type": "Feature", "geometry": {"type": "Point", "coordinates": [141.361328, 43.099087]}, "properties": {"action": "火災出動", "address": "東区北30条東9丁目", "time": "2018-07-03T20:26:00+09:00"}}, {"type": "Feature", "geometry": {"type": "Point", "coordinates": [141.46402, 43.035152]}, "properties": {"action": "火災出動", "address": "厚別区厚別中央2条3丁目", "time": "2018-07-03T15:57:00+09:00"}}, {"type": "Feature", "geometry": {"type": "Point", "coordinates": [141.453873, 43.0868]}, "properties": {"action": "火災出動", "address": "白石区東米里 付近", "time": "2018-07-03T06:01:00+09:00"}}, {"type": "Feature", "geometry": {"type": "Point", "coordinates": [141.372406, 43.101734]}, "properties": {"action": "救助出動", "address": "東区北31条東17丁目", "time": "2018-07-03T15:50:00+09:00"}}, {"type": "Feature", "geometry": {"type": "Point", "coordinates": [141.351562, 43.047081]}, "properties": {"action": "救助出動", "address": "中央区南10条西6丁目", "time": "2018-07-03T15:39:00+09:00"}}, {"type": "Feature", "geometry": {"type": "Point", "coordinates": [141.497467, 43.024048]}, "properties": {"action": "救助出動", "address": "厚別区もみじ台南5丁目", "time": "2018-07-03T05:14:00+09:00"}}, {"type": "Feature", "geometry": {"type": "Point", "coordinates": [141.438873, 43.031345]}, "properties": {"action": "警戒出動", "address": "白石区本通19丁目", "time": "2018-07-03T23:35:00+09:00"}}, {"type": "Feature", "geometry": {"type": "Point", "coordinates": [141.362305, 43.037395]}, "properties": {"action": "警戒出動", "address": "豊平区中の島2条1丁目", "time": "2018-07-03T23:04:00+09:00"}}, {"type": "Feature", "geometry": {"type": "Point", "coordinates": [141.386322, 43.049603]}, "properties": {"action": "警戒出動", "address": "白石区東札幌2条3丁目", "time": "2018-07-03T23:00:00+09:00"}}, {"type": "Feature", "geometry": {"type": "Point", "coordinates": [141.351562, 43.047081]}, "properties": {"action": "警戒出動", "address": "中央区南10条西6丁目", "time": "2018-07-03T21:50:00+09:00"}}, {"type": "Feature", "geometry": {"type": "Point", "coordinates": [141.341675, 43.051956]}, "properties": {"action": "警戒出動", "address": "中央区南6条西11丁目", "time": "2018-07-03T21:43:00+09:00"}}, {"type": "Feature", "geometry": {"type": "Point", "coordinates": [141.308472, 43.079727]}, "properties": {"action": "警戒出動", "address": "西区琴似1条1丁目", "time": "2018-07-03T21:07:00+09:00"}}, {"type": "Feature", "geometry": {"type": "Point", "coordinates": [141.366394, 43.092548]}, "properties": {"action": "警戒出動", "address": "東区北23条東12丁目", "time": "2018-07-03T20:41:00+09:00"}}, {"type": "Feature", "geometry": {"type": "Point", "coordinates": [141.438873, 43.031345]}, "properties": {"action": "警戒出動", "address": "白石区本通19丁目", "time": "2018-07-03T18:49:00+09:00"}}, {"type": "Feature", "geometry": {"type": "Point", "coordinates": [141.303741, 43.078091]}, "properties": {"action": "警戒出動", "address": "西区琴似2条3丁目", "time": "2018-07-03T18:45:00+09:00"}}, {"type": "Feature", "geometry": {"type": "Point", "coordinates": [141.463852, 43.029846]}, "properties": {"action": "警戒出動", "address": "厚別区厚別南1丁目", "time": "2018-07-03T18:33:00+09:00"}}, {"type": "Feature", "geometry": {"type": "Point", "coordinates": [141.424423, 43.063572]}, "properties": {"action": "警戒出動", "address": "白石区北郷7条7丁目", "time": "2018-07-03T18:28:00+09:00"}}, {"type": "Feature", "geometry": {"type": "Point", "coordinates": [141.342545, 43.089245]}, "properties": {"action": "警戒出動", "address": "北区北23条西5丁目", "time": "2018-07-03T18:20:00+09:00"}}, {"type": "Feature", "geometry": {"type": "Point", "coordinates": [141.365112, 43.103062]}, "properties": {"action": "警戒出動", "address": "東区北33条東13丁目", "time": "2018-07-03T17:32:00+09:00"}}, {"type": "Feature", "geometry": {"type": "Point", "coordinates": [141.399048, 43.068047]}, "properties": {"action": "警戒出動", "address": "白石区菊水元町2条1丁目", "time": "2018-07-03T15:13:00+09:00"}}, {"type": "Feature", "geometry": {"type": "Point", "coordinates": [141.463852, 43.029846]}, "properties": {"action": "警戒出動", "address": "厚別区厚別南1丁目", "time": "2018-07-03T14:26:00+09:00"}}, {"type": "Feature", "geometry": {"type": "Point", "coordinates": [141.37648, 43.086433]}, "properties": {"action": "警戒出動", "address": "東区北18条東17丁目", "time": "2018-07-03T14:13:00+09:00"}}, {"type": "Feature", "geometry": {"type": "Point", "coordinates": [141.362686, 43.082024]}, "properties": {"action": "警戒出動", "address": "東区北16条東7丁目", "time": "2018-07-03T12:41:00+09:00"}}, {"type": "Feature", "geometry": {"type": "Point", "coordinates": [141.364853, 43.066891]}, "properties": {"action": "警戒出動", "address": "中央区北3条東6丁目", "time": "2018-07-03T07:59:00+09:00"}}, {"type": "Feature", "geometry": {"type": "Point", "coordinates": [141.466934, 43.045147]}, "properties": {"action": "警戒出動", "address": "厚別区厚別中央5条4丁目", "time": "2018-07-03T07:08:00+09:00"}}, {"type": "Feature", "geometry": {"type": "Point", "coordinates": [141.378784, 43.049564]}, "properties": {"action": "警戒出動", "address": "豊平区豊平1条10丁目", "time": "2018-07-03T06:40:00+09:00"}}, {"type": "Feature", "geometry": {"type": "Point", "coordinates": [141.391495, 43.050121]}, "properties": {"action": "警戒出動", "address": "白石区東札幌4条4丁目", "time": "2018-07-03T05:08:00+09:00"}}, {"type": "Feature", "geometry": {"type": "Point", "coordinates": [141.464645, 43.03315]}, "properties": {"action": "警戒出動", "address": "厚別区厚別中央1条3丁目", "time": "2018-07-03T04:14:00+09:00"}}, {"type": "Feature", "geometry": {"type": "Point", "coordinates": [141.398941, 43.026466]}, "properties": {"action": "警戒出動", "address": "豊平区月寒中央通10丁目", "time": "2018-07-03T04:08:00+09:00"}}, {"type": "Feature", "geometry": {"type": "Point", "coordinates": [141.339783, 43.050613]}, "properties": {"action": "警戒出動", "address": "中央区南7条西12丁目", "time": "2018-07-03T04:03:00+09:00"}}, {"type": "Feature", "geometry": {"type": "Point", "coordinates": [141.415787, 43.08733]}, "properties": {"action": "警戒出動", "address": "東区東雁来6条2丁目", "time": "2018-07-03T03:16:00+09:00"}}, {"type": "Feature", "geometry": {"type": "Point", "coordinates": [141.40416, 43.014832]}, "properties": {"action": "警戒出動", "address": "豊平区福住3条3丁目", "time": "2018-07-03T02:21:00+09:00"}}, {"type": "Feature", "geometry": {"type": "Point", "coordinates": [141.339783, 43.050613]}, "properties": {"action": "警戒出動", "address": "中央区南7条西12丁目", "time": "2018-07-03T02:19:00+09:00"}}, {"type": "Feature", "geometry": {"type": "Point", "coordinates": [141.483673, 43.056458]}, "properties": {"action": "警戒出動", "address": "厚別区厚別東5条8丁目", "time": "2018-07-03T01:28:00+09:00"}}, {"type": "Feature", "geometry": {"type": "Point", "coordinates": [141.342041, 43.090717]}, "properties": {"action": "警戒出動", "address": "北区北24条西5丁目", "time": "2018-07-03T01:11:00+09:00"}}, {"type": "Feature", "geometry": {"type": "Point", "coordinates": [141.337418, 43.064369]}, "properties": {"action": "警戒出動", "address": "中央区北4条西12丁目", "time": "2018-07-03T01:09:00+09:00"}}, {"type": "Feature", "geometry": {"type": "Point", "coordinates": [141.3741, 43.030403]}, "properties": {"action": "警戒出動", "address": "豊平区平岸4条10丁目", "time": "2018-07-03T00:21:00+09:00"}}, {"type": "Feature", "geometry": {"type": "Point", "coordinates": [141.475235, 43.018532]}, "properties": {"action": "救急隊支援出動", "address": "厚別区上野幌1条4丁目", "time": "2018-07-03T22:15:00+09:00"}}, {"type": "Feature", "geometry": {"type": "Point", "coordinates": [141.33226, 43.053349]}, "properties": {"action": "救急隊支援出動", "address": "中央区南4条西16丁目", "time": "2018-07-03T18:00:00+09:00"}}, {"type": "Feature", "geometry": {"type": "Point", "coordinates": [141.221924, 43.120956]}, "properties": {"action": "救急隊支援出動", "address": "手稲区稲穂4条4丁目", "time": "2018-07-03T12:56:00+09:00"}}, {"type": "Feature", "geometry": {"type": "Point", "coordinates": [141.195969, 43.100754]}, "properties": {"action": "救急隊支援出動", "address": "手稲区手稲金山 付近", "time": "2018-07-03T09:56:00+09:00"}}, {"type": "Feature", "geometry": {"type": "Point", "coordinates": [141.348648, 42.948299]}, "properties": {"action": "救急隊支援出動", "address": "南区常盤2条2丁目", "time": "2018-07-03T09:22:00+09:00"}}, {"type": "Feature", "geometry": {"type": "Point", "coordinates": [141.322067, 43.083942]}, "properties": {"action": "救急隊支援出動", "address": "西区八軒6条東4丁目", "time": "2018-07-03T08:29:00+09:00"}}, {"type": "Feature", "geometry": {"type": "Point", "coordinates": [141.195969, 43.100754]}, "properties": {"action": "救急隊支援出動", "address": "手稲区手稲金山 付近", "time": "2018-07-03T07:31:00+09:00"}}, {"type": "Feature", "geometry": {"type": "Point", "coordinates": [141.33017, 42.998615]}, "properties": {"action": "救急隊支援出動", "address": "南区川沿2条3丁目", "time": "2018-07-03T07:01:00+09:00"}}, {"type": "Feature", "geometry": {"type": "Point", "coordinates": [141.492188, 43.034004]}, "properties": {"action": "救急隊支援出動", "address": "厚別区もみじ台北6丁目", "time": "2018-07-03T05:15:00+09:00"}}, {"type": "Feature", "geometry": {"type": "Point", "coordinates": [141.273911, 43.078579]}, "properties": {"action": "救急隊支援出動", "address": "西区西野3条7丁目", "time": "2018-07-03T03:27:00+09:00"}}, {"type": "Feature", "geometry": {"type": "Point", "coordinates": [141.348648, 42.948299]}, "properties": {"action": "航空隊支援出動", "address": "南区常盤2条2丁目", "time": "2018-07-03T09:25:00+09:00"}}]}