{"type": "FeatureCollection", "crs": {"type": "name", "properties": {"name": "urn:ogc:def:crs:OGC:1.3:CRS84"}}, "features": [{"type": "Feature", "geometry": {"type": "Point", "coordinates": [141.3703, 43.05389]}, "properties": {"action": "車両火災出動", "address": "豊平区豊平2条3丁目", "time": "2018-09-03T09:25:00+09:00"}}, {"type": "Feature", "geometry": {"type": "Point", "coordinates": [141.416107, 43.037128]}, "properties": {"action": "救助出動", "address": "白石区南郷通10丁目", "time": "2018-09-03T18:43:00+09:00"}}, {"type": "Feature", "geometry": {"type": "Point", "coordinates": [141.266495, 43.091064]}, "properties": {"action": "救助出動", "address": "西区宮の沢2条4丁目", "time": "2018-09-03T17:42:00+09:00"}}, {"type": "Feature", "geometry": {"type": "Point", "coordinates": [141.358215, 43.036098]}, "properties": {"action": "救助出動", "address": "豊平区中の島1条3丁目", "time": "2018-09-03T14:06:00+09:00"}}, {"type": "Feature", "geometry": {"type": "Point", "coordinates": [141.343811, 43.103844]}, "properties": {"action": "救助出動", "address": "北区北36条西2丁目", "time": "2018-09-03T12:17:00+09:00"}}, {"type": "Feature", "geometry": {"type": "Point", "coordinates": [141.340134, 43.033909]}, "properties": {"action": "救助出動", "address": "中央区南19条西13丁目", "time": "2018-09-03T10:15:00+09:00"}}, {"type": "Feature", "geometry": {"type": "Point", "coordinates": [141.333221, 43.072613]}, "properties": {"action": "警戒出動", "address": "中央区北11条西14丁目", "time": "2018-09-03T13:18:00+09:00"}}, {"type": "Feature", "geometry": {"type": "Point", "coordinates": [141.343948, 43.043903]}, "properties": {"action": "警戒出動", "address": "中央区南12条西10丁目", "time": "2018-09-03T10:32:00+09:00"}}, {"type": "Feature", "geometry": {"type": "Point", "coordinates": [141.343948, 43.043903]}, "properties": {"action": "警戒出動", "address": "中央区南12条西10丁目", "time": "2018-09-03T09:49:00+09:00"}}, {"type": "Feature", "geometry": {"type": "Point", "coordinates": [141.421936, 43.065254]}, "properties": {"action": "警戒出動", "address": "白石区北郷8条4丁目", "time": "2018-09-03T09:26:00+09:00"}}, {"type": "Feature", "geometry": {"type": "Point", "coordinates": [141.343948, 43.043903]}, "properties": {"action": "警戒出動", "address": "中央区南12条西10丁目", "time": "2018-09-03T03:31:00+09:00"}}, {"type": "Feature", "geometry": {"type": "Point", "coordinates": [141.376816, 43.106274]}, "properties": {"action": "救急隊支援出動", "address": "東区北35条東20丁目", "time": "2018-09-03T17:45:00+09:00"}}, {"type": "Feature", "geometry": {"type": "Point", "coordinates": [141.268341, 43.061417]}, "properties": {"action": "救急隊支援出動", "address": "西区西野9条3丁目", "time": "2018-09-03T17:11:00+09:00"}}, {"type": "Feature", "geometry": {"type": "Point", "coordinates": [141.319885, 42.989494]}, "properties": {"action": "救急隊支援出動", "address": "南区南沢4条1丁目", "time": "2018-09-03T15:27:00+09:00"}}, {"type": "Feature", "geometry": {"type": "Point", "coordinates": [141.414398, 43.165569]}, "properties": {"action": "救急隊支援出動", "address": "北区あいの里3条9丁目", "time": "2018-09-03T13:00:00+09:00"}}, {"type": "Feature", "geometry": {"type": "Point", "coordinates": [141.368988, 43.162685]}, "properties": {"action": "救急隊支援出動", "address": "北区篠路町篠路 付近", "time": "2018-09-03T12:29:00+09:00"}}, {"type": "Feature", "geometry": {"type": "Point", "coordinates": [141.317307, 42.991196]}, "properties": {"action": "航空隊支援出動", "address": "南区南沢5条1丁目", "time": "2018-09-03T15:35:00+09:00"}}, {"type": "Feature", "geometry": {"type": "Point", "coordinates": [141.409195, 43.166019]}, "properties": {"action": "航空隊支援出動", "address": "北区あいの里4条8丁目", "time": "2018-09-03T13:04:00+09:00"}}, {"type": "Feature", "geometry": {"type": "Point", "coordinates": [141.461868, 43.049564]}, "properties": {"action": "航空隊支援出動", "address": "厚別区厚別西3条3丁目", "time": "2018-09-03T11:10:00+09:00"}}]}