{"type": "FeatureCollection", "crs": {"type": "name", "properties": {"name": "urn:ogc:def:crs:OGC:1.3:CRS84"}}, "features": [{"type": "Feature", "geometry": {"type": "Point", "coordinates": [141.25264, 43.053623]}, "properties": {"action": "火災出動", "address": "西区平和3条7丁目", "time": "2018-03-13T22:52:00+09:00"}}, {"type": "Feature", "geometry": {"type": "Point", "coordinates": [141.466995, 42.984371]}, "properties": {"action": "火災出動", "address": "清田区里塚2条5丁目", "time": "2018-03-13T01:18:00+09:00"}}, {"type": "Feature", "geometry": {"type": "Point", "coordinates": [141.357605, 43.063457]}, "properties": {"action": "車両火災出動", "address": "中央区北1条東1丁目", "time": "2018-03-13T16:29:00+09:00"}}, {"type": "Feature", "geometry": {"type": "Point", "coordinates": [141.399109, 43.092529]}, "properties": {"action": "救助出動", "address": "東区伏古9条4丁目", "time": "2018-03-13T12:39:00+09:00"}}, {"type": "Feature", "geometry": {"type": "Point", "coordinates": [141.358215, 43.036098]}, "properties": {"action": "救助出動", "address": "豊平区中の島1条3丁目", "time": "2018-03-13T01:02:00+09:00"}}, {"type": "Feature", "geometry": {"type": "Point", "coordinates": [141.422501, 43.110378]}, "properties": {"action": "警戒出動", "address": "東区東苗穂14条2丁目", "time": "2018-03-13T15:36:00+09:00"}}, {"type": "Feature", "geometry": {"type": "Point", "coordinates": [141.344742, 43.05341]}, "properties": {"action": "警戒出動", "address": "中央区南5条西9丁目", "time": "2018-03-13T14:56:00+09:00"}}, {"type": "Feature", "geometry": {"type": "Point", "coordinates": [141.433823, 43.029774]}, "properties": {"action": "警戒出動", "address": "白石区南郷通18丁目", "time": "2018-03-13T14:50:00+09:00"}}, {"type": "Feature", "geometry": {"type": "Point", "coordinates": [141.312057, 43.082256]}, "properties": {"action": "警戒出動", "address": "西区八軒2条東1丁目", "time": "2018-03-13T14:14:00+09:00"}}, {"type": "Feature", "geometry": {"type": "Point", "coordinates": [141.398392, 43.053108]}, "properties": {"action": "警戒出動", "address": "白石区中央1条5丁目", "time": "2018-03-13T13:00:00+09:00"}}, {"type": "Feature", "geometry": {"type": "Point", "coordinates": [141.414368, 43.076973]}, "properties": {"action": "警戒出動", "address": "白石区菊水元町9条1丁目", "time": "2018-03-13T10:47:00+09:00"}}, {"type": "Feature", "geometry": {"type": "Point", "coordinates": [141.313828, 42.997635]}, "properties": {"action": "警戒出動", "address": "南区中ﾉ沢7丁目", "time": "2018-03-13T07:29:00+09:00"}}, {"type": "Feature", "geometry": {"type": "Point", "coordinates": [141.485153, 43.035416]}, "properties": {"action": "警戒出動", "address": "厚別区もみじ台西2丁目", "time": "2018-03-13T03:37:00+09:00"}}, {"type": "Feature", "geometry": {"type": "Point", "coordinates": [141.422668, 43.029095]}, "properties": {"action": "救急隊支援出動", "address": "豊平区月寒東5条15丁目", "time": "2018-03-13T15:31:00+09:00"}}]}