{"type": "FeatureCollection", "crs": {"type": "name", "properties": {"name": "urn:ogc:def:crs:OGC:1.3:CRS84"}}, "features": [{"type": "Feature", "geometry": {"type": "Point", "coordinates": [141.341766, 43.049149]}, "properties": {"action": "火災出動", "address": "中央区南8条西11丁目", "time": "2018-09-09T14:34:00+09:00"}}, {"type": "Feature", "geometry": {"type": "Point", "coordinates": [141.354309, 43.063042]}, "properties": {"action": "車両火災出動", "address": "高速道路(札樽上り)", "time": "2018-09-09T17:57:00+09:00"}}, {"type": "Feature", "geometry": {"type": "Point", "coordinates": [141.321945, 43.058254]}, "properties": {"action": "車両火災出動", "address": "中央区北1条西23丁目", "time": "2018-09-09T17:31:00+09:00"}}, {"type": "Feature", "geometry": {"type": "Point", "coordinates": [141.421936, 43.065254]}, "properties": {"action": "救助出動", "address": "白石区北郷8条4丁目", "time": "2018-09-09T11:57:00+09:00"}}, {"type": "Feature", "geometry": {"type": "Point", "coordinates": [141.374924, 43.051079]}, "properties": {"action": "救助出動", "address": "豊平区豊平2条7丁目", "time": "2018-09-09T11:34:00+09:00"}}, {"type": "Feature", "geometry": {"type": "Point", "coordinates": [141.344955, 43.079643]}, "properties": {"action": "警戒出動", "address": "北区北16条西5丁目", "time": "2018-09-09T23:04:00+09:00"}}, {"type": "Feature", "geometry": {"type": "Point", "coordinates": [141.3965, 43.021908]}, "properties": {"action": "警戒出動", "address": "豊平区西岡5条1丁目", "time": "2018-09-09T20:26:00+09:00"}}, {"type": "Feature", "geometry": {"type": "Point", "coordinates": [141.362534, 43.043137]}, "properties": {"action": "警戒出動", "address": "豊平区水車町7丁目", "time": "2018-09-09T18:56:00+09:00"}}, {"type": "Feature", "geometry": {"type": "Point", "coordinates": [141.407303, 43.04052]}, "properties": {"action": "警戒出動", "address": "白石区南郷通6丁目", "time": "2018-09-09T18:41:00+09:00"}}, {"type": "Feature", "geometry": {"type": "Point", "coordinates": [141.310059, 43.063492]}, "properties": {"action": "警戒出動", "address": "中央区宮の森2条3丁目", "time": "2018-09-09T18:26:00+09:00"}}, {"type": "Feature", "geometry": {"type": "Point", "coordinates": [141.34845, 43.038376]}, "properties": {"action": "警戒出動", "address": "中央区南16条西8丁目", "time": "2018-09-09T18:03:00+09:00"}}, {"type": "Feature", "geometry": {"type": "Point", "coordinates": [141.246994, 43.054779]}, "properties": {"action": "警戒出動", "address": "西区平和3条10丁目", "time": "2018-09-09T17:02:00+09:00"}}, {"type": "Feature", "geometry": {"type": "Point", "coordinates": [141.479507, 43.005394]}, "properties": {"action": "警戒出動", "address": "清田区平岡公園東8丁目", "time": "2018-09-09T16:02:00+09:00"}}, {"type": "Feature", "geometry": {"type": "Point", "coordinates": [141.338776, 43.058495]}, "properties": {"action": "警戒出動", "address": "中央区大通西12丁目", "time": "2018-09-09T14:57:00+09:00"}}, {"type": "Feature", "geometry": {"type": "Point", "coordinates": [141.213531, 43.129589]}, "properties": {"action": "警戒出動", "address": "手稲区稲穂2条7丁目", "time": "2018-09-09T14:42:00+09:00"}}, {"type": "Feature", "geometry": {"type": "Point", "coordinates": [141.353104, 43.05323]}, "properties": {"action": "警戒出動", "address": "中央区南6条西4丁目", "time": "2018-09-09T14:03:00+09:00"}}, {"type": "Feature", "geometry": {"type": "Point", "coordinates": [141.37059, 43.079575]}, "properties": {"action": "警戒出動", "address": "東区北13条東12丁目", "time": "2018-09-09T13:07:00+09:00"}}, {"type": "Feature", "geometry": {"type": "Point", "coordinates": [141.48497, 43.02306]}, "properties": {"action": "警戒出動", "address": "厚別区青葉町16丁目", "time": "2018-09-09T10:41:00+09:00"}}, {"type": "Feature", "geometry": {"type": "Point", "coordinates": [141.3181, 43.056175]}, "properties": {"action": "警戒出動", "address": "中央区大通西26丁目", "time": "2018-09-09T10:31:00+09:00"}}, {"type": "Feature", "geometry": {"type": "Point", "coordinates": [141.421066, 43.06908]}, "properties": {"action": "警戒出動", "address": "白石区北郷9条3丁目", "time": "2018-09-09T09:37:00+09:00"}}, {"type": "Feature", "geometry": {"type": "Point", "coordinates": [141.421066, 43.06908]}, "properties": {"action": "警戒出動", "address": "白石区北郷9条3丁目", "time": "2018-09-09T08:11:00+09:00"}}, {"type": "Feature", "geometry": {"type": "Point", "coordinates": [141.307709, 43.058205]}, "properties": {"action": "警戒出動", "address": "中央区宮の森1条9丁目", "time": "2018-09-09T06:20:00+09:00"}}, {"type": "Feature", "geometry": {"type": "Point", "coordinates": [141.435165, 43.005089]}, "properties": {"action": "警戒出動", "address": "清田区清田1条1丁目", "time": "2018-09-09T05:40:00+09:00"}}, {"type": "Feature", "geometry": {"type": "Point", "coordinates": [141.34996, 43.052681]}, "properties": {"action": "警戒出動", "address": "中央区南6条西6丁目", "time": "2018-09-09T05:28:00+09:00"}}, {"type": "Feature", "geometry": {"type": "Point", "coordinates": [141.371918, 43.088871]}, "properties": {"action": "警戒出動", "address": "東区北20条東15丁目", "time": "2018-09-09T05:13:00+09:00"}}, {"type": "Feature", "geometry": {"type": "Point", "coordinates": [141.307709, 43.058205]}, "properties": {"action": "警戒出動", "address": "中央区宮の森1条9丁目", "time": "2018-09-09T04:45:00+09:00"}}, {"type": "Feature", "geometry": {"type": "Point", "coordinates": [141.307709, 43.058205]}, "properties": {"action": "警戒出動", "address": "中央区宮の森1条9丁目", "time": "2018-09-09T03:03:00+09:00"}}, {"type": "Feature", "geometry": {"type": "Point", "coordinates": [141.307709, 43.058205]}, "properties": {"action": "警戒出動", "address": "中央区宮の森1条9丁目", "time": "2018-09-09T02:34:00+09:00"}}, {"type": "Feature", "geometry": {"type": "Point", "coordinates": [141.367508, 43.063278]}, "properties": {"action": "警戒出動", "address": "中央区大通東7丁目", "time": "2018-09-09T00:24:00+09:00"}}, {"type": "Feature", "geometry": {"type": "Point", "coordinates": [141.474823, 43.046795]}, "properties": {"action": "ガス漏れ出動", "address": "厚別区厚別東5条1丁目", "time": "2018-09-09T22:02:00+09:00"}}, {"type": "Feature", "geometry": {"type": "Point", "coordinates": [141.257523, 43.142448]}, "properties": {"action": "救急隊支援出動", "address": "手稲区手稲前田 付近", "time": "2018-09-09T17:37:00+09:00"}}, {"type": "Feature", "geometry": {"type": "Point", "coordinates": [141.445709, 42.996483]}, "properties": {"action": "救急隊支援出動", "address": "清田区平岡1条2丁目", "time": "2018-09-09T17:21:00+09:00"}}, {"type": "Feature", "geometry": {"type": "Point", "coordinates": [141.431656, 43.011425]}, "properties": {"action": "救急隊支援出動", "address": "清田区北野2条2丁目", "time": "2018-09-09T12:44:00+09:00"}}, {"type": "Feature", "geometry": {"type": "Point", "coordinates": [141.341812, 43.098083]}, "properties": {"action": "救急隊支援出動", "address": "北区北31条西4丁目", "time": "2018-09-09T12:33:00+09:00"}}, {"type": "Feature", "geometry": {"type": "Point", "coordinates": [141.386703, 43.015224]}, "properties": {"action": "救急隊支援出動", "address": "豊平区西岡3条5丁目", "time": "2018-09-09T12:10:00+09:00"}}, {"type": "Feature", "geometry": {"type": "Point", "coordinates": [141.36937, 43.053352]}, "properties": {"action": "救急隊支援出動", "address": "豊平区豊平3条3丁目", "time": "2018-09-09T08:39:00+09:00"}}, {"type": "Feature", "geometry": {"type": "Point", "coordinates": [141.439896, 43.005226]}, "properties": {"action": "航空隊支援出動", "address": "清田区清田1条2丁目", "time": "2018-09-09T12:46:00+09:00"}}]}