{"type": "FeatureCollection", "crs": {"type": "name", "properties": {"name": "urn:ogc:def:crs:OGC:1.3:CRS84"}}, "features": [{"type": "Feature", "geometry": {"type": "Point", "coordinates": [141.388947, 43.035427]}, "properties": {"action": "火災出動", "address": "豊平区美園7条8丁目", "time": "2018-01-30T05:23:00+09:00"}}, {"type": "Feature", "geometry": {"type": "Point", "coordinates": [141.327332, 43.053177]}, "properties": {"action": "救助出動", "address": "中央区南4条西20丁目", "time": "2018-01-30T18:10:00+09:00"}}, {"type": "Feature", "geometry": {"type": "Point", "coordinates": [141.157349, 42.966698]}, "properties": {"action": "山岳救助出動", "address": "南区定山渓 付近", "time": "2018-01-30T14:17:00+09:00"}}, {"type": "Feature", "geometry": {"type": "Point", "coordinates": [141.283249, 43.121483]}, "properties": {"action": "警戒出動", "address": "北区新川西1条2丁目", "time": "2018-01-30T23:44:00+09:00"}}, {"type": "Feature", "geometry": {"type": "Point", "coordinates": [141.390381, 43.049511]}, "properties": {"action": "警戒出動", "address": "白石区東札幌3条4丁目", "time": "2018-01-30T22:32:00+09:00"}}, {"type": "Feature", "geometry": {"type": "Point", "coordinates": [141.355331, 43.057011]}, "properties": {"action": "警戒出動", "address": "中央区南3条西2丁目", "time": "2018-01-30T21:00:00+09:00"}}, {"type": "Feature", "geometry": {"type": "Point", "coordinates": [141.297272, 43.076847]}, "properties": {"action": "警戒出動", "address": "西区琴似4条6丁目", "time": "2018-01-30T18:07:00+09:00"}}, {"type": "Feature", "geometry": {"type": "Point", "coordinates": [141.289337, 43.089333]}, "properties": {"action": "警戒出動", "address": "西区発寒6条5丁目", "time": "2018-01-30T18:04:00+09:00"}}, {"type": "Feature", "geometry": {"type": "Point", "coordinates": [141.308197, 43.070679]}, "properties": {"action": "警戒出動", "address": "西区二十四軒3条6丁目", "time": "2018-01-30T17:11:00+09:00"}}, {"type": "Feature", "geometry": {"type": "Point", "coordinates": [141.35704, 43.084957]}, "properties": {"action": "警戒出動", "address": "東区北19条東4丁目", "time": "2018-01-30T15:10:00+09:00"}}, {"type": "Feature", "geometry": {"type": "Point", "coordinates": [141.32814, 43.063095]}, "properties": {"action": "警戒出動", "address": "中央区北4条西18丁目", "time": "2018-01-30T13:20:00+09:00"}}, {"type": "Feature", "geometry": {"type": "Point", "coordinates": [141.39035, 43.15715]}, "properties": {"action": "警戒出動", "address": "北区あいの里1条3丁目", "time": "2018-01-30T10:19:00+09:00"}}, {"type": "Feature", "geometry": {"type": "Point", "coordinates": [141.360092, 43.105247]}, "properties": {"action": "警戒出動", "address": "東区北35条東9丁目", "time": "2018-01-30T08:08:00+09:00"}}, {"type": "Feature", "geometry": {"type": "Point", "coordinates": [141.335159, 43.060387]}, "properties": {"action": "警戒出動", "address": "中央区北1条西14丁目", "time": "2018-01-30T03:24:00+09:00"}}, {"type": "Feature", "geometry": {"type": "Point", "coordinates": [141.383102, 43.037182]}, "properties": {"action": "警戒出動", "address": "豊平区美園8条5丁目", "time": "2018-01-30T01:50:00+09:00"}}, {"type": "Feature", "geometry": {"type": "Point", "coordinates": [141.387009, 43.035973]}, "properties": {"action": "警戒出動", "address": "豊平区美園7条7丁目", "time": "2018-01-30T01:50:00+09:00"}}, {"type": "Feature", "geometry": {"type": "Point", "coordinates": [141.369781, 43.028194]}, "properties": {"action": "警戒出動", "address": "豊平区平岸3条12丁目", "time": "2018-01-30T01:46:00+09:00"}}, {"type": "Feature", "geometry": {"type": "Point", "coordinates": [141.390381, 43.049511]}, "properties": {"action": "警戒出動", "address": "白石区東札幌3条4丁目", "time": "2018-01-30T01:03:00+09:00"}}, {"type": "Feature", "geometry": {"type": "Point", "coordinates": [141.433624, 43.058552]}, "properties": {"action": "救急隊支援出動", "address": "白石区川北2条1丁目", "time": "2018-01-30T18:35:00+09:00"}}, {"type": "Feature", "geometry": {"type": "Point", "coordinates": [141.391953, 43.053474]}, "properties": {"action": "救急隊支援出動", "address": "白石区東札幌6条3丁目", "time": "2018-01-30T08:39:00+09:00"}}]}