{"type": "FeatureCollection", "crs": {"type": "name", "properties": {"name": "urn:ogc:def:crs:OGC:1.3:CRS84"}}, "features": [{"type": "Feature", "geometry": {"type": "Point", "coordinates": [141.279007, 43.067345]}, "properties": {"action": "火災出動", "address": "西区西野5条1丁目", "time": "2018-02-10T19:10:00+09:00"}}, {"type": "Feature", "geometry": {"type": "Point", "coordinates": [141.359726, 43.086948]}, "properties": {"action": "火災出動", "address": "東区北20条東6丁目", "time": "2018-02-10T14:35:00+09:00"}}, {"type": "Feature", "geometry": {"type": "Point", "coordinates": [141.410721, 43.034035]}, "properties": {"action": "火災出動", "address": "豊平区月寒東5条9丁目", "time": "2018-02-10T08:26:00+09:00"}}, {"type": "Feature", "geometry": {"type": "Point", "coordinates": [141.349686, 43.091694]}, "properties": {"action": "救助出動", "address": "東区北24条東1丁目", "time": "2018-02-10T22:28:00+09:00"}}, {"type": "Feature", "geometry": {"type": "Point", "coordinates": [141.492188, 43.034004]}, "properties": {"action": "救助出動", "address": "厚別区もみじ台北6丁目", "time": "2018-02-10T13:21:00+09:00"}}, {"type": "Feature", "geometry": {"type": "Point", "coordinates": [141.467957, 43.036476]}, "properties": {"action": "警戒出動", "address": "厚別区厚別中央2条4丁目", "time": "2018-02-10T23:28:00+09:00"}}, {"type": "Feature", "geometry": {"type": "Point", "coordinates": [141.37059, 43.079575]}, "properties": {"action": "警戒出動", "address": "東区北13条東12丁目", "time": "2018-02-10T22:29:00+09:00"}}, {"type": "Feature", "geometry": {"type": "Point", "coordinates": [141.462311, 43.069542]}, "properties": {"action": "警戒出動", "address": "厚別区厚別町山本 付近", "time": "2018-02-10T19:23:00+09:00"}}, {"type": "Feature", "geometry": {"type": "Point", "coordinates": [141.390381, 43.049511]}, "properties": {"action": "警戒出動", "address": "白石区東札幌3条4丁目", "time": "2018-02-10T19:12:00+09:00"}}, {"type": "Feature", "geometry": {"type": "Point", "coordinates": [141.28595, 43.091469]}, "properties": {"action": "警戒出動", "address": "西区発寒8条7丁目", "time": "2018-02-10T18:33:00+09:00"}}, {"type": "Feature", "geometry": {"type": "Point", "coordinates": [141.369873, 43.078144]}, "properties": {"action": "警戒出動", "address": "東区北12条東11丁目", "time": "2018-02-10T17:53:00+09:00"}}, {"type": "Feature", "geometry": {"type": "Point", "coordinates": [141.369629, 43.098976]}, "properties": {"action": "警戒出動", "address": "東区北28条東15丁目", "time": "2018-02-10T16:46:00+09:00"}}, {"type": "Feature", "geometry": {"type": "Point", "coordinates": [141.338455, 43.116188]}, "properties": {"action": "警戒出動", "address": "北区新琴似11条1丁目", "time": "2018-02-10T15:41:00+09:00"}}, {"type": "Feature", "geometry": {"type": "Point", "coordinates": [141.440155, 43.050259]}, "properties": {"action": "警戒出動", "address": "白石区北郷3条13丁目", "time": "2018-02-10T13:46:00+09:00"}}, {"type": "Feature", "geometry": {"type": "Point", "coordinates": [141.430481, 43.000759]}, "properties": {"action": "警戒出動", "address": "清田区清田3条2丁目", "time": "2018-02-10T13:43:00+09:00"}}, {"type": "Feature", "geometry": {"type": "Point", "coordinates": [141.418884, 43.033405]}, "properties": {"action": "警戒出動", "address": "白石区栄通13丁目", "time": "2018-02-10T13:19:00+09:00"}}, {"type": "Feature", "geometry": {"type": "Point", "coordinates": [141.352997, 43.067493]}, "properties": {"action": "警戒出動", "address": "中央区北5条西2丁目", "time": "2018-02-10T12:12:00+09:00"}}, {"type": "Feature", "geometry": {"type": "Point", "coordinates": [141.442184, 43.047916]}, "properties": {"action": "警戒出動", "address": "白石区北郷2条14丁目", "time": "2018-02-10T07:25:00+09:00"}}, {"type": "Feature", "geometry": {"type": "Point", "coordinates": [141.30603, 43.07732]}, "properties": {"action": "警戒出動", "address": "西区琴似1条3丁目", "time": "2018-02-10T03:42:00+09:00"}}, {"type": "Feature", "geometry": {"type": "Point", "coordinates": [141.460388, 43.046261]}, "properties": {"action": "警戒出動", "address": "厚別区厚別西2条2丁目", "time": "2018-02-10T02:36:00+09:00"}}, {"type": "Feature", "geometry": {"type": "Point", "coordinates": [141.344986, 43.049473]}, "properties": {"action": "警戒出動", "address": "中央区南8条西9丁目", "time": "2018-02-10T00:02:00+09:00"}}, {"type": "Feature", "geometry": {"type": "Point", "coordinates": [141.321518, 43.094917]}, "properties": {"action": "救急隊支援出動", "address": "北区新川2条1丁目", "time": "2018-02-10T22:55:00+09:00"}}, {"type": "Feature", "geometry": {"type": "Point", "coordinates": [141.354996, 43.052082]}, "properties": {"action": "救急隊支援出動", "address": "中央区南7条西3丁目", "time": "2018-02-10T22:33:00+09:00"}}, {"type": "Feature", "geometry": {"type": "Point", "coordinates": [141.341904, 43.097202]}, "properties": {"action": "救急隊支援出動", "address": "北区北30条西4丁目", "time": "2018-02-10T19:08:00+09:00"}}, {"type": "Feature", "geometry": {"type": "Point", "coordinates": [141.237122, 43.141346]}, "properties": {"action": "救急隊支援出動", "address": "手稲区曙8条2丁目", "time": "2018-02-10T18:11:00+09:00"}}, {"type": "Feature", "geometry": {"type": "Point", "coordinates": [141.400833, 43.027367]}, "properties": {"action": "救急隊支援出動", "address": "豊平区月寒東1条10丁目", "time": "2018-02-10T18:03:00+09:00"}}, {"type": "Feature", "geometry": {"type": "Point", "coordinates": [141.368576, 43.018398]}, "properties": {"action": "救急隊支援出動", "address": "南区澄川4条1丁目", "time": "2018-02-10T13:16:00+09:00"}}, {"type": "Feature", "geometry": {"type": "Point", "coordinates": [141.325562, 43.122917]}, "properties": {"action": "救急隊支援出動", "address": "北区新琴似11条10丁目", "time": "2018-02-10T12:05:00+09:00"}}, {"type": "Feature", "geometry": {"type": "Point", "coordinates": [141.264618, 43.076244]}, "properties": {"action": "救急隊支援出動", "address": "西区西野5条10丁目", "time": "2018-02-10T11:30:00+09:00"}}, {"type": "Feature", "geometry": {"type": "Point", "coordinates": [141.432693, 43.040386]}, "properties": {"action": "救急隊支援出動", "address": "白石区平和通15丁目", "time": "2018-02-10T11:07:00+09:00"}}, {"type": "Feature", "geometry": {"type": "Point", "coordinates": [141.483902, 43.040562]}, "properties": {"action": "救急隊支援出動", "address": "厚別区厚別東1条2丁目", "time": "2018-02-10T10:26:00+09:00"}}, {"type": "Feature", "geometry": {"type": "Point", "coordinates": [141.157349, 42.966698]}, "properties": {"action": "救急隊支援出動", "address": "南区定山渓無番地", "time": "2018-02-10T10:19:00+09:00"}}, {"type": "Feature", "geometry": {"type": "Point", "coordinates": [141.470673, 43.042297]}, "properties": {"action": "航空隊支援出動", "address": "厚別区厚別中央3条5丁目", "time": "2018-02-10T13:42:00+09:00"}}, {"type": "Feature", "geometry": {"type": "Point", "coordinates": [141.487213, 43.047039]}, "properties": {"action": "航空隊支援出動", "address": "厚別区厚別東3条5丁目", "time": "2018-02-10T10:32:00+09:00"}}]}