{"type": "FeatureCollection", "crs": {"type": "name", "properties": {"name": "urn:ogc:def:crs:OGC:1.3:CRS84"}}, "features": [{"type": "Feature", "geometry": {"type": "Point", "coordinates": [141.374207, 43.050236]}, "properties": {"action": "火災出動", "address": "豊平区豊平3条7丁目", "time": "2018-06-22T02:29:00+09:00"}}, {"type": "Feature", "geometry": {"type": "Point", "coordinates": [141.254074, 43.102226]}, "properties": {"action": "車両火災出動", "address": "手稲区富丘2条2丁目", "time": "2018-06-22T10:32:00+09:00"}}, {"type": "Feature", "geometry": {"type": "Point", "coordinates": [141.360107, 43.157104]}, "properties": {"action": "救助出動", "address": "北区篠路10条4丁目", "time": "2018-06-22T19:35:00+09:00"}}, {"type": "Feature", "geometry": {"type": "Point", "coordinates": [141.362534, 43.012772]}, "properties": {"action": "救助出動", "address": "南区澄川2条4丁目", "time": "2018-06-22T18:55:00+09:00"}}, {"type": "Feature", "geometry": {"type": "Point", "coordinates": [141.354721, 43.080929]}, "properties": {"action": "救助出動", "address": "東区北16条東2丁目", "time": "2018-06-22T16:09:00+09:00"}}, {"type": "Feature", "geometry": {"type": "Point", "coordinates": [141.259644, 43.105186]}, "properties": {"action": "救助出動", "address": "手稲区西宮の沢2条4丁目", "time": "2018-06-22T16:06:00+09:00"}}, {"type": "Feature", "geometry": {"type": "Point", "coordinates": [141.379135, 43.045368]}, "properties": {"action": "救助出動", "address": "豊平区豊平4条12丁目", "time": "2018-06-22T15:59:00+09:00"}}, {"type": "Feature", "geometry": {"type": "Point", "coordinates": [141.365936, 43.047909]}, "properties": {"action": "救助出動", "address": "豊平区旭町3丁目", "time": "2018-06-22T12:40:00+09:00"}}, {"type": "Feature", "geometry": {"type": "Point", "coordinates": [141.303741, 43.078091]}, "properties": {"action": "救助出動", "address": "西区琴似2条3丁目", "time": "2018-06-22T10:24:00+09:00"}}, {"type": "Feature", "geometry": {"type": "Point", "coordinates": [141.340378, 43.090542]}, "properties": {"action": "救助出動", "address": "北海道旭川市　神居町神居コタン", "time": "2018-06-22T10:04:00+09:00"}}, {"type": "Feature", "geometry": {"type": "Point", "coordinates": [141.343246, 43.049332]}, "properties": {"action": "救助出動", "address": "中央区南8条西10丁目", "time": "2018-06-22T09:03:00+09:00"}}, {"type": "Feature", "geometry": {"type": "Point", "coordinates": [141.360855, 43.03109]}, "properties": {"action": "警戒出動", "address": "豊平区中の島2条5丁目", "time": "2018-06-22T22:31:00+09:00"}}, {"type": "Feature", "geometry": {"type": "Point", "coordinates": [141.398819, 43.019451]}, "properties": {"action": "警戒出動", "address": "豊平区福住1条2丁目", "time": "2018-06-22T18:19:00+09:00"}}, {"type": "Feature", "geometry": {"type": "Point", "coordinates": [141.357239, 43.044487]}, "properties": {"action": "警戒出動", "address": "中央区南12条西1丁目", "time": "2018-06-22T10:13:00+09:00"}}, {"type": "Feature", "geometry": {"type": "Point", "coordinates": [141.37001, 43.071644]}, "properties": {"action": "警戒出動", "address": "東区北7条東9丁目", "time": "2018-06-22T08:38:00+09:00"}}, {"type": "Feature", "geometry": {"type": "Point", "coordinates": [141.370682, 43.151272]}, "properties": {"action": "救急隊支援出動", "address": "北区篠路8条7丁目", "time": "2018-06-22T22:51:00+09:00"}}, {"type": "Feature", "geometry": {"type": "Point", "coordinates": [141.355331, 43.057011]}, "properties": {"action": "救急隊支援出動", "address": "中央区南3条西2丁目", "time": "2018-06-22T21:29:00+09:00"}}, {"type": "Feature", "geometry": {"type": "Point", "coordinates": [141.479034, 43.039322]}, "properties": {"action": "救急隊支援出動", "address": "厚別区厚別中央1条7丁目", "time": "2018-06-22T15:25:00+09:00"}}, {"type": "Feature", "geometry": {"type": "Point", "coordinates": [141.333344, 42.991035]}, "properties": {"action": "救急隊支援出動", "address": "南区川沿6条2丁目", "time": "2018-06-22T11:47:00+09:00"}}, {"type": "Feature", "geometry": {"type": "Point", "coordinates": [141.447037, 43.003853]}, "properties": {"action": "救急隊支援出動", "address": "清田区平岡3条1丁目", "time": "2018-06-22T11:15:00+09:00"}}, {"type": "Feature", "geometry": {"type": "Point", "coordinates": [141.353912, 43.056599]}, "properties": {"action": "救急隊支援出動", "address": "中央区南3条西3丁目", "time": "2018-06-22T10:12:00+09:00"}}, {"type": "Feature", "geometry": {"type": "Point", "coordinates": [141.315292, 43.070477]}, "properties": {"action": "救急隊支援出動", "address": "西区二十四軒1条4丁目", "time": "2018-06-22T09:24:00+09:00"}}, {"type": "Feature", "geometry": {"type": "Point", "coordinates": [141.358932, 43.082653]}, "properties": {"action": "救急隊支援出動", "address": "東区北17条東5丁目", "time": "2018-06-22T08:44:00+09:00"}}, {"type": "Feature", "geometry": {"type": "Point", "coordinates": [141.350235, 42.980774]}, "properties": {"action": "救急隊支援出動", "address": "南区真駒内南町4丁目", "time": "2018-06-22T01:12:00+09:00"}}, {"type": "Feature", "geometry": {"type": "Point", "coordinates": [141.38678, 43.083916]}, "properties": {"action": "救急隊支援出動", "address": "東区伏古1条2丁目", "time": "2018-06-22T00:53:00+09:00"}}, {"type": "Feature", "geometry": {"type": "Point", "coordinates": [141.49147, 43.036362]}, "properties": {"action": "航空隊支援出動", "address": "厚別区もみじ台北5丁目", "time": "2018-06-22T15:29:00+09:00"}}, {"type": "Feature", "geometry": {"type": "Point", "coordinates": [141.451263, 43.004627]}, "properties": {"action": "航空隊支援出動", "address": "清田区平岡4条2丁目", "time": "2018-06-22T11:17:00+09:00"}}]}