{"type": "FeatureCollection", "crs": {"type": "name", "properties": {"name": "urn:ogc:def:crs:OGC:1.3:CRS84"}}, "features": [{"type": "Feature", "geometry": {"type": "Point", "coordinates": [141.368958, 42.998741]}, "properties": {"action": "救助出動", "address": "南区澄川5条11丁目", "time": "2019-05-02T12:17:00+09:00"}}, {"type": "Feature", "geometry": {"type": "Point", "coordinates": [141.2164, 43.133327]}, "properties": {"action": "救助出動", "address": "手稲区星置1条1丁目", "time": "2019-05-02T10:42:00+09:00"}}, {"type": "Feature", "geometry": {"type": "Point", "coordinates": [141.391083, 43.06702]}, "properties": {"action": "救助出動", "address": "白石区菊水上町4条1丁目", "time": "2019-05-02T09:43:00+09:00"}}, {"type": "Feature", "geometry": {"type": "Point", "coordinates": [141.237167, 42.97134]}, "properties": {"action": "山岳救助出動", "address": "南区砥山 付近", "time": "2019-05-02T11:09:00+09:00"}}, {"type": "Feature", "geometry": {"type": "Point", "coordinates": [141.342545, 43.089245]}, "properties": {"action": "警戒出動", "address": "北区北23条西5丁目", "time": "2019-05-02T21:55:00+09:00"}}, {"type": "Feature", "geometry": {"type": "Point", "coordinates": [141.343887, 43.057735]}, "properties": {"action": "警戒出動", "address": "中央区南1条西9丁目", "time": "2019-05-02T15:37:00+09:00"}}, {"type": "Feature", "geometry": {"type": "Point", "coordinates": [141.211426, 42.962208]}, "properties": {"action": "警戒出動", "address": "南区小金湯 付近", "time": "2019-05-02T14:32:00+09:00"}}, {"type": "Feature", "geometry": {"type": "Point", "coordinates": [141.332504, 43.057884]}, "properties": {"action": "警戒出動", "address": "中央区大通西16丁目", "time": "2019-05-02T08:12:00+09:00"}}, {"type": "Feature", "geometry": {"type": "Point", "coordinates": [141.501205, 43.023701]}, "properties": {"action": "救急隊支援出動", "address": "厚別区もみじ台南6丁目", "time": "2019-05-02T16:06:00+09:00"}}, {"type": "Feature", "geometry": {"type": "Point", "coordinates": [141.332504, 43.057884]}, "properties": {"action": "救急隊支援出動", "address": "中央区大通西16丁目", "time": "2019-05-02T13:45:00+09:00"}}, {"type": "Feature", "geometry": {"type": "Point", "coordinates": [141.497467, 43.024048]}, "properties": {"action": "航空隊支援出動", "address": "厚別区もみじ台南5丁目", "time": "2019-05-02T16:13:00+09:00"}}]}