{"type": "FeatureCollection", "crs": {"type": "name", "properties": {"name": "urn:ogc:def:crs:OGC:1.3:CRS84"}}, "features": [{"type": "Feature", "geometry": {"type": "Point", "coordinates": [141.305313, 43.063156]}, "properties": {"action": "火災出動", "address": "中央区宮の森3条6丁目", "time": "2019-05-04T20:14:00+09:00"}}, {"type": "Feature", "geometry": {"type": "Point", "coordinates": [141.264908, 43.129562]}, "properties": {"action": "火災出動", "address": "手稲区前田10条9丁目", "time": "2019-05-04T11:17:00+09:00"}}, {"type": "Feature", "geometry": {"type": "Point", "coordinates": [141.343048, 43.041233]}, "properties": {"action": "救助出動", "address": "中央区南14条西11丁目", "time": "2019-05-04T22:55:00+09:00"}}, {"type": "Feature", "geometry": {"type": "Point", "coordinates": [141.375137, 43.092113]}, "properties": {"action": "警戒出動", "address": "東区北22条東17丁目", "time": "2019-05-04T21:39:00+09:00"}}, {"type": "Feature", "geometry": {"type": "Point", "coordinates": [141.305283, 43.076008]}, "properties": {"action": "警戒出動", "address": "西区琴似1条4丁目", "time": "2019-05-04T20:33:00+09:00"}}, {"type": "Feature", "geometry": {"type": "Point", "coordinates": [141.467697, 42.981716]}, "properties": {"action": "警戒出動", "address": "清田区里塚2条6丁目", "time": "2019-05-04T20:30:00+09:00"}}, {"type": "Feature", "geometry": {"type": "Point", "coordinates": [141.294983, 43.087414]}, "properties": {"action": "警戒出動", "address": "西区発寒5条3丁目", "time": "2019-05-04T18:59:00+09:00"}}, {"type": "Feature", "geometry": {"type": "Point", "coordinates": [141.398361, 43.082935]}, "properties": {"action": "警戒出動", "address": "東区東苗穂2条1丁目", "time": "2019-05-04T18:47:00+09:00"}}, {"type": "Feature", "geometry": {"type": "Point", "coordinates": [141.343246, 43.049332]}, "properties": {"action": "警戒出動", "address": "中央区南8条西10丁目", "time": "2019-05-04T18:04:00+09:00"}}, {"type": "Feature", "geometry": {"type": "Point", "coordinates": [141.249985, 43.111004]}, "properties": {"action": "警戒出動", "address": "手稲区富丘2条5丁目", "time": "2019-05-04T17:52:00+09:00"}}, {"type": "Feature", "geometry": {"type": "Point", "coordinates": [141.24353, 43.137444]}, "properties": {"action": "警戒出動", "address": "手稲区前田7条17丁目", "time": "2019-05-04T16:47:00+09:00"}}, {"type": "Feature", "geometry": {"type": "Point", "coordinates": [141.386322, 43.049603]}, "properties": {"action": "警戒出動", "address": "白石区東札幌2条3丁目", "time": "2019-05-04T15:49:00+09:00"}}, {"type": "Feature", "geometry": {"type": "Point", "coordinates": [141.352905, 43.054379]}, "properties": {"action": "警戒出動", "address": "中央区南5条西4丁目", "time": "2019-05-04T08:32:00+09:00"}}, {"type": "Feature", "geometry": {"type": "Point", "coordinates": [141.363297, 43.13681]}, "properties": {"action": "救急隊支援出動", "address": "北区百合が原8丁目", "time": "2019-05-04T16:22:00+09:00"}}, {"type": "Feature", "geometry": {"type": "Point", "coordinates": [141.41481, 43.125942]}, "properties": {"action": "救急隊支援出動", "address": "東区中沼西1条1丁目", "time": "2019-05-04T14:29:00+09:00"}}, {"type": "Feature", "geometry": {"type": "Point", "coordinates": [141.412933, 43.129757]}, "properties": {"action": "航空隊支援出動", "address": "東区中沼西3条1丁目", "time": "2019-05-04T14:32:00+09:00"}}]}