{"type": "FeatureCollection", "crs": {"type": "name", "properties": {"name": "urn:ogc:def:crs:OGC:1.3:CRS84"}}, "features": [{"type": "Feature", "geometry": {"type": "Point", "coordinates": [141.344528, 43.055515]}, "properties": {"action": "車両火災出動", "address": "中央区南3条西9丁目", "time": "2019-05-07T15:25:00+09:00"}}, {"type": "Feature", "geometry": {"type": "Point", "coordinates": [141.368378, 43.016277]}, "properties": {"action": "救助出動", "address": "南区澄川4条2丁目", "time": "2019-05-07T20:03:00+09:00"}}, {"type": "Feature", "geometry": {"type": "Point", "coordinates": [141.395187, 43.07436]}, "properties": {"action": "救助出動", "address": "東区本町1条9丁目", "time": "2019-05-07T18:56:00+09:00"}}, {"type": "Feature", "geometry": {"type": "Point", "coordinates": [141.40303, 43.047741]}, "properties": {"action": "救助出動", "address": "白石区本郷通2丁目", "time": "2019-05-07T18:25:00+09:00"}}, {"type": "Feature", "geometry": {"type": "Point", "coordinates": [141.342224, 43.033928]}, "properties": {"action": "救助出動", "address": "中央区南19条西12丁目", "time": "2019-05-07T16:43:00+09:00"}}, {"type": "Feature", "geometry": {"type": "Point", "coordinates": [141.358444, 43.050911]}, "properties": {"action": "水難救助出動", "address": "中央区南8条西1丁目", "time": "2019-05-07T13:01:00+09:00"}}, {"type": "Feature", "geometry": {"type": "Point", "coordinates": [141.340378, 43.090542]}, "properties": {"action": "山岳救助出動", "address": "北広島市仁別　４５５－５", "time": "2019-05-07T17:20:00+09:00"}}, {"type": "Feature", "geometry": {"type": "Point", "coordinates": [141.237167, 42.97134]}, "properties": {"action": "山岳救助出動", "address": "南区砥山 付近", "time": "2019-05-07T12:58:00+09:00"}}, {"type": "Feature", "geometry": {"type": "Point", "coordinates": [141.329437, 43.057453]}, "properties": {"action": "警戒出動", "address": "中央区大通西18丁目", "time": "2019-05-07T23:31:00+09:00"}}, {"type": "Feature", "geometry": {"type": "Point", "coordinates": [141.413986, 43.041321]}, "properties": {"action": "警戒出動", "address": "白石区本郷通8丁目", "time": "2019-05-07T17:46:00+09:00"}}, {"type": "Feature", "geometry": {"type": "Point", "coordinates": [141.364273, 43.033752]}, "properties": {"action": "警戒出動", "address": "豊平区平岸1条8丁目", "time": "2019-05-07T13:19:00+09:00"}}, {"type": "Feature", "geometry": {"type": "Point", "coordinates": [141.274261, 43.086124]}, "properties": {"action": "警戒出動", "address": "西区西町南21丁目", "time": "2019-05-07T12:49:00+09:00"}}, {"type": "Feature", "geometry": {"type": "Point", "coordinates": [141.205551, 43.136448]}, "properties": {"action": "警戒出動", "address": "手稲区星置2条5丁目", "time": "2019-05-07T10:52:00+09:00"}}, {"type": "Feature", "geometry": {"type": "Point", "coordinates": [141.369965, 43.02919]}, "properties": {"action": "警戒出動", "address": "豊平区平岸3条11丁目", "time": "2019-05-07T09:46:00+09:00"}}, {"type": "Feature", "geometry": {"type": "Point", "coordinates": [141.343781, 43.034134]}, "properties": {"action": "警戒出動", "address": "中央区南19条西11丁目", "time": "2019-05-07T06:27:00+09:00"}}, {"type": "Feature", "geometry": {"type": "Point", "coordinates": [141.275986, 43.104095]}, "properties": {"action": "警戒出動", "address": "西区発寒11条14丁目", "time": "2019-05-07T03:43:00+09:00"}}, {"type": "Feature", "geometry": {"type": "Point", "coordinates": [141.291183, 43.068104]}, "properties": {"action": "警戒出動", "address": "西区山の手4条8丁目", "time": "2019-05-07T02:24:00+09:00"}}, {"type": "Feature", "geometry": {"type": "Point", "coordinates": [141.249496, 43.124027]}, "properties": {"action": "警戒出動", "address": "手稲区前田4条11丁目", "time": "2019-05-07T02:05:00+09:00"}}, {"type": "Feature", "geometry": {"type": "Point", "coordinates": [141.410614, 43.088177]}, "properties": {"action": "救急隊支援出動", "address": "東区東苗穂5条3丁目", "time": "2019-05-07T22:13:00+09:00"}}, {"type": "Feature", "geometry": {"type": "Point", "coordinates": [141.257523, 43.142448]}, "properties": {"action": "救急隊支援出動", "address": "手稲区手稲前田 付近", "time": "2019-05-07T11:34:00+09:00"}}, {"type": "Feature", "geometry": {"type": "Point", "coordinates": [141.410492, 43.051991]}, "properties": {"action": "救急隊支援出動", "address": "白石区平和通3丁目", "time": "2019-05-07T08:20:00+09:00"}}, {"type": "Feature", "geometry": {"type": "Point", "coordinates": [141.371857, 43.057114]}, "properties": {"action": "救急隊支援出動", "address": "白石区菊水2条2丁目", "time": "2019-05-07T07:14:00+09:00"}}, {"type": "Feature", "geometry": {"type": "Point", "coordinates": [141.43634, 43.103268]}, "properties": {"action": "救急隊支援出動", "address": "東区東雁来町 付近", "time": "2019-05-07T06:56:00+09:00"}}, {"type": "Feature", "geometry": {"type": "Point", "coordinates": [141.46347, 43.038803]}, "properties": {"action": "航空隊支援出動", "address": "厚別区厚別中央3条3丁目", "time": "2019-05-07T10:50:00+09:00"}}]}