{"type": "FeatureCollection", "crs": {"type": "name", "properties": {"name": "urn:ogc:def:crs:OGC:1.3:CRS84"}}, "features": [{"type": "Feature", "geometry": {"type": "Point", "coordinates": [141.340378, 43.090542]}, "properties": {"action": "火災出動", "address": "北広島市大曲　 付近", "time": "2019-05-06T12:22:00+09:00"}}, {"type": "Feature", "geometry": {"type": "Point", "coordinates": [141.329514, 43.004574]}, "properties": {"action": "火災出動", "address": "南区北ノ沢 付近", "time": "2019-05-06T12:00:00+09:00"}}, {"type": "Feature", "geometry": {"type": "Point", "coordinates": [141.43425, 43.018692]}, "properties": {"action": "火災出動", "address": "清田区北野5条2丁目", "time": "2019-05-06T07:34:00+09:00"}}, {"type": "Feature", "geometry": {"type": "Point", "coordinates": [141.453873, 43.0868]}, "properties": {"action": "火災出動", "address": "白石区東米里 付近", "time": "2019-05-06T07:26:00+09:00"}}, {"type": "Feature", "geometry": {"type": "Point", "coordinates": [141.353912, 43.056599]}, "properties": {"action": "火災出動", "address": "中央区南3条西3丁目", "time": "2019-05-06T00:23:00+09:00"}}, {"type": "Feature", "geometry": {"type": "Point", "coordinates": [141.399963, 43.117615]}, "properties": {"action": "車両火災出動", "address": "東区丘珠町 付近", "time": "2019-05-06T11:14:00+09:00"}}, {"type": "Feature", "geometry": {"type": "Point", "coordinates": [141.467773, 43.034649]}, "properties": {"action": "救助出動", "address": "厚別区厚別中央1条4丁目", "time": "2019-05-06T13:48:00+09:00"}}, {"type": "Feature", "geometry": {"type": "Point", "coordinates": [141.374191, 43.032158]}, "properties": {"action": "救助出動", "address": "豊平区平岸4条9丁目", "time": "2019-05-06T12:49:00+09:00"}}, {"type": "Feature", "geometry": {"type": "Point", "coordinates": [141.275848, 43.099323]}, "properties": {"action": "救助出動", "address": "西区発寒9条13丁目", "time": "2019-05-06T09:14:00+09:00"}}, {"type": "Feature", "geometry": {"type": "Point", "coordinates": [141.157349, 42.966698]}, "properties": {"action": "山岳救助出動", "address": "南区定山渓 付近", "time": "2019-05-06T14:17:00+09:00"}}, {"type": "Feature", "geometry": {"type": "Point", "coordinates": [141.345749, 43.082226]}, "properties": {"action": "警戒出動", "address": "北区北18条西4丁目", "time": "2019-05-06T22:57:00+09:00"}}, {"type": "Feature", "geometry": {"type": "Point", "coordinates": [141.349884, 43.025932]}, "properties": {"action": "警戒出動", "address": "中央区南25条西8丁目", "time": "2019-05-06T19:19:00+09:00"}}, {"type": "Feature", "geometry": {"type": "Point", "coordinates": [141.409637, 43.04821]}, "properties": {"action": "警戒出動", "address": "白石区本通4丁目", "time": "2019-05-06T19:15:00+09:00"}}, {"type": "Feature", "geometry": {"type": "Point", "coordinates": [141.278488, 43.080528]}, "properties": {"action": "警戒出動", "address": "西区西野1条6丁目", "time": "2019-05-06T19:09:00+09:00"}}, {"type": "Feature", "geometry": {"type": "Point", "coordinates": [141.343307, 42.989529]}, "properties": {"action": "警戒出動", "address": "南区真駒内柏丘6丁目", "time": "2019-05-06T17:23:00+09:00"}}, {"type": "Feature", "geometry": {"type": "Point", "coordinates": [141.379456, 43.087429]}, "properties": {"action": "警戒出動", "address": "東区北19条東19丁目", "time": "2019-05-06T15:40:00+09:00"}}, {"type": "Feature", "geometry": {"type": "Point", "coordinates": [141.421524, 43.096218]}, "properties": {"action": "警戒出動", "address": "東区東雁来9条1丁目", "time": "2019-05-06T12:49:00+09:00"}}, {"type": "Feature", "geometry": {"type": "Point", "coordinates": [141.435165, 43.005089]}, "properties": {"action": "警戒出動", "address": "清田区清田1条1丁目", "time": "2019-05-06T11:11:00+09:00"}}, {"type": "Feature", "geometry": {"type": "Point", "coordinates": [141.354752, 43.053349]}, "properties": {"action": "警戒出動", "address": "中央区南6条西3丁目", "time": "2019-05-06T02:30:00+09:00"}}, {"type": "Feature", "geometry": {"type": "Point", "coordinates": [141.314423, 43.131798]}, "properties": {"action": "ガス漏れ出動", "address": "北区新琴似12条16丁目", "time": "2019-05-06T09:25:00+09:00"}}, {"type": "Feature", "geometry": {"type": "Point", "coordinates": [141.442795, 42.989708]}, "properties": {"action": "救急隊支援出動", "address": "清田区真栄3条2丁目", "time": "2019-05-06T19:34:00+09:00"}}, {"type": "Feature", "geometry": {"type": "Point", "coordinates": [141.346542, 43.091572]}, "properties": {"action": "救急隊支援出動", "address": "北区北24条西2丁目", "time": "2019-05-06T10:17:00+09:00"}}, {"type": "Feature", "geometry": {"type": "Point", "coordinates": [141.382553, 43.001747]}, "properties": {"action": "航空隊支援出動", "address": "豊平区西岡3条10丁目", "time": "2019-05-06T15:10:00+09:00"}}, {"type": "Feature", "geometry": {"type": "Point", "coordinates": [141.423111, 42.99614]}, "properties": {"action": "航空隊支援出動", "address": "清田区清田6条1丁目", "time": "2019-05-06T14:09:00+09:00"}}, {"type": "Feature", "geometry": {"type": "Point", "coordinates": [141.445923, 43.068806]}, "properties": {"action": "航空隊支援出動", "address": "白石区川下 付近", "time": "2019-05-06T11:07:00+09:00"}}]}