{"type": "FeatureCollection", "crs": {"type": "name", "properties": {"name": "urn:ogc:def:crs:OGC:1.3:CRS84"}}, "features": [{"type": "Feature", "geometry": {"type": "Point", "coordinates": [141.377533, 43.030647]}, "properties": {"action": "火災出動", "address": "豊平区平岸5条10丁目", "time": "2018-02-16T20:23:00+09:00"}}, {"type": "Feature", "geometry": {"type": "Point", "coordinates": [141.390228, 43.097439]}, "properties": {"action": "火災出動", "address": "東区伏古10条1丁目", "time": "2018-02-16T15:10:00+09:00"}}, {"type": "Feature", "geometry": {"type": "Point", "coordinates": [141.405289, 43.038567]}, "properties": {"action": "火災出動", "address": "白石区栄通6丁目", "time": "2018-02-16T02:07:00+09:00"}}, {"type": "Feature", "geometry": {"type": "Point", "coordinates": [141.383926, 43.081192]}, "properties": {"action": "救助出動", "address": "東区本町2条2丁目", "time": "2018-02-16T17:34:00+09:00"}}, {"type": "Feature", "geometry": {"type": "Point", "coordinates": [141.437195, 43.048981]}, "properties": {"action": "救助出動", "address": "白石区北郷2条12丁目", "time": "2018-02-16T14:53:00+09:00"}}, {"type": "Feature", "geometry": {"type": "Point", "coordinates": [141.402649, 42.992359]}, "properties": {"action": "救助出動", "address": "豊平区羊ケ丘 付近", "time": "2018-02-16T04:46:00+09:00"}}, {"type": "Feature", "geometry": {"type": "Point", "coordinates": [141.363327, 43.072521]}, "properties": {"action": "警戒出動", "address": "東区北8条東6丁目", "time": "2018-02-16T21:52:00+09:00"}}, {"type": "Feature", "geometry": {"type": "Point", "coordinates": [141.369492, 43.086693]}, "properties": {"action": "警戒出動", "address": "東区北19条東13丁目", "time": "2018-02-16T21:49:00+09:00"}}, {"type": "Feature", "geometry": {"type": "Point", "coordinates": [141.400421, 43.048569]}, "properties": {"action": "警戒出動", "address": "白石区本郷通1丁目", "time": "2018-02-16T20:14:00+09:00"}}, {"type": "Feature", "geometry": {"type": "Point", "coordinates": [141.357651, 43.054989]}, "properties": {"action": "警戒出動", "address": "中央区南5条西1丁目", "time": "2018-02-16T19:07:00+09:00"}}, {"type": "Feature", "geometry": {"type": "Point", "coordinates": [141.332642, 43.094685]}, "properties": {"action": "警戒出動", "address": "北区北28条西10丁目", "time": "2018-02-16T18:38:00+09:00"}}, {"type": "Feature", "geometry": {"type": "Point", "coordinates": [141.358017, 43.145401]}, "properties": {"action": "警戒出動", "address": "北区篠路3条4丁目", "time": "2018-02-16T15:05:00+09:00"}}, {"type": "Feature", "geometry": {"type": "Point", "coordinates": [141.350723, 43.075638]}, "properties": {"action": "警戒出動", "address": "北区北12条西2丁目", "time": "2018-02-16T11:27:00+09:00"}}, {"type": "Feature", "geometry": {"type": "Point", "coordinates": [141.344528, 43.055515]}, "properties": {"action": "警戒出動", "address": "中央区南3条西9丁目", "time": "2018-02-16T10:10:00+09:00"}}, {"type": "Feature", "geometry": {"type": "Point", "coordinates": [141.342224, 43.033928]}, "properties": {"action": "警戒出動", "address": "中央区南19条西12丁目", "time": "2018-02-16T08:34:00+09:00"}}, {"type": "Feature", "geometry": {"type": "Point", "coordinates": [141.366959, 43.029072]}, "properties": {"action": "警戒出動", "address": "豊平区平岸2条11丁目", "time": "2018-02-16T00:13:00+09:00"}}, {"type": "Feature", "geometry": {"type": "Point", "coordinates": [141.371506, 43.053165]}, "properties": {"action": "警戒出動", "address": "豊平区豊平2条4丁目", "time": "2018-02-16T00:08:00+09:00"}}, {"type": "Feature", "geometry": {"type": "Point", "coordinates": [141.405029, 43.049942]}, "properties": {"action": "救急隊支援出動", "address": "白石区本通2丁目", "time": "2018-02-16T20:34:00+09:00"}}, {"type": "Feature", "geometry": {"type": "Point", "coordinates": [141.245026, 43.112991]}, "properties": {"action": "救急隊支援出動", "address": "手稲区富丘3条7丁目", "time": "2018-02-16T17:48:00+09:00"}}, {"type": "Feature", "geometry": {"type": "Point", "coordinates": [141.438599, 42.975315]}, "properties": {"action": "救急隊支援出動", "address": "清田区真栄 付近", "time": "2018-02-16T14:05:00+09:00"}}, {"type": "Feature", "geometry": {"type": "Point", "coordinates": [141.249496, 43.124027]}, "properties": {"action": "救急隊支援出動", "address": "手稲区前田4条11丁目", "time": "2018-02-16T12:47:00+09:00"}}, {"type": "Feature", "geometry": {"type": "Point", "coordinates": [141.5009, 43.028248]}, "properties": {"action": "救急隊支援出動", "address": "厚別区もみじ台東6丁目", "time": "2018-02-16T06:59:00+09:00"}}, {"type": "Feature", "geometry": {"type": "Point", "coordinates": [141.363724, 43.155033]}, "properties": {"action": "救急隊支援出動", "address": "北区篠路9条6丁目", "time": "2018-02-16T06:53:00+09:00"}}, {"type": "Feature", "geometry": {"type": "Point", "coordinates": [141.30484, 43.044979]}, "properties": {"action": "救急隊支援出動", "address": "中央区円山西町2丁目", "time": "2018-02-16T05:34:00+09:00"}}, {"type": "Feature", "geometry": {"type": "Point", "coordinates": [141.439896, 43.005226]}, "properties": {"action": "航空隊支援出動", "address": "清田区清田1条2丁目", "time": "2018-02-16T14:08:00+09:00"}}]}