{"type": "FeatureCollection", "crs": {"type": "name", "properties": {"name": "urn:ogc:def:crs:OGC:1.3:CRS84"}}, "features": [{"type": "Feature", "geometry": {"type": "Point", "coordinates": [141.408554, 43.037563]}, "properties": {"action": "警戒出動", "address": "白石区栄通7丁目", "time": "2018-02-07T23:31:00+09:00"}}, {"type": "Feature", "geometry": {"type": "Point", "coordinates": [141.245026, 43.112991]}, "properties": {"action": "警戒出動", "address": "手稲区富丘3条7丁目", "time": "2018-02-07T22:24:00+09:00"}}, {"type": "Feature", "geometry": {"type": "Point", "coordinates": [141.307785, 43.074909]}, "properties": {"action": "警戒出動", "address": "西区二十四軒4条4丁目", "time": "2018-02-07T22:13:00+09:00"}}, {"type": "Feature", "geometry": {"type": "Point", "coordinates": [141.341568, 43.099197]}, "properties": {"action": "警戒出動", "address": "北区北32条西4丁目", "time": "2018-02-07T21:50:00+09:00"}}, {"type": "Feature", "geometry": {"type": "Point", "coordinates": [141.440918, 43.00024]}, "properties": {"action": "警戒出動", "address": "清田区清田1条4丁目", "time": "2018-02-07T20:35:00+09:00"}}, {"type": "Feature", "geometry": {"type": "Point", "coordinates": [141.373978, 43.02528]}, "properties": {"action": "警戒出動", "address": "豊平区平岸4条14丁目", "time": "2018-02-07T19:56:00+09:00"}}, {"type": "Feature", "geometry": {"type": "Point", "coordinates": [141.343231, 43.104965]}, "properties": {"action": "警戒出動", "address": "北区北37条西2丁目", "time": "2018-02-07T18:40:00+09:00"}}, {"type": "Feature", "geometry": {"type": "Point", "coordinates": [141.332428, 43.051891]}, "properties": {"action": "警戒出動", "address": "中央区南5条西16丁目", "time": "2018-02-07T17:54:00+09:00"}}, {"type": "Feature", "geometry": {"type": "Point", "coordinates": [141.361816, 43.13969]}, "properties": {"action": "警戒出動", "address": "北区篠路1条6丁目", "time": "2018-02-07T13:30:00+09:00"}}, {"type": "Feature", "geometry": {"type": "Point", "coordinates": [141.386459, 43.080269]}, "properties": {"action": "警戒出動", "address": "東区本町2条3丁目", "time": "2018-02-07T09:12:00+09:00"}}, {"type": "Feature", "geometry": {"type": "Point", "coordinates": [141.392166, 43.0336]}, "properties": {"action": "警戒出動", "address": "豊平区月寒西1条4丁目", "time": "2018-02-07T08:41:00+09:00"}}, {"type": "Feature", "geometry": {"type": "Point", "coordinates": [141.357635, 43.021824]}, "properties": {"action": "警戒出動", "address": "豊平区中の島2条10丁目", "time": "2018-02-07T08:28:00+09:00"}}, {"type": "Feature", "geometry": {"type": "Point", "coordinates": [141.407303, 43.04052]}, "properties": {"action": "警戒出動", "address": "白石区南郷通6丁目", "time": "2018-02-07T05:20:00+09:00"}}, {"type": "Feature", "geometry": {"type": "Point", "coordinates": [141.430145, 43.015621]}, "properties": {"action": "救急隊支援出動", "address": "清田区北野3条1丁目", "time": "2018-02-07T23:44:00+09:00"}}, {"type": "Feature", "geometry": {"type": "Point", "coordinates": [141.359116, 43.03767]}, "properties": {"action": "救急隊支援出動", "address": "豊平区中の島1条2丁目", "time": "2018-02-07T22:20:00+09:00"}}, {"type": "Feature", "geometry": {"type": "Point", "coordinates": [141.28862, 43.091724]}, "properties": {"action": "救急隊支援出動", "address": "西区発寒8条5丁目", "time": "2018-02-07T19:12:00+09:00"}}, {"type": "Feature", "geometry": {"type": "Point", "coordinates": [141.445663, 43.025959]}, "properties": {"action": "救急隊支援出動", "address": "厚別区大谷地西1丁目", "time": "2018-02-07T17:29:00+09:00"}}, {"type": "Feature", "geometry": {"type": "Point", "coordinates": [141.414383, 43.049831]}, "properties": {"action": "救急隊支援出動", "address": "白石区平和通5丁目", "time": "2018-02-07T16:14:00+09:00"}}, {"type": "Feature", "geometry": {"type": "Point", "coordinates": [141.372833, 43.05233]}, "properties": {"action": "救急隊支援出動", "address": "豊平区豊平2条5丁目", "time": "2018-02-07T13:14:00+09:00"}}, {"type": "Feature", "geometry": {"type": "Point", "coordinates": [141.321381, 43.00465]}, "properties": {"action": "救急隊支援出動", "address": "南区北ﾉ沢5丁目", "time": "2018-02-07T13:13:00+09:00"}}, {"type": "Feature", "geometry": {"type": "Point", "coordinates": [141.394699, 43.028156]}, "properties": {"action": "救急隊支援出動", "address": "豊平区月寒西1条8丁目", "time": "2018-02-07T13:07:00+09:00"}}, {"type": "Feature", "geometry": {"type": "Point", "coordinates": [141.355362, 43.050835]}, "properties": {"action": "救急隊支援出動", "address": "中央区南8条西3丁目", "time": "2018-02-07T12:35:00+09:00"}}, {"type": "Feature", "geometry": {"type": "Point", "coordinates": [141.406342, 43.089012]}, "properties": {"action": "救急隊支援出動", "address": "東区東苗穂5条2丁目", "time": "2018-02-07T04:58:00+09:00"}}]}