{"type": "FeatureCollection", "crs": {"type": "name", "properties": {"name": "urn:ogc:def:crs:OGC:1.3:CRS84"}}, "features": [{"type": "Feature", "geometry": {"type": "Point", "coordinates": [141.252258, 43.107674]}, "properties": {"action": "火災出動", "address": "手稲区富丘2条4丁目", "time": "2018-02-12T10:07:00+09:00"}}, {"type": "Feature", "geometry": {"type": "Point", "coordinates": [141.260178, 43.083504]}, "properties": {"action": "車両火災出動", "address": "西区宮の沢4条3丁目", "time": "2018-02-12T09:24:00+09:00"}}, {"type": "Feature", "geometry": {"type": "Point", "coordinates": [141.357254, 43.08363]}, "properties": {"action": "救助出動", "address": "東区北18条東4丁目", "time": "2018-02-12T23:57:00+09:00"}}, {"type": "Feature", "geometry": {"type": "Point", "coordinates": [141.358017, 43.145401]}, "properties": {"action": "救助出動", "address": "北区篠路3条4丁目", "time": "2018-02-12T20:40:00+09:00"}}, {"type": "Feature", "geometry": {"type": "Point", "coordinates": [141.327805, 43.098125]}, "properties": {"action": "救助出動", "address": "北区北29条西14丁目", "time": "2018-02-12T12:38:00+09:00"}}, {"type": "Feature", "geometry": {"type": "Point", "coordinates": [141.319962, 43.133656]}, "properties": {"action": "救助出動", "address": "北区屯田5条10丁目", "time": "2018-02-12T10:03:00+09:00"}}, {"type": "Feature", "geometry": {"type": "Point", "coordinates": [141.324738, 43.130356]}, "properties": {"action": "警戒出動", "address": "北区屯田4条8丁目", "time": "2018-02-12T16:21:00+09:00"}}, {"type": "Feature", "geometry": {"type": "Point", "coordinates": [141.400986, 43.034004]}, "properties": {"action": "警戒出動", "address": "豊平区月寒東2条6丁目", "time": "2018-02-12T13:17:00+09:00"}}, {"type": "Feature", "geometry": {"type": "Point", "coordinates": [141.341324, 43.106003]}, "properties": {"action": "警戒出動", "address": "北区北38条西3丁目", "time": "2018-02-12T12:45:00+09:00"}}, {"type": "Feature", "geometry": {"type": "Point", "coordinates": [141.374207, 43.050236]}, "properties": {"action": "警戒出動", "address": "豊平区豊平3条7丁目", "time": "2018-02-12T12:30:00+09:00"}}, {"type": "Feature", "geometry": {"type": "Point", "coordinates": [141.387482, 43.051205]}, "properties": {"action": "警戒出動", "address": "白石区東札幌3条3丁目", "time": "2018-02-12T12:09:00+09:00"}}, {"type": "Feature", "geometry": {"type": "Point", "coordinates": [141.34761, 43.056015]}, "properties": {"action": "警戒出動", "address": "中央区南3条西7丁目", "time": "2018-02-12T10:33:00+09:00"}}, {"type": "Feature", "geometry": {"type": "Point", "coordinates": [141.400421, 43.048569]}, "properties": {"action": "警戒出動", "address": "白石区本郷通1丁目", "time": "2018-02-12T04:16:00+09:00"}}, {"type": "Feature", "geometry": {"type": "Point", "coordinates": [141.353409, 43.08617]}, "properties": {"action": "警戒出動", "address": "東区北20条東2丁目", "time": "2018-02-12T01:30:00+09:00"}}, {"type": "Feature", "geometry": {"type": "Point", "coordinates": [141.409729, 43.039337]}, "properties": {"action": "警戒出動", "address": "白石区南郷通7丁目", "time": "2018-02-12T01:13:00+09:00"}}, {"type": "Feature", "geometry": {"type": "Point", "coordinates": [141.276642, 43.073036]}, "properties": {"action": "救急隊支援出動", "address": "西区西野4条4丁目", "time": "2018-02-12T23:28:00+09:00"}}, {"type": "Feature", "geometry": {"type": "Point", "coordinates": [141.300354, 43.094654]}, "properties": {"action": "救急隊支援出動", "address": "西区八軒5条西10丁目", "time": "2018-02-12T21:14:00+09:00"}}, {"type": "Feature", "geometry": {"type": "Point", "coordinates": [141.314606, 43.064224]}, "properties": {"action": "救急隊支援出動", "address": "中央区北6条西27丁目", "time": "2018-02-12T20:40:00+09:00"}}, {"type": "Feature", "geometry": {"type": "Point", "coordinates": [141.206345, 43.129051]}, "properties": {"action": "救急隊支援出動", "address": "手稲区金山1条2丁目", "time": "2018-02-12T20:06:00+09:00"}}, {"type": "Feature", "geometry": {"type": "Point", "coordinates": [141.2108, 43.130478]}, "properties": {"action": "救急隊支援出動", "address": "手稲区稲穂2条8丁目", "time": "2018-02-12T13:30:00+09:00"}}, {"type": "Feature", "geometry": {"type": "Point", "coordinates": [141.369308, 43.100094]}, "properties": {"action": "救急隊支援出動", "address": "東区北30条東15丁目", "time": "2018-02-12T00:08:00+09:00"}}]}