{"type": "FeatureCollection", "crs": {"type": "name", "properties": {"name": "urn:ogc:def:crs:OGC:1.3:CRS84"}}, "features": [{"type": "Feature", "geometry": {"type": "Point", "coordinates": [141.461197, 42.984318]}, "properties": {"action": "車両火災出動", "address": "清田区里塚1条4丁目", "time": "2018-02-23T10:04:00+09:00"}}, {"type": "Feature", "geometry": {"type": "Point", "coordinates": [141.39299, 43.017128]}, "properties": {"action": "救助出動", "address": "豊平区西岡5条3丁目", "time": "2018-02-23T17:57:00+09:00"}}, {"type": "Feature", "geometry": {"type": "Point", "coordinates": [141.467957, 43.036476]}, "properties": {"action": "救助出動", "address": "厚別区厚別中央2条4丁目", "time": "2018-02-23T15:09:00+09:00"}}, {"type": "Feature", "geometry": {"type": "Point", "coordinates": [141.312683, 43.075108]}, "properties": {"action": "救助出動", "address": "西区二十四軒3条2丁目", "time": "2018-02-23T12:35:00+09:00"}}, {"type": "Feature", "geometry": {"type": "Point", "coordinates": [141.29187, 43.047485]}, "properties": {"action": "救助出動", "address": "中央区宮の森2条16丁目", "time": "2018-02-23T12:13:00+09:00"}}, {"type": "Feature", "geometry": {"type": "Point", "coordinates": [141.385864, 43.054806]}, "properties": {"action": "救助出動", "address": "白石区東札幌4条1丁目", "time": "2018-02-23T09:07:00+09:00"}}, {"type": "Feature", "geometry": {"type": "Point", "coordinates": [141.35817, 43.059116]}, "properties": {"action": "警戒出動", "address": "中央区南2条東1丁目", "time": "2018-02-23T17:46:00+09:00"}}, {"type": "Feature", "geometry": {"type": "Point", "coordinates": [141.421066, 43.06908]}, "properties": {"action": "警戒出動", "address": "白石区北郷9条3丁目", "time": "2018-02-23T17:36:00+09:00"}}, {"type": "Feature", "geometry": {"type": "Point", "coordinates": [141.423111, 42.99614]}, "properties": {"action": "警戒出動", "address": "清田区清田6条1丁目", "time": "2018-02-23T16:27:00+09:00"}}, {"type": "Feature", "geometry": {"type": "Point", "coordinates": [141.338409, 43.046169]}, "properties": {"action": "警戒出動", "address": "中央区南10条西13丁目", "time": "2018-02-23T14:53:00+09:00"}}, {"type": "Feature", "geometry": {"type": "Point", "coordinates": [141.315353, 43.083286]}, "properties": {"action": "警戒出動", "address": "西区八軒3条東2丁目", "time": "2018-02-23T14:07:00+09:00"}}, {"type": "Feature", "geometry": {"type": "Point", "coordinates": [141.27565, 43.128162]}, "properties": {"action": "警戒出動", "address": "北区新川西2条5丁目", "time": "2018-02-23T09:42:00+09:00"}}, {"type": "Feature", "geometry": {"type": "Point", "coordinates": [141.33728, 43.110828]}, "properties": {"action": "警戒出動", "address": "北区麻生町5丁目", "time": "2018-02-23T04:02:00+09:00"}}, {"type": "Feature", "geometry": {"type": "Point", "coordinates": [141.333221, 43.072613]}, "properties": {"action": "警戒出動", "address": "中央区北11条西14丁目", "time": "2018-02-23T03:17:00+09:00"}}, {"type": "Feature", "geometry": {"type": "Point", "coordinates": [141.35405, 43.055759]}, "properties": {"action": "警戒出動", "address": "中央区南4条西3丁目", "time": "2018-02-23T02:40:00+09:00"}}, {"type": "Feature", "geometry": {"type": "Point", "coordinates": [141.408432, 43.074516]}, "properties": {"action": "警戒出動", "address": "白石区菊水元町7条1丁目", "time": "2018-02-23T00:11:00+09:00"}}, {"type": "Feature", "geometry": {"type": "Point", "coordinates": [141.29628, 43.066471]}, "properties": {"action": "救急隊支援出動", "address": "西区山の手2条7丁目", "time": "2018-02-23T17:49:00+09:00"}}, {"type": "Feature", "geometry": {"type": "Point", "coordinates": [141.28299, 43.076118]}, "properties": {"action": "救急隊支援出動", "address": "西区西野2条3丁目", "time": "2018-02-23T17:06:00+09:00"}}, {"type": "Feature", "geometry": {"type": "Point", "coordinates": [141.335464, 43.111954]}, "properties": {"action": "救急隊支援出動", "address": "北区新琴似8条1丁目", "time": "2018-02-23T12:21:00+09:00"}}, {"type": "Feature", "geometry": {"type": "Point", "coordinates": [141.460342, 43.006447]}, "properties": {"action": "救急隊支援出動", "address": "清田区平岡6条4丁目", "time": "2018-02-23T12:14:00+09:00"}}, {"type": "Feature", "geometry": {"type": "Point", "coordinates": [141.443436, 43.018166]}, "properties": {"action": "救急隊支援出動", "address": "清田区北野6条4丁目", "time": "2018-02-23T11:28:00+09:00"}}, {"type": "Feature", "geometry": {"type": "Point", "coordinates": [141.22406, 43.126244]}, "properties": {"action": "救急隊支援出動", "address": "手稲区稲穂1条4丁目", "time": "2018-02-23T07:23:00+09:00"}}, {"type": "Feature", "geometry": {"type": "Point", "coordinates": [141.373871, 43.079948]}, "properties": {"action": "救急隊支援出動", "address": "東区北13条東14丁目", "time": "2018-02-23T07:20:00+09:00"}}, {"type": "Feature", "geometry": {"type": "Point", "coordinates": [141.270584, 43.080688]}, "properties": {"action": "救急隊支援出動", "address": "西区西野3条9丁目", "time": "2018-02-23T01:23:00+09:00"}}, {"type": "Feature", "geometry": {"type": "Point", "coordinates": [141.462067, 42.997902]}, "properties": {"action": "航空隊支援出動", "address": "清田区平岡4条6丁目", "time": "2018-02-23T12:31:00+09:00"}}, {"type": "Feature", "geometry": {"type": "Point", "coordinates": [141.439896, 43.005226]}, "properties": {"action": "航空隊支援出動", "address": "清田区清田1条2丁目", "time": "2018-02-23T11:31:00+09:00"}}]}