{"type": "FeatureCollection", "crs": {"type": "name", "properties": {"name": "urn:ogc:def:crs:OGC:1.3:CRS84"}}, "features": [{"type": "Feature", "geometry": {"type": "Point", "coordinates": [141.339554, 43.134007]}, "properties": {"action": "火災出動", "address": "北区屯田6条3丁目", "time": "2017-11-09T09:26:00+09:00"}}, {"type": "Feature", "geometry": {"type": "Point", "coordinates": [141.472839, 43.03614]}, "properties": {"action": "救助出動", "address": "厚別区厚別中央1条5丁目", "time": "2017-11-09T12:11:00+09:00"}}, {"type": "Feature", "geometry": {"type": "Point", "coordinates": [141.345032, 42.995926]}, "properties": {"action": "水難救助出動", "address": "南区真駒内公園 付近", "time": "2017-11-09T15:41:00+09:00"}}, {"type": "Feature", "geometry": {"type": "Point", "coordinates": [141.340271, 43.047634]}, "properties": {"action": "警戒出動", "address": "中央区南9条西12丁目", "time": "2017-11-09T23:16:00+09:00"}}, {"type": "Feature", "geometry": {"type": "Point", "coordinates": [141.305023, 43.043095]}, "properties": {"action": "警戒出動", "address": "中央区円山西町3丁目", "time": "2017-11-09T19:22:00+09:00"}}, {"type": "Feature", "geometry": {"type": "Point", "coordinates": [141.233536, 43.134125]}, "properties": {"action": "警戒出動", "address": "手稲区曙5条3丁目", "time": "2017-11-09T12:33:00+09:00"}}, {"type": "Feature", "geometry": {"type": "Point", "coordinates": [141.302948, 42.982479]}, "properties": {"action": "警戒出動", "address": "南区南沢 付近", "time": "2017-11-09T08:37:00+09:00"}}, {"type": "Feature", "geometry": {"type": "Point", "coordinates": [141.350037, 43.051384]}, "properties": {"action": "警戒出動", "address": "中央区南7条西6丁目", "time": "2017-11-09T06:03:00+09:00"}}, {"type": "Feature", "geometry": {"type": "Point", "coordinates": [141.328568, 43.073643]}, "properties": {"action": "ガス漏れ出動", "address": "中央区北13条西16丁目", "time": "2017-11-09T22:57:00+09:00"}}, {"type": "Feature", "geometry": {"type": "Point", "coordinates": [141.348495, 43.052578]}, "properties": {"action": "ガス漏れ出動", "address": "中央区南6条西7丁目", "time": "2017-11-09T14:07:00+09:00"}}, {"type": "Feature", "geometry": {"type": "Point", "coordinates": [141.361542, 43.057301]}, "properties": {"action": "救急隊支援出動", "address": "中央区南4条東3丁目", "time": "2017-11-09T21:39:00+09:00"}}, {"type": "Feature", "geometry": {"type": "Point", "coordinates": [141.422104, 43.025696]}, "properties": {"action": "救急隊支援出動", "address": "豊平区月寒東4条16丁目", "time": "2017-11-09T20:58:00+09:00"}}, {"type": "Feature", "geometry": {"type": "Point", "coordinates": [141.35083, 43.048309]}, "properties": {"action": "救急隊支援出動", "address": "中央区南9条西6丁目", "time": "2017-11-09T16:06:00+09:00"}}, {"type": "Feature", "geometry": {"type": "Point", "coordinates": [141.330231, 43.068089]}, "properties": {"action": "救急隊支援出動", "address": "中央区北8条西16丁目", "time": "2017-11-09T11:00:00+09:00"}}, {"type": "Feature", "geometry": {"type": "Point", "coordinates": [141.333786, 42.996731]}, "properties": {"action": "救急隊支援出動", "address": "南区川沿3条2丁目", "time": "2017-11-09T10:11:00+09:00"}}, {"type": "Feature", "geometry": {"type": "Point", "coordinates": [141.420197, 43.108047]}, "properties": {"action": "救急隊支援出動", "address": "東区東苗穂13条2丁目", "time": "2017-11-09T07:43:00+09:00"}}, {"type": "Feature", "geometry": {"type": "Point", "coordinates": [141.212875, 43.133156]}, "properties": {"action": "救急隊支援出動", "address": "手稲区星置1条2丁目", "time": "2017-11-09T06:40:00+09:00"}}, {"type": "Feature", "geometry": {"type": "Point", "coordinates": [141.485016, 43.025871]}, "properties": {"action": "救急隊支援出動", "address": "厚別区青葉町15丁目", "time": "2017-11-09T06:18:00+09:00"}}, {"type": "Feature", "geometry": {"type": "Point", "coordinates": [141.323059, 43.041679]}, "properties": {"action": "救急隊支援出動", "address": "中央区南11条西23丁目", "time": "2017-11-09T06:04:00+09:00"}}]}