{"type": "FeatureCollection", "crs": {"type": "name", "properties": {"name": "urn:ogc:def:crs:OGC:1.3:CRS84"}}, "features": [{"type": "Feature", "geometry": {"type": "Point", "coordinates": [141.466843, 43.015263]}, "properties": {"action": "火災出動", "address": "厚別区上野幌3条2丁目", "time": "2017-11-11T17:32:00+09:00"}}, {"type": "Feature", "geometry": {"type": "Point", "coordinates": [141.369827, 43.118881]}, "properties": {"action": "救助出動", "address": "東区北46条東18丁目", "time": "2017-11-11T20:52:00+09:00"}}, {"type": "Feature", "geometry": {"type": "Point", "coordinates": [141.35614, 43.075279]}, "properties": {"action": "救助出動", "address": "東区北11条東2丁目", "time": "2017-11-11T17:30:00+09:00"}}, {"type": "Feature", "geometry": {"type": "Point", "coordinates": [141.157349, 42.966698]}, "properties": {"action": "救助出動", "address": "南区定山渓無番地　朝里峠方面", "time": "2017-11-11T11:58:00+09:00"}}, {"type": "Feature", "geometry": {"type": "Point", "coordinates": [141.427246, 43.105114]}, "properties": {"action": "警戒出動", "address": "東区東苗穂13条4丁目", "time": "2017-11-11T19:17:00+09:00"}}, {"type": "Feature", "geometry": {"type": "Point", "coordinates": [141.365417, 43.018402]}, "properties": {"action": "救急隊支援出動", "address": "南区澄川3条1丁目", "time": "2017-11-11T21:36:00+09:00"}}, {"type": "Feature", "geometry": {"type": "Point", "coordinates": [141.457443, 43.052925]}, "properties": {"action": "救急隊支援出動", "address": "厚別区厚別西5条2丁目", "time": "2017-11-11T20:11:00+09:00"}}, {"type": "Feature", "geometry": {"type": "Point", "coordinates": [141.424973, 43.055786]}, "properties": {"action": "救急隊支援出動", "address": "白石区北郷4条7丁目", "time": "2017-11-11T17:55:00+09:00"}}, {"type": "Feature", "geometry": {"type": "Point", "coordinates": [141.483902, 43.040562]}, "properties": {"action": "救急隊支援出動", "address": "厚別区厚別東1条2丁目", "time": "2017-11-11T16:18:00+09:00"}}, {"type": "Feature", "geometry": {"type": "Point", "coordinates": [141.33728, 43.110828]}, "properties": {"action": "救急隊支援出動", "address": "北区麻生町5丁目", "time": "2017-11-11T14:20:00+09:00"}}, {"type": "Feature", "geometry": {"type": "Point", "coordinates": [141.361252, 43.112858]}, "properties": {"action": "救急隊支援出動", "address": "東区北42条東12丁目", "time": "2017-11-11T12:44:00+09:00"}}, {"type": "Feature", "geometry": {"type": "Point", "coordinates": [141.324295, 43.138638]}, "properties": {"action": "救急隊支援出動", "address": "北区屯田7条9丁目", "time": "2017-11-11T12:13:00+09:00"}}, {"type": "Feature", "geometry": {"type": "Point", "coordinates": [141.355331, 43.057011]}, "properties": {"action": "救急隊支援出動", "address": "中央区南3条西2丁目", "time": "2017-11-11T03:17:00+09:00"}}]}