{"type": "FeatureCollection", "crs": {"type": "name", "properties": {"name": "urn:ogc:def:crs:OGC:1.3:CRS84"}}, "features": [{"type": "Feature", "geometry": {"type": "Point", "coordinates": [141.341675, 43.051956]}, "properties": {"action": "火災出動", "address": "中央区南6条西11丁目", "time": "2017-11-29T14:21:00+09:00"}}, {"type": "Feature", "geometry": {"type": "Point", "coordinates": [141.430191, 43.030945]}, "properties": {"action": "車両火災出動", "address": "白石区南郷通17丁目", "time": "2017-11-29T09:47:00+09:00"}}, {"type": "Feature", "geometry": {"type": "Point", "coordinates": [141.307785, 43.074909]}, "properties": {"action": "救助出動", "address": "西区二十四軒4条4丁目", "time": "2017-11-29T23:09:00+09:00"}}, {"type": "Feature", "geometry": {"type": "Point", "coordinates": [141.33345, 43.129368]}, "properties": {"action": "救助出動", "address": "北区屯田4条5丁目", "time": "2017-11-29T17:23:00+09:00"}}, {"type": "Feature", "geometry": {"type": "Point", "coordinates": [141.370193, 43.084007]}, "properties": {"action": "警戒出動", "address": "東区北17条東13丁目", "time": "2017-11-29T23:30:00+09:00"}}, {"type": "Feature", "geometry": {"type": "Point", "coordinates": [141.359116, 43.03767]}, "properties": {"action": "警戒出動", "address": "豊平区中の島1条2丁目", "time": "2017-11-29T21:55:00+09:00"}}, {"type": "Feature", "geometry": {"type": "Point", "coordinates": [141.338074, 43.100887]}, "properties": {"action": "警戒出動", "address": "北区北34条西6丁目", "time": "2017-11-29T17:08:00+09:00"}}, {"type": "Feature", "geometry": {"type": "Point", "coordinates": [141.347595, 43.075165]}, "properties": {"action": "警戒出動", "address": "北区北12条西4丁目", "time": "2017-11-29T13:18:00+09:00"}}, {"type": "Feature", "geometry": {"type": "Point", "coordinates": [141.396622, 43.04475]}, "properties": {"action": "警戒出動", "address": "白石区南郷通1丁目", "time": "2017-11-29T08:54:00+09:00"}}, {"type": "Feature", "geometry": {"type": "Point", "coordinates": [141.300873, 43.078438]}, "properties": {"action": "警戒出動", "address": "西区琴似3条4丁目", "time": "2017-11-29T06:54:00+09:00"}}, {"type": "Feature", "geometry": {"type": "Point", "coordinates": [141.398697, 43.043926]}, "properties": {"action": "警戒出動", "address": "白石区南郷通2丁目", "time": "2017-11-29T02:38:00+09:00"}}, {"type": "Feature", "geometry": {"type": "Point", "coordinates": [141.358337, 43.126511]}, "properties": {"action": "救急隊支援出動", "address": "北区百合が原3丁目", "time": "2017-11-29T20:51:00+09:00"}}, {"type": "Feature", "geometry": {"type": "Point", "coordinates": [141.245087, 43.120872]}, "properties": {"action": "救急隊支援出動", "address": "手稲区前田1条11丁目", "time": "2017-11-29T20:25:00+09:00"}}, {"type": "Feature", "geometry": {"type": "Point", "coordinates": [141.381851, 43.135532]}, "properties": {"action": "救急隊支援出動", "address": "北区篠路町上篠路 付近", "time": "2017-11-29T17:50:00+09:00"}}, {"type": "Feature", "geometry": {"type": "Point", "coordinates": [141.461029, 43.03228]}, "properties": {"action": "救急隊支援出動", "address": "厚別区厚別中央1条2丁目", "time": "2017-11-29T15:59:00+09:00"}}, {"type": "Feature", "geometry": {"type": "Point", "coordinates": [141.354691, 43.120586]}, "properties": {"action": "救急隊支援出動", "address": "東区北49条東8丁目", "time": "2017-11-29T14:41:00+09:00"}}, {"type": "Feature", "geometry": {"type": "Point", "coordinates": [141.455078, 43.03817]}, "properties": {"action": "航空隊支援出動", "address": "白石区流通ｾﾝﾀｰ7丁目", "time": "2017-11-29T16:05:00+09:00"}}, {"type": "Feature", "geometry": {"type": "Point", "coordinates": [141.497253, 43.029686]}, "properties": {"action": "航空隊支援出動", "address": "厚別区もみじ台東4丁目", "time": "2017-11-29T15:34:00+09:00"}}, {"type": "Feature", "geometry": {"type": "Point", "coordinates": [141.439896, 43.005226]}, "properties": {"action": "航空隊支援出動", "address": "清田区清田1条2丁目", "time": "2017-11-29T14:20:00+09:00"}}, {"type": "Feature", "geometry": {"type": "Point", "coordinates": [141.462601, 43.020119]}, "properties": {"action": "航空隊支援出動", "address": "厚別区上野幌3条1丁目", "time": "2017-11-29T09:47:00+09:00"}}]}